{
  "name": "Klaipedos Apskritis",
  "cities": [
    {
      "cityName": "Åazdeniki",
      "lat": 56,
      "lng": 21.2
    },
    {
      "cityName": "Abakai",
      "lat": 55.9,
      "lng": 21.45
    },
    {
      "cityName": "Agluonenai",
      "lat": 55.6,
      "lng": 21.4
    },
    {
      "cityName": "Agluoney",
      "lat": 55.5833333,
      "lng": 21.3833333
    },
    {
      "cityName": "Aisenai",
      "lat": 55.5333333,
      "lng": 21.4333333
    },
    {
      "cityName": "Aisenu",
      "lat": 55.6,
      "lng": 21.5
    },
    {
      "cityName": "Akmenales",
      "lat": 56.0333333,
      "lng": 21.3666667
    },
    {
      "cityName": "Alka",
      "lat": 55.4261111,
      "lng": 21.4061111
    },
    {
      "cityName": "Alksniai",
      "lat": 55.75,
      "lng": 21.3166667
    },
    {
      "cityName": "Alseikos",
      "lat": 55.5333333,
      "lng": 21.6166667
    },
    {
      "cityName": "Al'tkhof",
      "lat": 55.7,
      "lng": 21.1666667
    },
    {
      "cityName": "Anaiciai",
      "lat": 55.8666667,
      "lng": 21.0833333
    },
    {
      "cityName": "Andrzejewo",
      "lat": 55.685,
      "lng": 21.71
    },
    {
      "cityName": "Anduliai",
      "lat": 55.85,
      "lng": 21.2166667
    },
    {
      "cityName": "Anedin",
      "lat": 55.7,
      "lng": 21.4333333
    },
    {
      "cityName": "Ankshtakey",
      "lat": 55.9166667,
      "lng": 21.2166667
    },
    {
      "cityName": "Antkopcio",
      "lat": 55.7,
      "lng": 21.5666667
    },
    {
      "cityName": "Anuzhey",
      "lat": 55.8666667,
      "lng": 21.5666667
    },
    {
      "cityName": "Ashpurven",
      "lat": 55.5666667,
      "lng": 21.4333333
    },
    {
      "cityName": "Asteikiai",
      "lat": 55.95,
      "lng": 21.4666667
    },
    {
      "cityName": "Atmata",
      "lat": 55.3166667,
      "lng": 21.3833333
    },
    {
      "cityName": "Augstumaler Bruch",
      "lat": 55.3833333,
      "lng": 21.3333333
    },
    {
      "cityName": "Aukslyay",
      "lat": 56.05,
      "lng": 21.2833333
    },
    {
      "cityName": "Auksora",
      "lat": 55.6833333,
      "lng": 21.7333333
    },
    {
      "cityName": "Aukstkiemiai",
      "lat": 55.7666667,
      "lng": 21.1666667
    },
    {
      "cityName": "Baiciai",
      "lat": 55.6666667,
      "lng": 21.3666667
    },
    {
      "cityName": "Bajohren",
      "lat": 55.8666667,
      "lng": 21.2166667
    },
    {
      "cityName": "Bakhman",
      "lat": 55.7166667,
      "lng": 21.1666667
    },
    {
      "cityName": "Baleyshkey",
      "lat": 55.8833333,
      "lng": 21.5166667
    },
    {
      "cityName": "Balsenai",
      "lat": 55.6166667,
      "lng": 21.6833333
    },
    {
      "cityName": "Barkellai",
      "lat": 56.0166667,
      "lng": 21.3
    },
    {
      "cityName": "Barsdunen",
      "lat": 55.3541667,
      "lng": 21.4852778
    },
    {
      "cityName": "Barvai",
      "lat": 55.4225,
      "lng": 21.52
    },
    {
      "cityName": "Baubley",
      "lat": 55.8333333,
      "lng": 21.4
    },
    {
      "cityName": "Baugskorallen",
      "lat": 55.75,
      "lng": 21.2833333
    },
    {
      "cityName": "Begedziai",
      "lat": 55.5,
      "lng": 21.4666667
    },
    {
      "cityName": "Beinoriske",
      "lat": 55.5833333,
      "lng": 21.65
    },
    {
      "cityName": "Benaiciai",
      "lat": 56.1,
      "lng": 21.2333333
    },
    {
      "cityName": "Bendikai",
      "lat": 55.8,
      "lng": 21.1
    },
    {
      "cityName": "Berziskiai",
      "lat": 55.45,
      "lng": 21.5166667
    },
    {
      "cityName": "Birbinciai",
      "lat": 55.6833333,
      "lng": 21.3166667
    },
    {
      "cityName": "Birkenkhayn",
      "lat": 55.6833333,
      "lng": 21.2166667
    },
    {
      "cityName": "Birzheninkey",
      "lat": 55.5166667,
      "lng": 21.3333333
    },
    {
      "cityName": "Bismark",
      "lat": 55.3113889,
      "lng": 21.4372222
    },
    {
      "cityName": "Blastsen",
      "lat": 55.3830556,
      "lng": 21.2619444
    },
    {
      "cityName": "Bliucakiai",
      "lat": 55.8666667,
      "lng": 21.2833333
    },
    {
      "cityName": "Blusiai",
      "lat": 55.7833333,
      "lng": 21.1333333
    },
    {
      "cityName": "Brozhey",
      "lat": 55.65,
      "lng": 21.5666667
    },
    {
      "cityName": "Brusdaylinen",
      "lat": 55.85,
      "lng": 21.1166667
    },
    {
      "cityName": "Budinge",
      "lat": 56.0333333,
      "lng": 21.1166667
    },
    {
      "cityName": "Budriai",
      "lat": 55.8833333,
      "lng": 21.45
    },
    {
      "cityName": "Budv'ete",
      "lat": 55.5666667,
      "lng": 21.3666667
    },
    {
      "cityName": "Budv'yechay",
      "lat": 55.85,
      "lng": 21.35
    },
    {
      "cityName": "Bundalai",
      "lat": 55.47,
      "lng": 21.3680556
    },
    {
      "cityName": "Butkai",
      "lat": 55.5833333,
      "lng": 21.3166667
    },
    {
      "cityName": "Byurger-Fel'd",
      "lat": 55.7333333,
      "lng": 21.1333333
    },
    {
      "cityName": "Cartai",
      "lat": 55.8166667,
      "lng": 21.2
    },
    {
      "cityName": "Cenkune",
      "lat": 55.6666667,
      "lng": 21.25
    },
    {
      "cityName": "Chutelei",
      "lat": 55.4986111,
      "lng": 21.4255556
    },
    {
      "cityName": "Clemmenhof",
      "lat": 55.7166667,
      "lng": 21.2
    },
    {
      "cityName": "Corallischken",
      "lat": 55.7666667,
      "lng": 21.25
    },
    {
      "cityName": "Darbenai",
      "lat": 56.0166667,
      "lng": 21.25
    },
    {
      "cityName": "Dargusney",
      "lat": 55.8166667,
      "lng": 21.1
    },
    {
      "cityName": "Daubenai Didieji",
      "lat": 55.9833333,
      "lng": 21.25
    },
    {
      "cityName": "Daugelai",
      "lat": 55.6333333,
      "lng": 21.6666667
    },
    {
      "cityName": "Dauginchey",
      "lat": 55.9277778,
      "lng": 21.5422222
    },
    {
      "cityName": "Dauksaiciai",
      "lat": 55.5666667,
      "lng": 21.65
    },
    {
      "cityName": "Dauperai",
      "lat": 55.7166667,
      "lng": 21.3
    },
    {
      "cityName": "Davilay",
      "lat": 55.6619444,
      "lng": 21.3572222
    },
    {
      "cityName": "Deckiai",
      "lat": 55.6666667,
      "lng": 21.3
    },
    {
      "cityName": "Degley",
      "lat": 55.55,
      "lng": 21.45
    },
    {
      "cityName": "Dercekliai",
      "lat": 55.5833333,
      "lng": 21.25
    },
    {
      "cityName": "Dideyn-Mostaychey",
      "lat": 55.7666667,
      "lng": 21.65
    },
    {
      "cityName": "Dimitravas",
      "lat": 55.9666667,
      "lng": 21.2333333
    },
    {
      "cityName": "Dinvechay",
      "lat": 55.7333333,
      "lng": 21.25
    },
    {
      "cityName": "Ditava",
      "lat": 55.6,
      "lng": 21.3
    },
    {
      "cityName": "Drawöhnen",
      "lat": 55.5333333,
      "lng": 21.25
    },
    {
      "cityName": "Dreiziai",
      "lat": 55.5333333,
      "lng": 21.3833333
    },
    {
      "cityName": "Druken",
      "lat": 55.55,
      "lng": 21.3
    },
    {
      "cityName": "Dumble",
      "lat": 55.6333333,
      "lng": 21.25
    },
    {
      "cityName": "Duoniai",
      "lat": 55.9666667,
      "lng": 21.4
    },
    {
      "cityName": "Dupulciai",
      "lat": 55.8666667,
      "lng": 21.3
    },
    {
      "cityName": "Dvilei",
      "lat": 55.55,
      "lng": 21.4833333
    },
    {
      "cityName": "Eglina",
      "lat": 55.7666667,
      "lng": 21.3166667
    },
    {
      "cityName": "Ekeciai",
      "lat": 55.7833333,
      "lng": 21.1666667
    },
    {
      "cityName": "Ezaiciai",
      "lat": 55.6833333,
      "lng": 21.45
    },
    {
      "cityName": "Feilenhof",
      "lat": 55.3666667,
      "lng": 21.2166667
    },
    {
      "cityName": "Försterei",
      "lat": 55.7666667,
      "lng": 21.0833333
    },
    {
      "cityName": "Fridrikhsgnade",
      "lat": 55.7833333,
      "lng": 21.2166667
    },
    {
      "cityName": "Gadminy",
      "lat": 55.8166667,
      "lng": 21.3333333
    },
    {
      "cityName": "Gaiciai",
      "lat": 55.4666667,
      "lng": 21.2666667
    },
    {
      "cityName": "Gardzdai",
      "lat": 55.7127778,
      "lng": 21.4033333
    },
    {
      "cityName": "Gedikai",
      "lat": 55.4902778,
      "lng": 21.7058333
    },
    {
      "cityName": "Gedminaiciai",
      "lat": 55.5166667,
      "lng": 21.6833333
    },
    {
      "cityName": "Gedviday",
      "lat": 55.6333333,
      "lng": 21.6833333
    },
    {
      "cityName": "Gelazhine",
      "lat": 55.6333333,
      "lng": 21.4
    },
    {
      "cityName": "Genaiciai",
      "lat": 55.8,
      "lng": 21.4166667
    },
    {
      "cityName": "Gencai",
      "lat": 55.9666667,
      "lng": 21.3
    },
    {
      "cityName": "Gerduvenai",
      "lat": 55.7333333,
      "lng": 21.4333333
    },
    {
      "cityName": "Gestautai",
      "lat": 55.8833333,
      "lng": 21.2
    },
    {
      "cityName": "Gettskhefen",
      "lat": 55.6666667,
      "lng": 21.1833333
    },
    {
      "cityName": "Gibbishen-Martin",
      "lat": 55.6333333,
      "lng": 21.2
    },
    {
      "cityName": "Gibbishen-Peter",
      "lat": 55.8666667,
      "lng": 21.1166667
    },
    {
      "cityName": "Gincai",
      "lat": 55.4333333,
      "lng": 21.5166667
    },
    {
      "cityName": "Ginduliai",
      "lat": 55.7333333,
      "lng": 21.2
    },
    {
      "cityName": "Gintarai",
      "lat": 55.9166667,
      "lng": 21.5
    },
    {
      "cityName": "Girininkai",
      "lat": 55.6833333,
      "lng": 21.5166667
    },
    {
      "cityName": "Gnibalay",
      "lat": 55.3866667,
      "lng": 21.5427778
    },
    {
      "cityName": "Grabai",
      "lat": 55.8333333,
      "lng": 21.1166667
    },
    {
      "cityName": "Grabshichey",
      "lat": 55.6166667,
      "lng": 21.3833333
    },
    {
      "cityName": "Grabupai",
      "lat": 55.3833333,
      "lng": 21.5
    },
    {
      "cityName": "Grabupeliai",
      "lat": 55.3666667,
      "lng": 21.5333333
    },
    {
      "cityName": "Grabupiai",
      "lat": 55.3675,
      "lng": 21.5094444
    },
    {
      "cityName": "Graumene",
      "lat": 55.7833333,
      "lng": 21.3166667
    },
    {
      "cityName": "Greiciai",
      "lat": 55.8333333,
      "lng": 21.45
    },
    {
      "cityName": "Greiciunai",
      "lat": 55.7833333,
      "lng": 21.4833333
    },
    {
      "cityName": "Gribzhiney",
      "lat": 55.7666667,
      "lng": 21.3833333
    },
    {
      "cityName": "Grikshey",
      "lat": 55.85,
      "lng": 21.4166667
    },
    {
      "cityName": "Grikshtaychey",
      "lat": 55.7166667,
      "lng": 21.5
    },
    {
      "cityName": "Grineydzhey",
      "lat": 55.5,
      "lng": 21.5
    },
    {
      "cityName": "Grobishkey",
      "lat": 55.5333333,
      "lng": 21.3333333
    },
    {
      "cityName": "Gross-Kurshey",
      "lat": 55.8166667,
      "lng": 21.25
    },
    {
      "cityName": "Grudshayken",
      "lat": 55.6166667,
      "lng": 21.25
    },
    {
      "cityName": "Grumbley",
      "lat": 55.5,
      "lng": 21.35
    },
    {
      "cityName": "Gruschlawki",
      "lat": 56.0666667,
      "lng": 21.4
    },
    {
      "cityName": "Grushlaukis Medsedzhyay",
      "lat": 56.0833333,
      "lng": 21.3666667
    },
    {
      "cityName": "Gryksiai",
      "lat": 55.9,
      "lng": 21.3166667
    },
    {
      "cityName": "Gut Laukozemy",
      "lat": 56.0666667,
      "lng": 21.2
    },
    {
      "cityName": "Heidekrug",
      "lat": 55.3488889,
      "lng": 21.4830556
    },
    {
      "cityName": "Impilties",
      "lat": 56.1166667,
      "lng": 21.25
    },
    {
      "cityName": "Impilties Naujoji",
      "lat": 56.1166667,
      "lng": 21.3
    },
    {
      "cityName": "Inkakliai",
      "lat": 55.4808333,
      "lng": 21.5805556
    },
    {
      "cityName": "Iokubavas",
      "lat": 55.8166667,
      "lng": 21.35
    },
    {
      "cityName": "Ioniki",
      "lat": 55.55,
      "lng": 21.6333333
    },
    {
      "cityName": "Ishlits",
      "lat": 55.4666667,
      "lng": 21.4
    },
    {
      "cityName": "Jakai",
      "lat": 55.7,
      "lng": 21.2166667
    },
    {
      "cityName": "Jankaiciai",
      "lat": 55.8166667,
      "lng": 21.15
    },
    {
      "cityName": "Joguciai",
      "lat": 55.8,
      "lng": 21.1666667
    },
    {
      "cityName": "Joksai",
      "lat": 55.5166667,
      "lng": 21.3
    },
    {
      "cityName": "Jomantai",
      "lat": 55.5,
      "lng": 21.5666667
    },
    {
      "cityName": "Jonikaiciai",
      "lat": 55.55,
      "lng": 21.7333333
    },
    {
      "cityName": "Joskaudai",
      "lat": 55.9833333,
      "lng": 21.1666667
    },
    {
      "cityName": "Jucaiciai",
      "lat": 55.5833333,
      "lng": 21.5833333
    },
    {
      "cityName": "Judejki",
      "lat": 56.15,
      "lng": 21.2666667
    },
    {
      "cityName": "Juodikiai",
      "lat": 55.6,
      "lng": 21.35
    },
    {
      "cityName": "Juodkrante",
      "lat": 55.5444444,
      "lng": 21.1222222
    },
    {
      "cityName": "Juodupio",
      "lat": 55.6166667,
      "lng": 21.55
    },
    {
      "cityName": "Jurgiai",
      "lat": 55.65,
      "lng": 21.35
    },
    {
      "cityName": "Jurjonai",
      "lat": 55.7666667,
      "lng": 21.5666667
    },
    {
      "cityName": "Jurkiske",
      "lat": 55.5333333,
      "lng": 21.6666667
    },
    {
      "cityName": "KÅ‚ajpeda",
      "lat": 55.7172222,
      "lng": 21.1175
    },
    {
      "cityName": "Kacaiciai",
      "lat": 55.8666667,
      "lng": 21.4166667
    },
    {
      "cityName": "Kairiai",
      "lat": 55.6166667,
      "lng": 21.2333333
    },
    {
      "cityName": "Kalgriauziai",
      "lat": 56.05,
      "lng": 21.15
    },
    {
      "cityName": "Kalininkay",
      "lat": 55.3888889,
      "lng": 21.5069444
    },
    {
      "cityName": "Kal'nishki",
      "lat": 55.8833333,
      "lng": 21.5666667
    },
    {
      "cityName": "Kalote",
      "lat": 55.7833333,
      "lng": 21.1166667
    },
    {
      "cityName": "Kalveliskiai",
      "lat": 55.3166667,
      "lng": 21.4833333
    },
    {
      "cityName": "Kal'vey",
      "lat": 55.6333333,
      "lng": 21.2833333
    },
    {
      "cityName": "Kal'vishkey",
      "lat": 55.4933333,
      "lng": 21.3436111
    },
    {
      "cityName": "Karckelbeck",
      "lat": 55.8,
      "lng": 21.0833333
    },
    {
      "cityName": "Karlsberg",
      "lat": 55.6666667,
      "lng": 21.2166667
    },
    {
      "cityName": "Karpishkey",
      "lat": 55.55,
      "lng": 21.6833333
    },
    {
      "cityName": "Kartena",
      "lat": 55.9211111,
      "lng": 21.4769444
    },
    {
      "cityName": "Kashuchey",
      "lat": 55.9833333,
      "lng": 21.3166667
    },
    {
      "cityName": "Kaustekley",
      "lat": 55.6333333,
      "lng": 21.5666667
    },
    {
      "cityName": "Kebeliai",
      "lat": 55.5166667,
      "lng": 21.45
    },
    {
      "cityName": "Keduli",
      "lat": 55.55,
      "lng": 21.7166667
    },
    {
      "cityName": "Kekalishki",
      "lat": 55.45,
      "lng": 21.5666667
    },
    {
      "cityName": "Kekstai",
      "lat": 55.8166667,
      "lng": 21.2333333
    },
    {
      "cityName": "Kelvetai",
      "lat": 55.5333333,
      "lng": 21.7333333
    },
    {
      "cityName": "Kepal-Klaus",
      "lat": 55.7,
      "lng": 21.3666667
    },
    {
      "cityName": "Kiaulakiai",
      "lat": 55.6833333,
      "lng": 21.5833333
    },
    {
      "cityName": "Kiauleikiai",
      "lat": 55.9166667,
      "lng": 21.15
    },
    {
      "cityName": "Kibelksciai",
      "lat": 55.8666667,
      "lng": 21.1666667
    },
    {
      "cityName": "Kintai",
      "lat": 55.4180556,
      "lng": 21.2633333
    },
    {
      "cityName": "Kintrimai",
      "lat": 55.65,
      "lng": 21.7166667
    },
    {
      "cityName": "Kirlikai",
      "lat": 55.3333333,
      "lng": 21.5
    },
    {
      "cityName": "Kishkeley",
      "lat": 55.4538889,
      "lng": 21.2983333
    },
    {
      "cityName": "Kishken-Gerge",
      "lat": 55.6833333,
      "lng": 21.3
    },
    {
      "cityName": "Kisinai",
      "lat": 55.6333333,
      "lng": 21.3666667
    },
    {
      "cityName": "Klauspuschen",
      "lat": 55.8166667,
      "lng": 21.1333333
    },
    {
      "cityName": "Klayn-Gettskhefen",
      "lat": 55.6833333,
      "lng": 21.1666667
    },
    {
      "cityName": "Klibey",
      "lat": 55.9166667,
      "lng": 21.3166667
    },
    {
      "cityName": "Klooskhen-Bartel'",
      "lat": 55.6,
      "lng": 21.25
    },
    {
      "cityName": "Kogsten",
      "lat": 55.4333333,
      "lng": 21.3333333
    },
    {
      "cityName": "Koncaiciai",
      "lat": 55.5,
      "lng": 21.7
    },
    {
      "cityName": "Kooden",
      "lat": 55.5666667,
      "lng": 21.3
    },
    {
      "cityName": "Kratinga",
      "lat": 55.8758333,
      "lng": 21.2508333
    },
    {
      "cityName": "Kretingen",
      "lat": 55.8833333,
      "lng": 21.2166667
    },
    {
      "cityName": "Kukhary",
      "lat": 55.6666667,
      "lng": 21.7166667
    },
    {
      "cityName": "Kukorai",
      "lat": 55.4680556,
      "lng": 21.4516667
    },
    {
      "cityName": "Kule",
      "lat": 55.8,
      "lng": 21.65
    },
    {
      "cityName": "Kulupenai",
      "lat": 55.9613889,
      "lng": 21.4855556
    },
    {
      "cityName": "Kumpikai",
      "lat": 56.05,
      "lng": 21.3666667
    },
    {
      "cityName": "Kumponay",
      "lat": 55.8333333,
      "lng": 21.3833333
    },
    {
      "cityName": "Kumzaiciai",
      "lat": 55.8,
      "lng": 21.6666667
    },
    {
      "cityName": "Kunigishkey",
      "lat": 55.95,
      "lng": 21.0833333
    },
    {
      "cityName": "Kurmaiciai",
      "lat": 55.9166667,
      "lng": 21.2666667
    },
    {
      "cityName": "Kvechey",
      "lat": 55.9,
      "lng": 21.1833333
    },
    {
      "cityName": "Kvetiney",
      "lat": 55.75,
      "lng": 21.4
    },
    {
      "cityName": "Labatmedis",
      "lat": 55.455,
      "lng": 21.5872222
    },
    {
      "cityName": "Lampsaten",
      "lat": 55.4769444,
      "lng": 21.3477778
    },
    {
      "cityName": "Lankupiai",
      "lat": 55.4858333,
      "lng": 21.3616667
    },
    {
      "cityName": "Lapales",
      "lat": 55.3913889,
      "lng": 21.4530556
    },
    {
      "cityName": "Lape",
      "lat": 55.7666667,
      "lng": 21.4666667
    },
    {
      "cityName": "Laugaliai",
      "lat": 55.4816667,
      "lng": 21.4436111
    },
    {
      "cityName": "Laukstenai",
      "lat": 55.4455556,
      "lng": 21.6416667
    },
    {
      "cityName": "Leguciai",
      "lat": 55.55,
      "lng": 21.6666667
    },
    {
      "cityName": "Lenkimai",
      "lat": 56.1833333,
      "lng": 21.3166667
    },
    {
      "cityName": "Liziai",
      "lat": 55.7166667,
      "lng": 21.7166667
    },
    {
      "cityName": "Lubiai",
      "lat": 55.8833333,
      "lng": 21.5833333
    },
    {
      "cityName": "Lugnaliai",
      "lat": 55.85,
      "lng": 21.55
    },
    {
      "cityName": "Luzija",
      "lat": 55.6,
      "lng": 21.2
    },
    {
      "cityName": "Lydimai",
      "lat": 55.7166667,
      "lng": 21.2666667
    },
    {
      "cityName": "Macblydziai",
      "lat": 55.45,
      "lng": 21.3
    },
    {
      "cityName": "Machuychey",
      "lat": 55.6833333,
      "lng": 21.4166667
    },
    {
      "cityName": "Machyuychey-Medsedzhey",
      "lat": 55.65,
      "lng": 21.4666667
    },
    {
      "cityName": "Macikai",
      "lat": 55.3558333,
      "lng": 21.5205556
    },
    {
      "cityName": "Mamiai",
      "lat": 55.9,
      "lng": 21.6
    },
    {
      "cityName": "Manciske",
      "lat": 55.9833333,
      "lng": 21.1
    },
    {
      "cityName": "Mantviday",
      "lat": 55.4722222,
      "lng": 21.4544444
    },
    {
      "cityName": "Margey",
      "lat": 55.6333333,
      "lng": 21.3833333
    },
    {
      "cityName": "Martinai",
      "lat": 55.7333333,
      "lng": 21.2166667
    },
    {
      "cityName": "Martinaychey",
      "lat": 55.9333333,
      "lng": 21.5
    },
    {
      "cityName": "Mataiciai",
      "lat": 55.6166667,
      "lng": 21.7166667
    },
    {
      "cityName": "Matimazuren",
      "lat": 55.75,
      "lng": 21.2
    },
    {
      "cityName": "Matskay",
      "lat": 55.6,
      "lng": 21.2666667
    },
    {
      "cityName": "Medales",
      "lat": 55.4330556,
      "lng": 21.4716667
    },
    {
      "cityName": "Medomiskiai",
      "lat": 56.05,
      "lng": 21.2166667
    },
    {
      "cityName": "Meesel'n",
      "lat": 55.5166667,
      "lng": 21.3166667
    },
    {
      "cityName": "Mel'neragen",
      "lat": 55.7333333,
      "lng": 21.0833333
    },
    {
      "cityName": "Mikalishkey",
      "lat": 55.8,
      "lng": 21.5
    },
    {
      "cityName": "Mikhel'sakuten",
      "lat": 55.4513889,
      "lng": 21.3408333
    },
    {
      "cityName": "Mine",
      "lat": 55.3627778,
      "lng": 21.2841667
    },
    {
      "cityName": "Misayken",
      "lat": 55.6833333,
      "lng": 21.25
    },
    {
      "cityName": "Mishuchey",
      "lat": 55.8833333,
      "lng": 21.3833333
    },
    {
      "cityName": "Mockaiciai",
      "lat": 55.5666667,
      "lng": 21.5333333
    },
    {
      "cityName": "Nasrenai",
      "lat": 55.9833333,
      "lng": 21.5166667
    },
    {
      "cityName": "Naujokai",
      "lat": 55.6,
      "lng": 21.7833333
    },
    {
      "cityName": "Nausedai",
      "lat": 56.0666667,
      "lng": 21.3
    },
    {
      "cityName": "Nausodis",
      "lat": 55.8833333,
      "lng": 21.4333333
    },
    {
      "cityName": "Nemerzata",
      "lat": 55.8833333,
      "lng": 21.0666667
    },
    {
      "cityName": "Neringa",
      "lat": 55.3080556,
      "lng": 21.0066667
    },
    {
      "cityName": "Nikelai",
      "lat": 55.4847222,
      "lng": 21.6119444
    },
    {
      "cityName": "Norgelai",
      "lat": 55.6333333,
      "lng": 21.7333333
    },
    {
      "cityName": "Normantai",
      "lat": 55.8,
      "lng": 21.1333333
    },
    {
      "cityName": "Paaschken",
      "lat": 55.6,
      "lng": 21.4166667
    },
    {
      "cityName": "Padvarey",
      "lat": 55.9,
      "lng": 21.25
    },
    {
      "cityName": "Pagrinai",
      "lat": 55.3194444,
      "lng": 21.4822222
    },
    {
      "cityName": "Paiciai",
      "lat": 55.4522222,
      "lng": 21.6102778
    },
    {
      "cityName": "Pajudris",
      "lat": 55.5666667,
      "lng": 21.7833333
    },
    {
      "cityName": "Pajuodupis",
      "lat": 55.7166667,
      "lng": 21.55
    },
    {
      "cityName": "Pakalne",
      "lat": 55.3141667,
      "lng": 21.3205556
    },
    {
      "cityName": "Pakamoriai",
      "lat": 55.7833333,
      "lng": 21.25
    },
    {
      "cityName": "Palanga",
      "lat": 55.9175,
      "lng": 21.0686111
    },
    {
      "cityName": "Palanga Sena",
      "lat": 55.9333333,
      "lng": 21.0833333
    },
    {
      "cityName": "Palenishkey",
      "lat": 55.8166667,
      "lng": 21.5333333
    },
    {
      "cityName": "Pamaris",
      "lat": 55.3436111,
      "lng": 21.3191667
    },
    {
      "cityName": "Pashilishkyay",
      "lat": 55.4219444,
      "lng": 21.5636111
    },
    {
      "cityName": "Paupiai",
      "lat": 55.7166667,
      "lng": 21.1333333
    },
    {
      "cityName": "Paurai",
      "lat": 55.4558333,
      "lng": 21.3108333
    },
    {
      "cityName": "Pazhvelsis",
      "lat": 55.7833333,
      "lng": 21.5166667
    },
    {
      "cityName": "Pelkininkai",
      "lat": 55.2833333,
      "lng": 21.4166667
    },
    {
      "cityName": "Penkininkai",
      "lat": 55.8833333,
      "lng": 21.2333333
    },
    {
      "cityName": "Pervalka",
      "lat": 55.4158333,
      "lng": 21.0994444
    },
    {
      "cityName": "Perwelk",
      "lat": 55.4,
      "lng": 21.1
    },
    {
      "cityName": "Petreliai",
      "lat": 55.4361111,
      "lng": 21.4452778
    },
    {
      "cityName": "Petrikachey",
      "lat": 55.8333333,
      "lng": 21.3166667
    },
    {
      "cityName": "Pezaiciai",
      "lat": 55.5833333,
      "lng": 21.4833333
    },
    {
      "cityName": "Piaulen",
      "lat": 55.5333333,
      "lng": 21.2666667
    },
    {
      "cityName": "Pikteikiai",
      "lat": 55.8166667,
      "lng": 21.4333333
    },
    {
      "cityName": "Pleshkutten",
      "lat": 55.5333333,
      "lng": 21.3
    },
    {
      "cityName": "Plicken",
      "lat": 55.7833333,
      "lng": 21.2833333
    },
    {
      "cityName": "Ploksciai",
      "lat": 56.1,
      "lng": 21.3666667
    },
    {
      "cityName": "Pozerunay",
      "lat": 55.6,
      "lng": 21.4666667
    },
    {
      "cityName": "Precimai",
      "lat": 55.4411111,
      "lng": 21.2916667
    },
    {
      "cityName": "Preilai",
      "lat": 55.3666667,
      "lng": 21.0666667
    },
    {
      "cityName": "Prekule",
      "lat": 55.5536111,
      "lng": 21.3266667
    },
    {
      "cityName": "Pristovay",
      "lat": 55.95,
      "lng": 21.55
    },
    {
      "cityName": "Prysmanciai",
      "lat": 55.8833333,
      "lng": 21.1666667
    },
    {
      "cityName": "Purmaliai",
      "lat": 55.7666667,
      "lng": 21.1333333
    },
    {
      "cityName": "Purvinas",
      "lat": 55.3177778,
      "lng": 21.02
    },
    {
      "cityName": "Raguvishkey",
      "lat": 55.8666667,
      "lng": 21.3666667
    },
    {
      "cityName": "Raisiai",
      "lat": 55.85,
      "lng": 21.1666667
    },
    {
      "cityName": "Ramuchay",
      "lat": 55.4116667,
      "lng": 21.5758333
    },
    {
      "cityName": "Reiskiai",
      "lat": 55.8333333,
      "lng": 21.5666667
    },
    {
      "cityName": "Rokai",
      "lat": 55.6,
      "lng": 21.3166667
    },
    {
      "cityName": "Rubuley",
      "lat": 55.9,
      "lng": 21.4
    },
    {
      "cityName": "Ruchiney Malyy",
      "lat": 55.95,
      "lng": 21.4166667
    },
    {
      "cityName": "Rudachey",
      "lat": 55.75,
      "lng": 21.4833333
    },
    {
      "cityName": "Rudgalvey",
      "lat": 55.6666667,
      "lng": 21.6333333
    },
    {
      "cityName": "Ruigiai",
      "lat": 55.6333333,
      "lng": 21.5333333
    },
    {
      "cityName": "Rumpishkyay",
      "lat": 55.7,
      "lng": 21.15
    },
    {
      "cityName": "Rupkal'ven",
      "lat": 55.3261111,
      "lng": 21.4291667
    },
    {
      "cityName": "Rusinai",
      "lat": 55.6666667,
      "lng": 21.6
    },
    {
      "cityName": "Rusne",
      "lat": 55.2961111,
      "lng": 21.3133333
    },
    {
      "cityName": "Rus",
      "lat": 55.2963889,
      "lng": 21.3758333
    },
    {
      "cityName": "Saipai",
      "lat": 55.85,
      "lng": 21.0833333
    },
    {
      "cityName": "Sakiniai",
      "lat": 55.8,
      "lng": 21.5833333
    },
    {
      "cityName": "Sakuoteliai",
      "lat": 55.5,
      "lng": 21.4333333
    },
    {
      "cityName": "Sakutsi",
      "lat": 55.95,
      "lng": 21.5166667
    },
    {
      "cityName": "Salpenai",
      "lat": 55.5666667,
      "lng": 21.7166667
    },
    {
      "cityName": "Sandkrug",
      "lat": 55.7,
      "lng": 21.1166667
    },
    {
      "cityName": "Sarkiskiai",
      "lat": 55.5333333,
      "lng": 21.5333333
    },
    {
      "cityName": "Sasaiciai",
      "lat": 55.8166667,
      "lng": 21.3833333
    },
    {
      "cityName": "Satriai",
      "lat": 55.7833333,
      "lng": 21.3333333
    },
    {
      "cityName": "Saugai",
      "lat": 55.4625,
      "lng": 21.4627778
    },
    {
      "cityName": "Schibbe",
      "lat": 56.0333333,
      "lng": 21.0833333
    },
    {
      "cityName": "Schmelz",
      "lat": 55.6833333,
      "lng": 21.15
    },
    {
      "cityName": "Senkai",
      "lat": 55.95,
      "lng": 21.2166667
    },
    {
      "cityName": "Shagatpurven",
      "lat": 55.4725,
      "lng": 21.5336111
    },
    {
      "cityName": "Shameytkamis",
      "lat": 55.4183333,
      "lng": 21.4588889
    },
    {
      "cityName": "Shamkay",
      "lat": 55.8,
      "lng": 21.2166667
    },
    {
      "cityName": "Sharde",
      "lat": 55.65,
      "lng": 21.2
    },
    {
      "cityName": "Shauken",
      "lat": 55.4,
      "lng": 21.2666667
    },
    {
      "cityName": "Shilininkay",
      "lat": 55.55,
      "lng": 21.4
    },
    {
      "cityName": "Shisha",
      "lat": 55.325,
      "lng": 21.3858333
    },
    {
      "cityName": "Shishgire",
      "lat": 55.3472222,
      "lng": 21.4052778
    },
    {
      "cityName": "Shishkrandt",
      "lat": 55.3183333,
      "lng": 21.38
    },
    {
      "cityName": "Shlap-Shile",
      "lat": 55.7166667,
      "lng": 21.3333333
    },
    {
      "cityName": "Shlasen",
      "lat": 55.3252778,
      "lng": 21.4608333
    },
    {
      "cityName": "Shlepshtikay",
      "lat": 55.65,
      "lng": 21.7666667
    },
    {
      "cityName": "Shmilginen",
      "lat": 55.7666667,
      "lng": 21.35
    },
    {
      "cityName": "Shnaukshtay",
      "lat": 55.6666667,
      "lng": 21.4166667
    },
    {
      "cityName": "Shtandshen",
      "lat": 55.8166667,
      "lng": 21.1666667
    },
    {
      "cityName": "Shturmay",
      "lat": 55.3647222,
      "lng": 21.2175
    },
    {
      "cityName": "Shuke",
      "lat": 55.9833333,
      "lng": 21.3333333
    },
    {
      "cityName": "Shutiney",
      "lat": 55.65,
      "lng": 21.3833333
    },
    {
      "cityName": "Shvekshna",
      "lat": 55.5197222,
      "lng": 21.6208333
    },
    {
      "cityName": "Skirvitell",
      "lat": 55.3,
      "lng": 21.3666667
    },
    {
      "cityName": "Skirvyte",
      "lat": 55.2666667,
      "lng": 21.3166667
    },
    {
      "cityName": "Skomantai",
      "lat": 55.55,
      "lng": 21.55
    },
    {
      "cityName": "Skruzdinas",
      "lat": 55.3158333,
      "lng": 21.0152778
    },
    {
      "cityName": "Skudziai",
      "lat": 55.8333333,
      "lng": 21.2833333
    },
    {
      "cityName": "Slaveitai",
      "lat": 56.0333333,
      "lng": 21.3333333
    },
    {
      "cityName": "Slupariai",
      "lat": 55.6333333,
      "lng": 21.45
    },
    {
      "cityName": "Smilksciai",
      "lat": 55.8666667,
      "lng": 21.4833333
    },
    {
      "cityName": "Stankaiciai",
      "lat": 55.5333333,
      "lng": 21.45
    },
    {
      "cityName": "Stankishkey",
      "lat": 55.3772222,
      "lng": 21.2402778
    },
    {
      "cityName": "Starishke",
      "lat": 55.6333333,
      "lng": 21.1833333
    },
    {
      "cityName": "Stirbey",
      "lat": 55.6666667,
      "lng": 21.55
    },
    {
      "cityName": "Stonaiciai",
      "lat": 55.5333333,
      "lng": 21.4833333
    },
    {
      "cityName": "Stragnai",
      "lat": 55.55,
      "lng": 21.35
    },
    {
      "cityName": "Sukaiciai",
      "lat": 55.6333333,
      "lng": 21.6
    },
    {
      "cityName": "Svencele",
      "lat": 55.4908333,
      "lng": 21.2547222
    },
    {
      "cityName": "Szienen",
      "lat": 55.4488889,
      "lng": 21.3227778
    },
    {
      "cityName": "Talen",
      "lat": 55.85,
      "lng": 21.25
    },
    {
      "cityName": "Taralaukey",
      "lat": 55.75,
      "lng": 21.15
    },
    {
      "cityName": "Tarviday",
      "lat": 55.65,
      "lng": 21.6
    },
    {
      "cityName": "Tilvikai",
      "lat": 55.7666667,
      "lng": 21.6166667
    },
    {
      "cityName": "Toleikiai",
      "lat": 55.65,
      "lng": 21.25
    },
    {
      "cityName": "Traksedis",
      "lat": 55.3652778,
      "lng": 21.4544444
    },
    {
      "cityName": "Trepikalne",
      "lat": 55.6166667,
      "lng": 21.6
    },
    {
      "cityName": "Triusiai",
      "lat": 55.8166667,
      "lng": 21.3
    },
    {
      "cityName": "Tubausey",
      "lat": 55.95,
      "lng": 21.3
    },
    {
      "cityName": "Tvaskuchyay",
      "lat": 55.4705556,
      "lng": 21.63
    },
    {
      "cityName": "Uksy",
      "lat": 55.5166667,
      "lng": 21.55
    },
    {
      "cityName": "Unkuriai",
      "lat": 55.8166667,
      "lng": 21.6
    },
    {
      "cityName": "Upetay",
      "lat": 55.6,
      "lng": 21.6333333
    },
    {
      "cityName": "Urbiskiai",
      "lat": 55.35,
      "lng": 21.5333333
    },
    {
      "cityName": "Utrey",
      "lat": 55.7833333,
      "lng": 21.45
    },
    {
      "cityName": "Uzhpelkey",
      "lat": 55.95,
      "lng": 21.1333333
    },
    {
      "cityName": "Uzlaukis",
      "lat": 55.5166667,
      "lng": 21.65
    },
    {
      "cityName": "Vabalai",
      "lat": 55.4125,
      "lng": 21.3172222
    },
    {
      "cityName": "Vaineikiai",
      "lat": 56.0166667,
      "lng": 21.35
    },
    {
      "cityName": "Vainiai",
      "lat": 55.5833333,
      "lng": 21.6
    },
    {
      "cityName": "Vainotiske",
      "lat": 55.55,
      "lng": 21.7
    },
    {
      "cityName": "Vaiteliai",
      "lat": 55.8,
      "lng": 21.3666667
    },
    {
      "cityName": "Valenai",
      "lat": 55.8333333,
      "lng": 21.25
    },
    {
      "cityName": "Vanagai",
      "lat": 55.5666667,
      "lng": 21.4166667
    },
    {
      "cityName": "Veivirzenai",
      "lat": 55.6005556,
      "lng": 21.5969444
    },
    {
      "cityName": "Velaiciai",
      "lat": 55.9,
      "lng": 21.5166667
    },
    {
      "cityName": "Vente",
      "lat": 55.3463889,
      "lng": 21.1958333
    },
    {
      "cityName": "Verdaine",
      "lat": 55.3380556,
      "lng": 21.5041667
    },
    {
      "cityName": "Veverishkyay",
      "lat": 55.7833333,
      "lng": 21.2
    },
    {
      "cityName": "Veyteley",
      "lat": 55.4213889,
      "lng": 21.4391667
    },
    {
      "cityName": "Vezaiciai",
      "lat": 55.7166667,
      "lng": 21.4833333
    },
    {
      "cityName": "Vidmantai",
      "lat": 55.8833333,
      "lng": 21.1333333
    },
    {
      "cityName": "Vilimiske",
      "lat": 55.9,
      "lng": 21.1
    },
    {
      "cityName": "Vilkamedey",
      "lat": 55.485,
      "lng": 21.4725
    },
    {
      "cityName": "Vilkay",
      "lat": 55.6,
      "lng": 21.6166667
    },
    {
      "cityName": "Vilkenai",
      "lat": 55.4963889,
      "lng": 21.6744444
    },
    {
      "cityName": "Vilkichey",
      "lat": 55.5166667,
      "lng": 21.3833333
    },
    {
      "cityName": "Vilku Kampas",
      "lat": 55.4816667,
      "lng": 21.6408333
    },
    {
      "cityName": "Virkstininkai Pirmieji",
      "lat": 55.9,
      "lng": 21.1333333
    },
    {
      "cityName": "Virkuciai",
      "lat": 55.75,
      "lng": 21.1666667
    },
    {
      "cityName": "Viskupishkey",
      "lat": 55.5833333,
      "lng": 21.5666667
    },
    {
      "cityName": "Vitiniai",
      "lat": 55.8333333,
      "lng": 21.2166667
    },
    {
      "cityName": "Voverishken",
      "lat": 55.5666667,
      "lng": 21.3166667
    },
    {
      "cityName": "Vytauchay",
      "lat": 55.8,
      "lng": 21.2833333
    },
    {
      "cityName": "Yakshay",
      "lat": 55.55,
      "lng": 21.6
    },
    {
      "cityName": "Zadeikai",
      "lat": 55.9166667,
      "lng": 21.4166667
    },
    {
      "cityName": "Zadeikiai",
      "lat": 55.7333333,
      "lng": 21.65
    },
    {
      "cityName": "Zagatai",
      "lat": 55.3930556,
      "lng": 21.5583333
    },
    {
      "cityName": "Zelviai",
      "lat": 56,
      "lng": 21.1666667
    },
    {
      "cityName": "Zemguliai",
      "lat": 55.7166667,
      "lng": 21.6333333
    },
    {
      "cityName": "Zemyte",
      "lat": 56.1666667,
      "lng": 21.3166667
    },
    {
      "cityName": "Zhibininkay",
      "lat": 55.9666667,
      "lng": 21.15
    },
    {
      "cityName": "Zhvaginey",
      "lat": 55.7333333,
      "lng": 21.6833333
    },
    {
      "cityName": "Zhvel'syany",
      "lat": 55.7666667,
      "lng": 21.4333333
    },
    {
      "cityName": "Zhvirbley",
      "lat": 55.8,
      "lng": 21.35
    },
    {
      "cityName": "Zutautai I",
      "lat": 55.85,
      "lng": 21.4666667
    },
    {
      "cityName": "Zyneliai",
      "lat": 56.0833333,
      "lng": 21.25
    }
  ]
}