{
  "name": "Western",
  "cities": [
    {
      "cityName": "Adikarigoda",
      "lat": 6.45,
      "lng": 80.0166667
    },
    {
      "cityName": "Adikarimulla",
      "lat": 7.2333333,
      "lng": 79.9666667
    },
    {
      "cityName": "Adikkandiya",
      "lat": 7.25,
      "lng": 79.8666667
    },
    {
      "cityName": "Adupe",
      "lat": 7.2666667,
      "lng": 80.15
    },
    {
      "cityName": "Agalawatta",
      "lat": 6.5422222,
      "lng": 80.1583333
    },
    {
      "cityName": "Agalegedara",
      "lat": 7.2666667,
      "lng": 80.0333333
    },
    {
      "cityName": "Ahugammana",
      "lat": 7,
      "lng": 80.0333333
    },
    {
      "cityName": "Akaragama",
      "lat": 7.2666667,
      "lng": 79.95
    },
    {
      "cityName": "Akarangaha",
      "lat": 7.2833333,
      "lng": 79.9833333
    },
    {
      "cityName": "Akarawita",
      "lat": 6.95,
      "lng": 80.1
    },
    {
      "cityName": "Akkaragoda",
      "lat": 6.4833333,
      "lng": 79.9833333
    },
    {
      "cityName": "Akureliya",
      "lat": 7.1,
      "lng": 80.05
    },
    {
      "cityName": "Akurukalawita",
      "lat": 6.6666667,
      "lng": 80.0666667
    },
    {
      "cityName": "Akurumulla",
      "lat": 6.9833333,
      "lng": 80.0166667
    },
    {
      "cityName": "Alakandupitiya",
      "lat": 6.45,
      "lng": 80
    },
    {
      "cityName": "Alavi",
      "lat": 6.6166667,
      "lng": 80.2333333
    },
    {
      "cityName": "Alawala",
      "lat": 7.1166667,
      "lng": 80.1833333
    },
    {
      "cityName": "Alawatupitiya",
      "lat": 7.1166667,
      "lng": 79.8833333
    },
    {
      "cityName": "Alubomulla",
      "lat": 6.7102778,
      "lng": 79.9341667
    },
    {
      "cityName": "Alugolla",
      "lat": 7.3166667,
      "lng": 80.0166667
    },
    {
      "cityName": "Alutepola",
      "lat": 7.2,
      "lng": 79.9666667
    },
    {
      "cityName": "Alutgama",
      "lat": 6.4333333,
      "lng": 79.9997222
    },
    {
      "cityName": "Alutgama Bogamuwa",
      "lat": 7.1166667,
      "lng": 80.05
    },
    {
      "cityName": "Alutgama East",
      "lat": 6.4333333,
      "lng": 80
    },
    {
      "cityName": "Alutgama West",
      "lat": 6.4333333,
      "lng": 79.9833333
    },
    {
      "cityName": "Alutgangoda",
      "lat": 7.1,
      "lng": 80.0166667
    },
    {
      "cityName": "Aluthkade",
      "lat": 6.4666667,
      "lng": 79.9666667
    },
    {
      "cityName": "Alwis Town",
      "lat": 6.9833333,
      "lng": 79.8833333
    },
    {
      "cityName": "Amandoluwa",
      "lat": 7.15,
      "lng": 79.8833333
    },
    {
      "cityName": "Ambagahawatta",
      "lat": 7.1666667,
      "lng": 79.95
    },
    {
      "cityName": "Ambagaspitiya",
      "lat": 7.0833333,
      "lng": 80.0666667
    },
    {
      "cityName": "Ambalanduwa",
      "lat": 6.7333333,
      "lng": 79.9166667
    },
    {
      "cityName": "Ambalangoda",
      "lat": 6.7833333,
      "lng": 79.9666667
    },
    {
      "cityName": "Ambalayaya",
      "lat": 7.2666667,
      "lng": 79.9333333
    },
    {
      "cityName": "Ambana",
      "lat": 7.2333333,
      "lng": 80.1
    },
    {
      "cityName": "Ambanwita",
      "lat": 7.1,
      "lng": 79.9666667
    },
    {
      "cityName": "Ambatale",
      "lat": 6.9333333,
      "lng": 79.9333333
    },
    {
      "cityName": "Ambegoda",
      "lat": 6.55,
      "lng": 80.25
    },
    {
      "cityName": "Ambepitiya",
      "lat": 6.4675,
      "lng": 80.0005556
    },
    {
      "cityName": "Ambepussa",
      "lat": 7.25,
      "lng": 80.1666667
    },
    {
      "cityName": "Ambulgama",
      "lat": 6.9030556,
      "lng": 80.0536111
    },
    {
      "cityName": "Ampitigala",
      "lat": 6.65,
      "lng": 80.0666667
    },
    {
      "cityName": "Amunugoda",
      "lat": 7.05,
      "lng": 79.9666667
    },
    {
      "cityName": "Amunukumbura",
      "lat": 7.05,
      "lng": 80.0833333
    },
    {
      "cityName": "Andiambalama",
      "lat": 7.1869444,
      "lng": 79.9
    },
    {
      "cityName": "Andiambalam Walpola",
      "lat": 7.1833333,
      "lng": 79.9166667
    },
    {
      "cityName": "Andigoda",
      "lat": 6.4666667,
      "lng": 79.9833333
    },
    {
      "cityName": "Andimalla",
      "lat": 7.2666667,
      "lng": 79.9166667
    },
    {
      "cityName": "Angampitiya",
      "lat": 6.8502778,
      "lng": 80.1166667
    },
    {
      "cityName": "Angangoda",
      "lat": 6.5333333,
      "lng": 79.9833333
    },
    {
      "cityName": "Angoda",
      "lat": 6.9333333,
      "lng": 79.9166667
    },
    {
      "cityName": "Angomuwa",
      "lat": 6.8333333,
      "lng": 80.1
    },
    {
      "cityName": "Angulana",
      "lat": 6.7994444,
      "lng": 79.8716667
    },
    {
      "cityName": "Anguruwatota",
      "lat": 6.6383333,
      "lng": 80.0861111
    },
    {
      "cityName": "Anuragoda",
      "lat": 7,
      "lng": 80.1166667
    },
    {
      "cityName": "Arakagoda",
      "lat": 6.6833333,
      "lng": 80.0166667
    },
    {
      "cityName": "Arakawila",
      "lat": 6.8,
      "lng": 80.15
    },
    {
      "cityName": "Aramangoda",
      "lat": 7.0333333,
      "lng": 80.05
    },
    {
      "cityName": "Arambe",
      "lat": 7.15,
      "lng": 79.9
    },
    {
      "cityName": "Arambegodella",
      "lat": 7.1,
      "lng": 80.0333333
    },
    {
      "cityName": "Aramonagolla",
      "lat": 6.7333333,
      "lng": 80.05
    },
    {
      "cityName": "Arangala",
      "lat": 6.8855556,
      "lng": 79.9619444
    },
    {
      "cityName": "Arapangama",
      "lat": 6.9333333,
      "lng": 80.1333333
    },
    {
      "cityName": "Arukgoda",
      "lat": 7.2166667,
      "lng": 80.1666667
    },
    {
      "cityName": "Arukpassa",
      "lat": 7.0833333,
      "lng": 80.1166667
    },
    {
      "cityName": "Arukwatta",
      "lat": 6.85,
      "lng": 80.1
    },
    {
      "cityName": "Asgeriya",
      "lat": 7.1,
      "lng": 79.9833333
    },
    {
      "cityName": "Asgiriwalpola",
      "lat": 7.1166667,
      "lng": 79.9833333
    },
    {
      "cityName": "Assenawatta",
      "lat": 7.2,
      "lng": 79.9833333
    },
    {
      "cityName": "Atale",
      "lat": 6.45,
      "lng": 80.2666667
    },
    {
      "cityName": "Atgalgoda",
      "lat": 6.9333333,
      "lng": 79.9
    },
    {
      "cityName": "Athagama",
      "lat": 6.5333333,
      "lng": 79.9666667
    },
    {
      "cityName": "Atigala",
      "lat": 6.8833333,
      "lng": 80.05
    },
    {
      "cityName": "Attanagalla",
      "lat": 7.1119444,
      "lng": 80.1327778
    },
    {
      "cityName": "Attidiya",
      "lat": 6.8333333,
      "lng": 79.8833333
    },
    {
      "cityName": "Atulugama",
      "lat": 6.7,
      "lng": 80
    },
    {
      "cityName": "Atupatdeniya",
      "lat": 7.2833333,
      "lng": 80.15
    },
    {
      "cityName": "Atura",
      "lat": 6.65,
      "lng": 80.1833333
    },
    {
      "cityName": "Aturugiriya",
      "lat": 6.8686111,
      "lng": 79.9922222
    },
    {
      "cityName": "Atweltota",
      "lat": 6.5447222,
      "lng": 80.2825
    },
    {
      "cityName": "Avariwatta",
      "lat": 6.45,
      "lng": 79.9833333
    },
    {
      "cityName": "Avissawella",
      "lat": 6.9530556,
      "lng": 80.2183333
    },
    {
      "cityName": "Badahalagoda",
      "lat": 6.5,
      "lng": 80
    },
    {
      "cityName": "Badalgama",
      "lat": 7.2822222,
      "lng": 79.9908333
    },
    {
      "cityName": "Badanagoda",
      "lat": 6.4833333,
      "lng": 80.0166667
    },
    {
      "cityName": "Badugama",
      "lat": 6.5,
      "lng": 80.1166667
    },
    {
      "cityName": "Badureliya",
      "lat": 6.5194444,
      "lng": 80.2513889
    },
    {
      "cityName": "Baduwatugoda",
      "lat": 7.1166667,
      "lng": 80.0166667
    },
    {
      "cityName": "Bajjangoda",
      "lat": 7.2833333,
      "lng": 80.1666667
    },
    {
      "cityName": "Balabowa",
      "lat": 7.15,
      "lng": 80
    },
    {
      "cityName": "Balagalla",
      "lat": 7.2333333,
      "lng": 80.0333333
    },
    {
      "cityName": "Balatawa",
      "lat": 7.2333333,
      "lng": 80.1833333
    },
    {
      "cityName": "Balawala",
      "lat": 7.2833333,
      "lng": 79.9666667
    },
    {
      "cityName": "Bambalapitiya",
      "lat": 6.8877778,
      "lng": 79.8619444
    },
    {
      "cityName": "Bambukuliya",
      "lat": 7.2666667,
      "lng": 79.8833333
    },
    {
      "cityName": "Bamunumulla",
      "lat": 6.6833333,
      "lng": 79.9833333
    },
    {
      "cityName": "Bandaragama",
      "lat": 6.7144444,
      "lng": 79.9866667
    },
    {
      "cityName": "Banduragoda",
      "lat": 7.2319444,
      "lng": 80.0677778
    },
    {
      "cityName": "Barawawila",
      "lat": 7.25,
      "lng": 80.0166667
    },
    {
      "cityName": "Baruhupola",
      "lat": 6.65,
      "lng": 80.0166667
    },
    {
      "cityName": "Basiawatta",
      "lat": 7.1833333,
      "lng": 79.8166667
    },
    {
      "cityName": "Batagama",
      "lat": 7.0666667,
      "lng": 79.9333333
    },
    {
      "cityName": "Batagama South",
      "lat": 7.05,
      "lng": 79.9166667
    },
    {
      "cityName": "Batakettara",
      "lat": 6.7833333,
      "lng": 79.9166667
    },
    {
      "cityName": "Bataliya",
      "lat": 7.1833333,
      "lng": 80.1333333
    },
    {
      "cityName": "Batepola",
      "lat": 7.0666667,
      "lng": 80.0833333
    },
    {
      "cityName": "Battaramulla",
      "lat": 6.9,
      "lng": 79.9166667
    },
    {
      "cityName": "Batugampola",
      "lat": 6.7833333,
      "lng": 80.15
    },
    {
      "cityName": "Batuwandara",
      "lat": 6.7666667,
      "lng": 79.95
    },
    {
      "cityName": "Batuwatta",
      "lat": 7.0527778,
      "lng": 79.9347222
    },
    {
      "cityName": "Batuwita",
      "lat": 6.75,
      "lng": 80.0333333
    },
    {
      "cityName": "Beddegedaramulla",
      "lat": 6.85,
      "lng": 80.05
    },
    {
      "cityName": "Begamuwa",
      "lat": 6.6,
      "lng": 80.0333333
    },
    {
      "cityName": "Bellana",
      "lat": 6.5166667,
      "lng": 80.1833333
    },
    {
      "cityName": "Bellantara",
      "lat": 6.85,
      "lng": 79.9
    },
    {
      "cityName": "Bellantudawa",
      "lat": 6.7,
      "lng": 80.0166667
    },
    {
      "cityName": "Bellapitiya",
      "lat": 6.7,
      "lng": 80.0666667
    },
    {
      "cityName": "Belummahara",
      "lat": 7.05,
      "lng": 80
    },
    {
      "cityName": "Bendiamulla",
      "lat": 7.0833333,
      "lng": 80
    },
    {
      "cityName": "Beragama",
      "lat": 6.55,
      "lng": 80.15
    },
    {
      "cityName": "Berawawala",
      "lat": 6.7833333,
      "lng": 79.9333333
    },
    {
      "cityName": "Berendigampola",
      "lat": 6.9166667,
      "lng": 80.1166667
    },
    {
      "cityName": "Beruwala",
      "lat": 6.4738889,
      "lng": 79.9841667
    },
    {
      "cityName": "Betmegoda",
      "lat": 6.75,
      "lng": 79.9833333
    },
    {
      "cityName": "Biyagama",
      "lat": 6.9408333,
      "lng": 79.9888889
    },
    {
      "cityName": "Biyanwila Ihala",
      "lat": 7,
      "lng": 79.9666667
    },
    {
      "cityName": "Biyanwila Pahala",
      "lat": 7,
      "lng": 79.9333333
    },
    {
      "cityName": "Bogalla",
      "lat": 6.4666667,
      "lng": 80
    },
    {
      "cityName": "Bogoda",
      "lat": 7.1166667,
      "lng": 80.0833333
    },
    {
      "cityName": "Bokalagama Ambalanwatta",
      "lat": 7.2,
      "lng": 80.0833333
    },
    {
      "cityName": "Bokalagama Dolehena",
      "lat": 7.2166667,
      "lng": 80.0833333
    },
    {
      "cityName": "Bokalagama Pelapitigama",
      "lat": 7.2166667,
      "lng": 80.1
    },
    {
      "cityName": "Bokundara",
      "lat": 6.8166667,
      "lng": 79.9166667
    },
    {
      "cityName": "Bolabotuwa",
      "lat": 6.7166667,
      "lng": 79.9833333
    },
    {
      "cityName": "Bolana",
      "lat": 7.1833333,
      "lng": 80.1166667
    },
    {
      "cityName": "Bolawalana",
      "lat": 7.2,
      "lng": 79.85
    },
    {
      "cityName": "Bolgoda",
      "lat": 6.7,
      "lng": 79.9666667
    },
    {
      "cityName": "Bollatawa",
      "lat": 6.9666667,
      "lng": 80.1166667
    },
    {
      "cityName": "Bollegala",
      "lat": 6.95,
      "lng": 79.9333333
    },
    {
      "cityName": "Bolossegama",
      "lat": 6.6166667,
      "lng": 80.0166667
    },
    {
      "cityName": "Bombugammana",
      "lat": 7.2166667,
      "lng": 80.0166667
    },
    {
      "cityName": "Bombuwala",
      "lat": 6.5833333,
      "lng": 80.0166667
    },
    {
      "cityName": "Bomiriya Ihala",
      "lat": 6.9333333,
      "lng": 80.0166667
    },
    {
      "cityName": "Bomiriya Pahala",
      "lat": 6.9333333,
      "lng": 80
    },
    {
      "cityName": "Bonagala",
      "lat": 7.1,
      "lng": 80.0833333
    },
    {
      "cityName": "Bondupitiya",
      "lat": 6.45,
      "lng": 80.05
    },
    {
      "cityName": "Bopagama",
      "lat": 7.0833333,
      "lng": 80.15
    },
    {
      "cityName": "Bope",
      "lat": 6.8333333,
      "lng": 80.1166667
    },
    {
      "cityName": "Bopetta",
      "lat": 7.0833333,
      "lng": 80.1333333
    },
    {
      "cityName": "Bopitiya",
      "lat": 6.5166667,
      "lng": 80.0833333
    },
    {
      "cityName": "Boragodawatta",
      "lat": 7.1666667,
      "lng": 79.9333333
    },
    {
      "cityName": "Boralesgamuwa",
      "lat": 6.8425,
      "lng": 79.9005556
    },
    {
      "cityName": "Boralugoda",
      "lat": 6.4333333,
      "lng": 80.2666667
    },
    {
      "cityName": "Borukgamuwa",
      "lat": 7.2,
      "lng": 80.0666667
    },
    {
      "cityName": "Borupana",
      "lat": 6.8166667,
      "lng": 79.9
    },
    {
      "cityName": "Botalawa",
      "lat": 6.4333333,
      "lng": 80.2166667
    },
    {
      "cityName": "Botale",
      "lat": 6.7,
      "lng": 80.1666667
    },
    {
      "cityName": "Botale Ihalagama",
      "lat": 7.2333333,
      "lng": 80.1666667
    },
    {
      "cityName": "Botale Pahalagama",
      "lat": 7.25,
      "lng": 80.15
    },
    {
      "cityName": "Bounuwa",
      "lat": 7.1666667,
      "lng": 80.15
    },
    {
      "cityName": "Brahmanagama",
      "lat": 6.8166667,
      "lng": 79.9833333
    },
    {
      "cityName": "Brandiyawatta",
      "lat": 6.95,
      "lng": 79.9
    },
    {
      "cityName": "Bulatgangoda",
      "lat": 7.1166667,
      "lng": 80.0333333
    },
    {
      "cityName": "Bulatsinhala",
      "lat": 6.6666667,
      "lng": 80.1666667
    },
    {
      "cityName": "Bulugahamulla",
      "lat": 7.1666667,
      "lng": 79.9666667
    },
    {
      "cityName": "Burullapitiya",
      "lat": 7.15,
      "lng": 79.95
    },
    {
      "cityName": "Buthpitiya",
      "lat": 7.05,
      "lng": 80.05
    },
    {
      "cityName": "Cinnamon Gardens",
      "lat": 6.9027778,
      "lng": 79.8641667
    },
    {
      "cityName": "Colombo",
      "lat": 6.9319444,
      "lng": 79.8477778
    },
    {
      "cityName": "Colpetty",
      "lat": 6.8833333,
      "lng": 79.85
    },
    {
      "cityName": "Dadagamuwa",
      "lat": 7.1333333,
      "lng": 80.05
    },
    {
      "cityName": "Dagona",
      "lat": 7.2166667,
      "lng": 79.9166667
    },
    {
      "cityName": "Dalugama",
      "lat": 6.9666667,
      "lng": 79.9
    },
    {
      "cityName": "Dalugangoda",
      "lat": 6.9666667,
      "lng": 79.9166667
    },
    {
      "cityName": "Dalupatgedara",
      "lat": 7.3,
      "lng": 80.0166667
    },
    {
      "cityName": "Dalupotha",
      "lat": 7.2333333,
      "lng": 79.85
    },
    {
      "cityName": "Daluwekotuwa",
      "lat": 7.25,
      "lng": 79.85
    },
    {
      "cityName": "Dambara",
      "lat": 6.7666667,
      "lng": 80.1
    },
    {
      "cityName": "Dambatuwa",
      "lat": 7.15,
      "lng": 80.15
    },
    {
      "cityName": "Dambore",
      "lat": 6.85,
      "lng": 80.1666667
    },
    {
      "cityName": "Dampe",
      "lat": 6.7666667,
      "lng": 79.9166667
    },
    {
      "cityName": "Dandugama",
      "lat": 7.1,
      "lng": 79.8833333
    },
    {
      "cityName": "Dangalla",
      "lat": 7,
      "lng": 80.1333333
    },
    {
      "cityName": "Danowita",
      "lat": 7.2027778,
      "lng": 80.1758333
    },
    {
      "cityName": "Danvilana",
      "lat": 7.15,
      "lng": 80.05
    },
    {
      "cityName": "Danwattagoda",
      "lat": 6.45,
      "lng": 80.0333333
    },
    {
      "cityName": "Dapiligoda",
      "lat": 6.5333333,
      "lng": 80.1666667
    },
    {
      "cityName": "Daraluwa",
      "lat": 7.1166667,
      "lng": 80
    },
    {
      "cityName": "Daranagama",
      "lat": 6.9833333,
      "lng": 79.9833333
    },
    {
      "cityName": "Dedigomuwa",
      "lat": 6.9,
      "lng": 80.0333333
    },
    {
      "cityName": "Dediyawala",
      "lat": 6.6166667,
      "lng": 79.95
    },
    {
      "cityName": "Degawatta",
      "lat": 6.9666667,
      "lng": 80.0666667
    },
    {
      "cityName": "Dehipitiya",
      "lat": 6.4666667,
      "lng": 80.2666667
    },
    {
      "cityName": "Dehiwala",
      "lat": 6.8513889,
      "lng": 79.8652778
    },
    {
      "cityName": "Dekatana",
      "lat": 6.9677778,
      "lng": 80.0502778
    },
    {
      "cityName": "Delaturai",
      "lat": 7.0833333,
      "lng": 79.8666667
    },
    {
      "cityName": "Deldorawatta",
      "lat": 6.6666667,
      "lng": 80.0166667
    },
    {
      "cityName": "Delduwa",
      "lat": 6.65,
      "lng": 79.95
    },
    {
      "cityName": "Delgoda",
      "lat": 6.6166667,
      "lng": 80.05
    },
    {
      "cityName": "Delmella",
      "lat": 6.6833333,
      "lng": 80.2
    },
    {
      "cityName": "Delpakadawara",
      "lat": 7.3,
      "lng": 80
    },
    {
      "cityName": "Delpe",
      "lat": 6.55,
      "lng": 80.1666667
    },
    {
      "cityName": "Delwagura",
      "lat": 7.2666667,
      "lng": 80
    },
    {
      "cityName": "Delwala",
      "lat": 7.3,
      "lng": 80.1166667
    },
    {
      "cityName": "Demaladuwa",
      "lat": 6.8,
      "lng": 79.9333333
    },
    {
      "cityName": "Demalagama",
      "lat": 6.9833333,
      "lng": 80.05
    },
    {
      "cityName": "Demanhandiya",
      "lat": 7.2333333,
      "lng": 79.9
    },
    {
      "cityName": "Dematadenikanda",
      "lat": 7.1666667,
      "lng": 80.1333333
    },
    {
      "cityName": "Dematagala",
      "lat": 6.9333333,
      "lng": 79.8666667
    },
    {
      "cityName": "Dematahatta",
      "lat": 7.2666667,
      "lng": 80.1333333
    },
    {
      "cityName": "Depanama",
      "lat": 6.85,
      "lng": 79.95
    },
    {
      "cityName": "Desastra Kalutara",
      "lat": 6.6,
      "lng": 79.95
    },
    {
      "cityName": "Detgama",
      "lat": 7.2,
      "lng": 80.05
    },
    {
      "cityName": "Dethemulla",
      "lat": 6.9666667,
      "lng": 80.1
    },
    {
      "cityName": "Dettara",
      "lat": 6.95,
      "lng": 80.1166667
    },
    {
      "cityName": "Devalapola",
      "lat": 7.1666667,
      "lng": 80
    },
    {
      "cityName": "Dewamottawa",
      "lat": 7.1833333,
      "lng": 79.9
    },
    {
      "cityName": "Dewamulla",
      "lat": 6.6666667,
      "lng": 80.1
    },
    {
      "cityName": "Dibbedda",
      "lat": 6.7,
      "lng": 79.9166667
    },
    {
      "cityName": "Diddeniya",
      "lat": 6.8833333,
      "lng": 80.1
    },
    {
      "cityName": "Digane",
      "lat": 6.5166667,
      "lng": 80.3
    },
    {
      "cityName": "Dippittigoda",
      "lat": 6.9638889,
      "lng": 79.9022222
    },
    {
      "cityName": "Disagewatta",
      "lat": 7.2333333,
      "lng": 79.9166667
    },
    {
      "cityName": "Diulpitiya",
      "lat": 6.85,
      "lng": 79.8833333
    },
    {
      "cityName": "Divulapitiya",
      "lat": 7.2166667,
      "lng": 80.0155556
    },
    {
      "cityName": "Divuldeniya",
      "lat": 7.3,
      "lng": 80.1
    },
    {
      "cityName": "Diwalakada",
      "lat": 6.7,
      "lng": 80.15
    },
    {
      "cityName": "Diyagampola",
      "lat": 7.2833333,
      "lng": 80.0833333
    },
    {
      "cityName": "Diyakaduwa",
      "lat": 6.6333333,
      "lng": 80.15
    },
    {
      "cityName": "Diyalagoda",
      "lat": 6.5166667,
      "lng": 79.9833333
    },
    {
      "cityName": "Diyapattugama",
      "lat": 6.4833333,
      "lng": 80.1833333
    },
    {
      "cityName": "Diyawala",
      "lat": 7.0333333,
      "lng": 80.1166667
    },
    {
      "cityName": "Dodampapitiya",
      "lat": 6.4333333,
      "lng": 80.15
    },
    {
      "cityName": "Dodangoda",
      "lat": 6.5425,
      "lng": 80.0444444
    },
    {
      "cityName": "Dodangoda East",
      "lat": 6.5333333,
      "lng": 80.05
    },
    {
      "cityName": "Dodangoda West",
      "lat": 6.55,
      "lng": 80.0166667
    },
    {
      "cityName": "Dombagoda",
      "lat": 6.65,
      "lng": 80.05
    },
    {
      "cityName": "Dompe",
      "lat": 6.9522222,
      "lng": 80.0541667
    },
    {
      "cityName": "Doranagoda",
      "lat": 7.1333333,
      "lng": 80
    },
    {
      "cityName": "Doranediwala",
      "lat": 7.05,
      "lng": 80.0666667
    },
    {
      "cityName": "Dulammahara",
      "lat": 6.8166667,
      "lng": 79.9333333
    },
    {
      "cityName": "Dummunegedara",
      "lat": 7.1666667,
      "lng": 80.1
    },
    {
      "cityName": "Dunagaha",
      "lat": 7.2341667,
      "lng": 79.9755556
    },
    {
      "cityName": "Dungalpitiya",
      "lat": 7.1333333,
      "lng": 79.8333333
    },
    {
      "cityName": "Duwa",
      "lat": 7.2,
      "lng": 79.8166667
    },
    {
      "cityName": "Duwagoda",
      "lat": 6.5,
      "lng": 80.0166667
    },
    {
      "cityName": "Duwegama",
      "lat": 6.6166667,
      "lng": 79.9666667
    },
    {
      "cityName": "Egaloya",
      "lat": 6.6805556,
      "lng": 80.1638889
    },
    {
      "cityName": "Egoda Uyana",
      "lat": 6.7341667,
      "lng": 79.8933333
    },
    {
      "cityName": "Ekala",
      "lat": 7.1022222,
      "lng": 79.9130556
    },
    {
      "cityName": "Ekalakurunduwatta",
      "lat": 7.1166667,
      "lng": 79.9
    },
    {
      "cityName": "Eladuva",
      "lat": 6.5,
      "lng": 80.0333333
    },
    {
      "cityName": "Elamalawala",
      "lat": 6.8833333,
      "lng": 80.1333333
    },
    {
      "cityName": "Elapiliyawa",
      "lat": 7.2666667,
      "lng": 80.1166667
    },
    {
      "cityName": "Elapitawala",
      "lat": 7.0166667,
      "lng": 79.9
    },
    {
      "cityName": "Eliwila",
      "lat": 6.7,
      "lng": 79.9333333
    },
    {
      "cityName": "Ellakkala",
      "lat": 7.1333333,
      "lng": 80.1333333
    },
    {
      "cityName": "Ellalamulla",
      "lat": 7.15,
      "lng": 80.1333333
    },
    {
      "cityName": "Elluvapitiya",
      "lat": 7.1666667,
      "lng": 80.0333333
    },
    {
      "cityName": "Embaraluwa",
      "lat": 7.0166667,
      "lng": 80.0166667
    },
    {
      "cityName": "Enderamulla",
      "lat": 7.0022222,
      "lng": 79.9094444
    },
    {
      "cityName": "Epamulla",
      "lat": 7.0833333,
      "lng": 79.85
    },
    {
      "cityName": "Erabadda",
      "lat": 7.2833333,
      "lng": 80.0666667
    },
    {
      "cityName": "Erewwala",
      "lat": 6.8333333,
      "lng": 79.95
    },
    {
      "cityName": "Essella",
      "lat": 7.1833333,
      "lng": 80.0166667
    },
    {
      "cityName": "Eswatta",
      "lat": 6.95,
      "lng": 80.1666667
    },
    {
      "cityName": "Etgala",
      "lat": 7.25,
      "lng": 79.8833333
    },
    {
      "cityName": "Etikehelgalla",
      "lat": 7.0333333,
      "lng": 80.0333333
    },
    {
      "cityName": "Ettukala",
      "lat": 7.2333333,
      "lng": 79.8333333
    },
    {
      "cityName": "Etulkotte",
      "lat": 6.9,
      "lng": 79.9
    },
    {
      "cityName": "Evariwatta",
      "lat": 7.1666667,
      "lng": 79.8833333
    },
    {
      "cityName": "Fort",
      "lat": 6.9391667,
      "lng": 79.8436111
    },
    {
      "cityName": "Galagedara",
      "lat": 6.85,
      "lng": 80.0833333
    },
    {
      "cityName": "Galahitiyawa",
      "lat": 7.0666667,
      "lng": 79.95
    },
    {
      "cityName": "Galboda",
      "lat": 7.0666667,
      "lng": 80.1
    },
    {
      "cityName": "Galedanda",
      "lat": 6.9666667,
      "lng": 79.9333333
    },
    {
      "cityName": "Galgamuwa",
      "lat": 7.1833333,
      "lng": 80.0666667
    },
    {
      "cityName": "Galhetiya",
      "lat": 6.6333333,
      "lng": 80.2
    },
    {
      "cityName": "Galimbura",
      "lat": 7.3,
      "lng": 80.0833333
    },
    {
      "cityName": "Galkissa",
      "lat": 6.8333333,
      "lng": 79.8666667
    },
    {
      "cityName": "Gallegoda",
      "lat": 6.6166667,
      "lng": 79.9833333
    },
    {
      "cityName": "Galpata",
      "lat": 6.6333333,
      "lng": 80.0166667
    },
    {
      "cityName": "Galpottewala",
      "lat": 6.5,
      "lng": 80.05
    },
    {
      "cityName": "Galtotamulla",
      "lat": 7.0833333,
      "lng": 80.0333333
    },
    {
      "cityName": "Gamagoda",
      "lat": 6.6,
      "lng": 80
    },
    {
      "cityName": "Gamangedara",
      "lat": 7.1666667,
      "lng": 79.9166667
    },
    {
      "cityName": "Gammampila",
      "lat": 6.7333333,
      "lng": 79.9833333
    },
    {
      "cityName": "Gammana",
      "lat": 6.4,
      "lng": 80.1166667
    },
    {
      "cityName": "Gampaha",
      "lat": 7.0916667,
      "lng": 79.9941667
    },
    {
      "cityName": "Gampaha Ihalagama",
      "lat": 7.1,
      "lng": 80
    },
    {
      "cityName": "Gampaha Medagama",
      "lat": 7.0833333,
      "lng": 79.9833333
    },
    {
      "cityName": "Ganahimulla",
      "lat": 7.1666667,
      "lng": 79.9833333
    },
    {
      "cityName": "Ganepola",
      "lat": 7.1333333,
      "lng": 79.9
    },
    {
      "cityName": "Gangodawela",
      "lat": 6.8666667,
      "lng": 79.8833333
    },
    {
      "cityName": "Gankandagoda",
      "lat": 6.6333333,
      "lng": 79.9666667
    },
    {
      "cityName": "Gaspe",
      "lat": 7.2166667,
      "lng": 80.0666667
    },
    {
      "cityName": "Gawagomuwa",
      "lat": 7.15,
      "lng": 80.1
    },
    {
      "cityName": "Gedumana",
      "lat": 7.0166667,
      "lng": 80.05
    },
    {
      "cityName": "Gelanigama",
      "lat": 6.7166667,
      "lng": 80
    },
    {
      "cityName": "Gendagala",
      "lat": 6.6,
      "lng": 80.3
    },
    {
      "cityName": "Gettara Remunagoda",
      "lat": 6.6,
      "lng": 80.0166667
    },
    {
      "cityName": "Giridara",
      "lat": 6.95,
      "lng": 80.0833333
    },
    {
      "cityName": "Girikola",
      "lat": 6.5666667,
      "lng": 80.1333333
    },
    {
      "cityName": "Godagama",
      "lat": 6.85,
      "lng": 80.0333333
    },
    {
      "cityName": "Godagedara",
      "lat": 7.0666667,
      "lng": 80.0166667
    },
    {
      "cityName": "Godakalana",
      "lat": 7.3,
      "lng": 80.1333333
    },
    {
      "cityName": "Godawela",
      "lat": 7.1833333,
      "lng": 80.15
    },
    {
      "cityName": "Godella",
      "lat": 7.2833333,
      "lng": 79.8666667
    },
    {
      "cityName": "Goigama",
      "lat": 7.15,
      "lng": 79.9833333
    },
    {
      "cityName": "Golummahara",
      "lat": 6.9833333,
      "lng": 80
    },
    {
      "cityName": "Gonaduwa",
      "lat": 6.6691667,
      "lng": 79.9686111
    },
    {
      "cityName": "Gonagaha",
      "lat": 7.1,
      "lng": 79.9333333
    },
    {
      "cityName": "Gonahena",
      "lat": 7,
      "lng": 79.9833333
    },
    {
      "cityName": "Gonapola",
      "lat": 6.7666667,
      "lng": 80.0144444
    },
    {
      "cityName": "Gonawala",
      "lat": 6.95,
      "lng": 79.95
    },
    {
      "cityName": "Gongitota",
      "lat": 7,
      "lng": 79.9
    },
    {
      "cityName": "Gorakana",
      "lat": 6.7666667,
      "lng": 79.9
    },
    {
      "cityName": "Gorakapitiya",
      "lat": 6.8166667,
      "lng": 79.95
    },
    {
      "cityName": "Gorakapola",
      "lat": 6.7333333,
      "lng": 79.9
    },
    {
      "cityName": "Gorokgoda",
      "lat": 6.7833333,
      "lng": 80.1
    },
    {
      "cityName": "Gorokoluwa",
      "lat": 7.3,
      "lng": 80.0333333
    },
    {
      "cityName": "Gotatuwa",
      "lat": 6.9197222,
      "lng": 79.9016667
    },
    {
      "cityName": "Govinna",
      "lat": 6.6666667,
      "lng": 80.1166667
    },
    {
      "cityName": "Grandpass",
      "lat": 6.9572222,
      "lng": 79.8763889
    },
    {
      "cityName": "Gulanawatta",
      "lat": 6.4,
      "lng": 80.2833333
    },
    {
      "cityName": "Gulawita",
      "lat": 6.4086111,
      "lng": 80.1752778
    },
    {
      "cityName": "Gungamuwa",
      "lat": 6.7166667,
      "lng": 80.0166667
    },
    {
      "cityName": "Gurudala",
      "lat": 6.5333333,
      "lng": 80.1166667
    },
    {
      "cityName": "Gurugoda",
      "lat": 6.7333333,
      "lng": 80.1
    },
    {
      "cityName": "Gurulubedda",
      "lat": 6.4833333,
      "lng": 80.25
    },
    {
      "cityName": "Guruwala",
      "lat": 6.95,
      "lng": 80.0666667
    },
    {
      "cityName": "Habarakada",
      "lat": 6.8666667,
      "lng": 80.0166667
    },
    {
      "cityName": "Halapitiya",
      "lat": 6.7666667,
      "lng": 79.9833333
    },
    {
      "cityName": "Halkandawila",
      "lat": 6.5166667,
      "lng": 80.0166667
    },
    {
      "cityName": "Haloluwa",
      "lat": 7.2666667,
      "lng": 80.0833333
    },
    {
      "cityName": "Halowita",
      "lat": 6.5666667,
      "lng": 80.1666667
    },
    {
      "cityName": "Halpe",
      "lat": 6.85,
      "lng": 80.1333333
    },
    {
      "cityName": "Halpita",
      "lat": 6.7833333,
      "lng": 79.95
    },
    {
      "cityName": "Haltota",
      "lat": 6.7,
      "lng": 80.0333333
    },
    {
      "cityName": "Halugama",
      "lat": 7.2333333,
      "lng": 80.15
    },
    {
      "cityName": "Halwala",
      "lat": 6.4166667,
      "lng": 80.1
    },
    {
      "cityName": "Halwatura",
      "lat": 6.7,
      "lng": 80.2
    },
    {
      "cityName": "Hanchapola",
      "lat": 7.2166667,
      "lng": 80.0333333
    },
    {
      "cityName": "Handapangoda",
      "lat": 6.7930556,
      "lng": 80.1416667
    },
    {
      "cityName": "Handupelpola",
      "lat": 6.75,
      "lng": 80.1
    },
    {
      "cityName": "Hangawatta",
      "lat": 7.2333333,
      "lng": 80.05
    },
    {
      "cityName": "Hanwella",
      "lat": 6.9063889,
      "lng": 80.0911111
    },
    {
      "cityName": "Hanwella Ihala",
      "lat": 6.9,
      "lng": 80.0833333
    },
    {
      "cityName": "Hanwella Pahala",
      "lat": 6.9,
      "lng": 80.0666667
    },
    {
      "cityName": "Haphgaskanda",
      "lat": 6.9666667,
      "lng": 79.95
    },
    {
      "cityName": "Hapugahagama",
      "lat": 7.25,
      "lng": 80
    },
    {
      "cityName": "Hapugahagedara",
      "lat": 7.2833333,
      "lng": 80.1333333
    },
    {
      "cityName": "Hapugoda",
      "lat": 7.05,
      "lng": 79.9
    },
    {
      "cityName": "Hapuwalana",
      "lat": 7.2166667,
      "lng": 79.9833333
    },
    {
      "cityName": "Harakgalegama",
      "lat": 7.2666667,
      "lng": 79.9
    },
    {
      "cityName": "Havelock Town",
      "lat": 6.8836111,
      "lng": 79.8638889
    },
    {
      "cityName": "Hedigala",
      "lat": 6.5,
      "lng": 80.25
    },
    {
      "cityName": "Heenatiyana",
      "lat": 7.15,
      "lng": 79.9166667
    },
    {
      "cityName": "Heendeniya",
      "lat": 7.1333333,
      "lng": 80.0333333
    },
    {
      "cityName": "Heenkenda",
      "lat": 7.0166667,
      "lng": 79.9166667
    },
    {
      "cityName": "Helakandana",
      "lat": 7.15,
      "lng": 79.9666667
    },
    {
      "cityName": "Helummahara",
      "lat": 6.9833333,
      "lng": 80.0333333
    },
    {
      "cityName": "Hemudawa",
      "lat": 7.2833333,
      "lng": 79.95
    },
    {
      "cityName": "Hendala",
      "lat": 6.9838889,
      "lng": 79.8763889
    },
    {
      "cityName": "Henegama",
      "lat": 6.4833333,
      "lng": 80.0833333
    },
    {
      "cityName": "Henemulla",
      "lat": 6.75,
      "lng": 79.9
    },
    {
      "cityName": "Henpetigedera",
      "lat": 7.2166667,
      "lng": 79.9666667
    },
    {
      "cityName": "Henpita",
      "lat": 6.4666667,
      "lng": 80.0833333
    },
    {
      "cityName": "Henpitamulla",
      "lat": 7.0833333,
      "lng": 80.0166667
    },
    {
      "cityName": "Hewagama",
      "lat": 6.9166667,
      "lng": 79.9666667
    },
    {
      "cityName": "Hindakaramulla",
      "lat": 6.5833333,
      "lng": 80.2333333
    },
    {
      "cityName": "Hingurala",
      "lat": 6.9333333,
      "lng": 80.1666667
    },
    {
      "cityName": "Hirana",
      "lat": 6.7411111,
      "lng": 79.9155556
    },
    {
      "cityName": "Hiripitiya",
      "lat": 6.8244444,
      "lng": 79.9680556
    },
    {
      "cityName": "Hiriwala",
      "lat": 7.2,
      "lng": 80.1166667
    },
    {
      "cityName": "Hissella",
      "lat": 7.0166667,
      "lng": 80.1666667
    },
    {
      "cityName": "Hokandara North",
      "lat": 6.9,
      "lng": 79.9666667
    },
    {
      "cityName": "Hokandara South",
      "lat": 6.8666667,
      "lng": 79.9666667
    },
    {
      "cityName": "Homagama",
      "lat": 6.8408333,
      "lng": 80.0138889
    },
    {
      "cityName": "Honnantara",
      "lat": 6.8,
      "lng": 79.95
    },
    {
      "cityName": "Horagala",
      "lat": 6.8,
      "lng": 80.05
    },
    {
      "cityName": "Horagaslanga",
      "lat": 6.9333333,
      "lng": 80.2166667
    },
    {
      "cityName": "Horagasmulla",
      "lat": 7.2166667,
      "lng": 80
    },
    {
      "cityName": "Horana",
      "lat": 6.7166667,
      "lng": 80.06
    },
    {
      "cityName": "Horanpella",
      "lat": 7.1833333,
      "lng": 79.9833333
    },
    {
      "cityName": "Horawala",
      "lat": 6.4833333,
      "lng": 80.1166667
    },
    {
      "cityName": "Horetuduwa",
      "lat": 6.7666667,
      "lng": 79.8833333
    },
    {
      "cityName": "Hubutiyawa",
      "lat": 7.15,
      "lng": 80.0833333
    },
    {
      "cityName": "Hunugoda",
      "lat": 6.5,
      "lng": 79.9833333
    },
    {
      "cityName": "Hunukandana",
      "lat": 6.9666667,
      "lng": 80.05
    },
    {
      "cityName": "Hunumulla",
      "lat": 7.25,
      "lng": 79.9833333
    },
    {
      "cityName": "Hunupitiya",
      "lat": 6.9833333,
      "lng": 79.9
    },
    {
      "cityName": "Hunupola",
      "lat": 7.1166667,
      "lng": 80.1333333
    },
    {
      "cityName": "Iddagoda",
      "lat": 6.55,
      "lng": 80.1
    },
    {
      "cityName": "Ihala Hewessa",
      "lat": 6.35,
      "lng": 80.2833333
    },
    {
      "cityName": "Ihala Imbulgoda",
      "lat": 7.05,
      "lng": 79.9833333
    },
    {
      "cityName": "Ihala Karannagoda",
      "lat": 6.65,
      "lng": 80.1
    },
    {
      "cityName": "Ihala Naragala",
      "lat": 6.7,
      "lng": 80.1
    },
    {
      "cityName": "Ihala Neboda",
      "lat": 6.6,
      "lng": 80.0833333
    },
    {
      "cityName": "Ihalapanangala",
      "lat": 6.3166667,
      "lng": 80.45
    },
    {
      "cityName": "Ihala Welgama",
      "lat": 6.6166667,
      "lng": 80.2
    },
    {
      "cityName": "Imbulgoda",
      "lat": 7.035,
      "lng": 79.9930556
    },
    {
      "cityName": "Imbuliha",
      "lat": 6.7,
      "lng": 79.95
    },
    {
      "cityName": "Indibedda",
      "lat": 6.7833333,
      "lng": 79.9
    },
    {
      "cityName": "Indigastuduwa",
      "lat": 6.4333333,
      "lng": 80.05
    },
    {
      "cityName": "Indiparape",
      "lat": 7.2166667,
      "lng": 80.1166667
    },
    {
      "cityName": "Indiwitiya",
      "lat": 7.0833333,
      "lng": 79.8833333
    },
    {
      "cityName": "Indure-agare",
      "lat": 7.2333333,
      "lng": 79.95
    },
    {
      "cityName": "Ingiriya",
      "lat": 6.75,
      "lng": 80.1666667
    },
    {
      "cityName": "Ingurudaluwa",
      "lat": 6.4666667,
      "lng": 80.2833333
    },
    {
      "cityName": "Iriyawetiya",
      "lat": 6.9833333,
      "lng": 79.9166667
    },
    {
      "cityName": "Ittapana",
      "lat": 6.4166667,
      "lng": 80.0833333
    },
    {
      "cityName": "Ja-Ela",
      "lat": 7.0844444,
      "lng": 79.8947222
    },
    {
      "cityName": "Jaltara",
      "lat": 6.9,
      "lng": 80.05
    },
    {
      "cityName": "Kachchagoda",
      "lat": 6.5166667,
      "lng": 80
    },
    {
      "cityName": "Kadawata",
      "lat": 7.0041667,
      "lng": 79.9527778
    },
    {
      "cityName": "Kadirana",
      "lat": 7.2,
      "lng": 79.8833333
    },
    {
      "cityName": "Kaduwela",
      "lat": 6.9311111,
      "lng": 79.9736111
    },
    {
      "cityName": "Kahahena",
      "lat": 6.9,
      "lng": 80.1333333
    },
    {
      "cityName": "Kahambiliyahena",
      "lat": 7.0833333,
      "lng": 80.0833333
    },
    {
      "cityName": "Kahandawa",
      "lat": 7.25,
      "lng": 80.1166667
    },
    {
      "cityName": "Kahapola",
      "lat": 6.9166667,
      "lng": 80.15
    },
    {
      "cityName": "Kahataowita",
      "lat": 7.1,
      "lng": 80.1
    },
    {
      "cityName": "Kahatapitiya",
      "lat": 6.7666667,
      "lng": 80.05
    },
    {
      "cityName": "Kahatuduwa",
      "lat": 6.7713889,
      "lng": 79.9986111
    },
    {
      "cityName": "Kalaeliya",
      "lat": 7.05,
      "lng": 79.8833333
    },
    {
      "cityName": "Kalahugahawila",
      "lat": 7.1333333,
      "lng": 80.0833333
    },
    {
      "cityName": "Kalalgoda",
      "lat": 6.8666667,
      "lng": 79.95
    },
    {
      "cityName": "Kalamulla",
      "lat": 6.55,
      "lng": 79.9666667
    },
    {
      "cityName": "Kalaotuwawa",
      "lat": 7.1,
      "lng": 80.0666667
    },
    {
      "cityName": "Kalapaluwawa",
      "lat": 6.9166667,
      "lng": 79.9166667
    },
    {
      "cityName": "Kalapitiya",
      "lat": 7.15,
      "lng": 80.1166667
    },
    {
      "cityName": "Kalapugama",
      "lat": 6.6333333,
      "lng": 79.9833333
    },
    {
      "cityName": "Kalatuwawa",
      "lat": 7.1666667,
      "lng": 80.1166667
    },
    {
      "cityName": "Kalavila",
      "lat": 6.4666667,
      "lng": 80.0333333
    },
    {
      "cityName": "Kaldemulla",
      "lat": 6.8,
      "lng": 79.8666667
    },
    {
      "cityName": "Kaleliya",
      "lat": 7.195,
      "lng": 80.1136111
    },
    {
      "cityName": "Kaleliya Pallewela",
      "lat": 7.2,
      "lng": 80.1
    },
    {
      "cityName": "Kaleliya Webodamulla",
      "lat": 7.1833333,
      "lng": 80.1
    },
    {
      "cityName": "Kaluaggala Ihalagama",
      "lat": 7.25,
      "lng": 80.0833333
    },
    {
      "cityName": "Kaluaggala",
      "lat": 6.9166667,
      "lng": 80.1
    },
    {
      "cityName": "Kaluaggala Pahalagama",
      "lat": 7.2333333,
      "lng": 80.0833333
    },
    {
      "cityName": "Kaluayiruppua East",
      "lat": 7.25,
      "lng": 79.9166667
    },
    {
      "cityName": "Kalubovila West",
      "lat": 6.8666667,
      "lng": 79.8666667
    },
    {
      "cityName": "Kalugala",
      "lat": 6.4666667,
      "lng": 80.25
    },
    {
      "cityName": "Kalukandawa",
      "lat": 6.4166667,
      "lng": 80.3333333
    },
    {
      "cityName": "Kalukondayawa",
      "lat": 6.95,
      "lng": 80.0333333
    },
    {
      "cityName": "Kalupahana",
      "lat": 6.4666667,
      "lng": 80.15
    },
    {
      "cityName": "Kalutara",
      "lat": 6.5761111,
      "lng": 79.9658333
    },
    {
      "cityName": "Kaluwalgoda",
      "lat": 7.1166667,
      "lng": 79.9333333
    },
    {
      "cityName": "Kamachchodai",
      "lat": 7.2166667,
      "lng": 79.8333333
    },
    {
      "cityName": "Kamburadeniya",
      "lat": 7.2,
      "lng": 80.1666667
    },
    {
      "cityName": "Kamburagalla",
      "lat": 7.1166667,
      "lng": 80.1166667
    },
    {
      "cityName": "Kamburawala",
      "lat": 6.5166667,
      "lng": 80.2166667
    },
    {
      "cityName": "Kamburugoda",
      "lat": 6.7166667,
      "lng": 79.9666667
    },
    {
      "cityName": "Kananpella",
      "lat": 6.9666667,
      "lng": 80.1333333
    },
    {
      "cityName": "Kanattagoda",
      "lat": 6.75,
      "lng": 80
    },
    {
      "cityName": "Kandalama",
      "lat": 7.2708333,
      "lng": 80.1377778
    },
    {
      "cityName": "Kandana",
      "lat": 7.0477778,
      "lng": 79.8938889
    },
    {
      "cityName": "Kandapaliya",
      "lat": 7.2666667,
      "lng": 80.1666667
    },
    {
      "cityName": "Kandawala",
      "lat": 7.2333333,
      "lng": 79.8833333
    },
    {
      "cityName": "Kandumulla",
      "lat": 7.0666667,
      "lng": 80.0666667
    },
    {
      "cityName": "Kanewala",
      "lat": 6.7166667,
      "lng": 80.0333333
    },
    {
      "cityName": "Kannimahara",
      "lat": 7.05,
      "lng": 80.1
    },
    {
      "cityName": "Kanuwana",
      "lat": 7.0833333,
      "lng": 79.9
    },
    {
      "cityName": "Karabotuwawa",
      "lat": 7.2666667,
      "lng": 80.0666667
    },
    {
      "cityName": "Karagampitiya",
      "lat": 6.85,
      "lng": 79.8666667
    },
    {
      "cityName": "Karampetara",
      "lat": 6.5,
      "lng": 80.0666667
    },
    {
      "cityName": "Karandagoda",
      "lat": 6.4833333,
      "lng": 80
    },
    {
      "cityName": "Karapagala",
      "lat": 6.3833333,
      "lng": 80.1333333
    },
    {
      "cityName": "Karasnagala",
      "lat": 7.1166667,
      "lng": 80.1666667
    },
    {
      "cityName": "Katadora",
      "lat": 6.3833333,
      "lng": 80.1833333
    },
    {
      "cityName": "Katana",
      "lat": 7.2516667,
      "lng": 79.9077778
    },
    {
      "cityName": "Katiyala",
      "lat": 7.2166667,
      "lng": 79.9
    },
    {
      "cityName": "Katubedda",
      "lat": 6.8,
      "lng": 79.9
    },
    {
      "cityName": "Katugahahena",
      "lat": 6.4913889,
      "lng": 80.0805556
    },
    {
      "cityName": "Katugalgama",
      "lat": 6.8166667,
      "lng": 80.15
    },
    {
      "cityName": "Katuhena",
      "lat": 6.75,
      "lng": 80.0833333
    },
    {
      "cityName": "Katukenda",
      "lat": 7.2833333,
      "lng": 80
    },
    {
      "cityName": "Katukurunda-Kalutara",
      "lat": 6.5622222,
      "lng": 79.9694444
    },
    {
      "cityName": "Katunayaka",
      "lat": 7.1647222,
      "lng": 79.8730556
    },
    {
      "cityName": "Katuwalamulla",
      "lat": 7.0333333,
      "lng": 79.9666667
    },
    {
      "cityName": "Katuwapitiya",
      "lat": 7.2166667,
      "lng": 79.85
    },
    {
      "cityName": "Katuwasgoda",
      "lat": 7.1333333,
      "lng": 80.0666667
    },
    {
      "cityName": "Katuwellegama",
      "lat": 7.2166667,
      "lng": 79.9333333
    },
    {
      "cityName": "Kebellawita",
      "lat": 7.25,
      "lng": 80.1833333
    },
    {
      "cityName": "Kehelbaddara",
      "lat": 7.1333333,
      "lng": 79.9666667
    },
    {
      "cityName": "Kehelella",
      "lat": 7.2666667,
      "lng": 79.9833333
    },
    {
      "cityName": "Kekuladola",
      "lat": 6.7666667,
      "lng": 80.1333333
    },
    {
      "cityName": "Kekulaliya",
      "lat": 6.7333333,
      "lng": 80.1333333
    },
    {
      "cityName": "Kekulandala",
      "lat": 6.5333333,
      "lng": 80.15
    },
    {
      "cityName": "Kekulangoda",
      "lat": 7.0833333,
      "lng": 79.9666667
    },
    {
      "cityName": "Kelanai",
      "lat": 6.96,
      "lng": 79.8977778
    },
    {
      "cityName": "Kelanimulla",
      "lat": 6.95,
      "lng": 79.9166667
    },
    {
      "cityName": "Kelepitimulla",
      "lat": 7.2333333,
      "lng": 79.9833333
    },
    {
      "cityName": "Kelingkanda",
      "lat": 6.5833333,
      "lng": 80.3
    },
    {
      "cityName": "Kendagolla",
      "lat": 7.05,
      "lng": 80.15
    },
    {
      "cityName": "Kendaliyaddapaluwa",
      "lat": 7.05,
      "lng": 79.95
    },
    {
      "cityName": "Keppitiwalana",
      "lat": 7.2166667,
      "lng": 80.05
    },
    {
      "cityName": "Kepungoda",
      "lat": 7.1216667,
      "lng": 79.8422222
    },
    {
      "cityName": "Keragala",
      "lat": 7.0166667,
      "lng": 80.0666667
    },
    {
      "cityName": "Kerawalapitiya",
      "lat": 7.0166667,
      "lng": 79.8833333
    },
    {
      "cityName": "Kesbewa",
      "lat": 6.7952778,
      "lng": 79.9386111
    },
    {
      "cityName": "Kimbulapitiya",
      "lat": 7.2063889,
      "lng": 79.9033333
    },
    {
      "cityName": "Kimbulgoda",
      "lat": 7.0666667,
      "lng": 80.0333333
    },
    {
      "cityName": "Kimmantudawa",
      "lat": 6.6833333,
      "lng": 80
    },
    {
      "cityName": "Kinawinna",
      "lat": 7.2166667,
      "lng": 79.95
    },
    {
      "cityName": "Kindelpitiya",
      "lat": 6.7472222,
      "lng": 79.9675
    },
    {
      "cityName": "Kindigoda",
      "lat": 7.1166667,
      "lng": 79.8666667
    },
    {
      "cityName": "Kindiwala",
      "lat": 7.2333333,
      "lng": 80.1333333
    },
    {
      "cityName": "Kinigama",
      "lat": 7.05,
      "lng": 80.0333333
    },
    {
      "cityName": "Kirigala",
      "lat": 6.7333333,
      "lng": 80.0833333
    },
    {
      "cityName": "Kirigampamunuwa",
      "lat": 6.8,
      "lng": 79.9666667
    },
    {
      "cityName": "Kirikittamulla",
      "lat": 7.0833333,
      "lng": 80.05
    },
    {
      "cityName": "Kirillapone",
      "lat": 6.8844444,
      "lng": 79.8788889
    },
    {
      "cityName": "Kirillawala",
      "lat": 7.0333333,
      "lng": 79.9833333
    },
    {
      "cityName": "Kirindiwela",
      "lat": 7.04,
      "lng": 80.1336111
    },
    {
      "cityName": "Kiriwandala",
      "lat": 6.9333333,
      "lng": 80.2
    },
    {
      "cityName": "Kiriwattuduwa",
      "lat": 6.8,
      "lng": 80.0166667
    },
    {
      "cityName": "Kittanpahuwa",
      "lat": 6.9433333,
      "lng": 79.8911111
    },
    {
      "cityName": "Kitulgalwila",
      "lat": 6.6,
      "lng": 80.2
    },
    {
      "cityName": "Kitulwala Ihalagama",
      "lat": 7.25,
      "lng": 80.1
    },
    {
      "cityName": "Kobowaka",
      "lat": 6.6833333,
      "lng": 80.1333333
    },
    {
      "cityName": "Kochchikade",
      "lat": 7.2580556,
      "lng": 79.8541667
    },
    {
      "cityName": "Koholana",
      "lat": 6.6188889,
      "lng": 80.0219444
    },
    {
      "cityName": "Kolahacade",
      "lat": 6.4666667,
      "lng": 80.0666667
    },
    {
      "cityName": "Kolamuna",
      "lat": 6.8,
      "lng": 79.9166667
    },
    {
      "cityName": "Kolonnawa",
      "lat": 6.9316667,
      "lng": 79.8944444
    },
    {
      "cityName": "Kongodamulla",
      "lat": 7.25,
      "lng": 79.9333333
    },
    {
      "cityName": "Koppala",
      "lat": 6.75,
      "lng": 79.95
    },
    {
      "cityName": "Koratota",
      "lat": 6.9166667,
      "lng": 80
    },
    {
      "cityName": "Kosgama Ihala",
      "lat": 6.95,
      "lng": 80.1333333
    },
    {
      "cityName": "Kosgama",
      "lat": 6.9333333,
      "lng": 80.1411111
    },
    {
      "cityName": "Koskanda",
      "lat": 6.6833333,
      "lng": 80.0333333
    },
    {
      "cityName": "Kotapitiya",
      "lat": 6.4333333,
      "lng": 80.0333333
    },
    {
      "cityName": "Kotigangoda",
      "lat": 6.8166667,
      "lng": 80.0833333
    },
    {
      "cityName": "Kottala",
      "lat": 7.1666667,
      "lng": 80.0666667
    },
    {
      "cityName": "Kottawa",
      "lat": 6.8408333,
      "lng": 79.9630556
    },
    {
      "cityName": "Kottayahena",
      "lat": 6.6166667,
      "lng": 80.1
    },
    {
      "cityName": "Kotte",
      "lat": 6.9027778,
      "lng": 79.9083333
    },
    {
      "cityName": "Kotugoda",
      "lat": 7.1216667,
      "lng": 79.9297222
    },
    {
      "cityName": "Kotuwila",
      "lat": 6.9483333,
      "lng": 79.8908333
    },
    {
      "cityName": "Kuda Aruggoda",
      "lat": 6.7166667,
      "lng": 79.95
    },
    {
      "cityName": "Kudagama",
      "lat": 6.9666667,
      "lng": 80.2
    },
    {
      "cityName": "Kudagammana",
      "lat": 7.25,
      "lng": 80.0333333
    },
    {
      "cityName": "Kudagonaduwa",
      "lat": 6.6833333,
      "lng": 79.9666667
    },
    {
      "cityName": "Kuda Kalupahana",
      "lat": 6.4666667,
      "lng": 80.1666667
    },
    {
      "cityName": "Kudaligama",
      "lat": 6.5833333,
      "lng": 80.1333333
    },
    {
      "cityName": "Kuda Wadduwa",
      "lat": 6.6666667,
      "lng": 79.9333333
    },
    {
      "cityName": "Kudawamulla",
      "lat": 6.8,
      "lng": 79.8833333
    },
    {
      "cityName": "Kuda Waskaduwa",
      "lat": 6.6316667,
      "lng": 79.9441667
    },
    {
      "cityName": "Kulupana",
      "lat": 6.7166667,
      "lng": 80.05
    },
    {
      "cityName": "Kumbaduwa",
      "lat": 6.4333333,
      "lng": 80.2
    },
    {
      "cityName": "Kumbaloluwa",
      "lat": 7.1833333,
      "lng": 80.0833333
    },
    {
      "cityName": "Kumbuke",
      "lat": 6.75,
      "lng": 80.0166667
    },
    {
      "cityName": "Kunumada",
      "lat": 7.2666667,
      "lng": 80.0166667
    },
    {
      "cityName": "Kuppiawatta",
      "lat": 6.9333333,
      "lng": 79.8833333
    },
    {
      "cityName": "Kurana Katunayaka",
      "lat": 7.1833333,
      "lng": 79.8666667
    },
    {
      "cityName": "Kurikotuwa",
      "lat": 7.1666667,
      "lng": 80.05
    },
    {
      "cityName": "Kurudippita",
      "lat": 6.4333333,
      "lng": 80.0833333
    },
    {
      "cityName": "Kurugala",
      "lat": 6.8166667,
      "lng": 80.0666667
    },
    {
      "cityName": "Kurukulawa",
      "lat": 7.0166667,
      "lng": 79.9333333
    },
    {
      "cityName": "Kurupita",
      "lat": 6.4833333,
      "lng": 80.2
    },
    {
      "cityName": "Kuruppumulla",
      "lat": 6.7166667,
      "lng": 79.9166667
    },
    {
      "cityName": "Kuttiwila",
      "lat": 7.0333333,
      "lng": 80.15
    },
    {
      "cityName": "Labugama",
      "lat": 6.6833333,
      "lng": 80.05
    },
    {
      "cityName": "Ladduwa",
      "lat": 6.4166667,
      "lng": 80.05
    },
    {
      "cityName": "Lansiyawatta",
      "lat": 6.9822222,
      "lng": 79.8711111
    },
    {
      "cityName": "Lenagala",
      "lat": 6.8833333,
      "lng": 80.0333333
    },
    {
      "cityName": "Leuwanduwa",
      "lat": 6.45,
      "lng": 80.1
    },
    {
      "cityName": "Lindara",
      "lat": 7.2166667,
      "lng": 80.1333333
    },
    {
      "cityName": "Liniyawa",
      "lat": 6.45,
      "lng": 80.1666667
    },
    {
      "cityName": "Liyanwala",
      "lat": 6.8333333,
      "lng": 80.0833333
    },
    {
      "cityName": "Loolbadduwa",
      "lat": 6.4,
      "lng": 80.1
    },
    {
      "cityName": "Lunawa",
      "lat": 6.7897222,
      "lng": 79.8744444
    },
    {
      "cityName": "Lunugama",
      "lat": 6.9666667,
      "lng": 80.0833333
    },
    {
      "cityName": "Mabima",
      "lat": 6.95,
      "lng": 79.9666667
    },
    {
      "cityName": "Mabodale",
      "lat": 7.2,
      "lng": 80.0166667
    },
    {
      "cityName": "Mabogoda",
      "lat": 6.65,
      "lng": 80.0833333
    },
    {
      "cityName": "Mabula",
      "lat": 6.9166667,
      "lng": 80.1333333
    },
    {
      "cityName": "Madabaddara",
      "lat": 6.7166667,
      "lng": 80.2666667
    },
    {
      "cityName": "Madakada",
      "lat": 6.8,
      "lng": 80.1666667
    },
    {
      "cityName": "Madakotuwa",
      "lat": 7.0666667,
      "lng": 80.1333333
    },
    {
      "cityName": "Madampella Ihala",
      "lat": 7.25,
      "lng": 79.95
    },
    {
      "cityName": "Madangastuduwa",
      "lat": 7.15,
      "lng": 79.8333333
    },
    {
      "cityName": "Madapata",
      "lat": 6.7669444,
      "lng": 79.92
    },
    {
      "cityName": "Madatiyawala",
      "lat": 7.2333333,
      "lng": 80.0666667
    },
    {
      "cityName": "Madawala",
      "lat": 6.4666667,
      "lng": 80.1333333
    },
    {
      "cityName": "Madelgamuwa",
      "lat": 7.1166667,
      "lng": 79.95
    },
    {
      "cityName": "Madittegama",
      "lat": 7.2027778,
      "lng": 79.9952778
    },
    {
      "cityName": "Madiwala",
      "lat": 6.8833333,
      "lng": 79.9166667
    },
    {
      "cityName": "Maduluwawa",
      "lat": 6.8333333,
      "lng": 80.0666667
    },
    {
      "cityName": "Madurawala",
      "lat": 6.6333333,
      "lng": 80.0666667
    },
    {
      "cityName": "Maduwa",
      "lat": 7.1666667,
      "lng": 79.9
    },
    {
      "cityName": "Maduwegedara",
      "lat": 7.1333333,
      "lng": 80.1
    },
    {
      "cityName": "Maeliya",
      "lat": 7.0833333,
      "lng": 79.9166667
    },
    {
      "cityName": "Maggona",
      "lat": 6.5030556,
      "lng": 79.9822222
    },
    {
      "cityName": "Magurumaswila",
      "lat": 6.3833333,
      "lng": 80.2
    },
    {
      "cityName": "Maha Aruggoda",
      "lat": 6.7333333,
      "lng": 79.95
    },
    {
      "cityName": "Mahabage",
      "lat": 7.0216667,
      "lng": 79.8938889
    },
    {
      "cityName": "Mahagama",
      "lat": 6.6166667,
      "lng": 80.1666667
    },
    {
      "cityName": "Mahagama South",
      "lat": 6.6,
      "lng": 80.15
    },
    {
      "cityName": "Maha Hinatiyangala",
      "lat": 6.5666667,
      "lng": 79.9666667
    },
    {
      "cityName": "Mahaloluwa",
      "lat": 7.05,
      "lng": 80.1333333
    },
    {
      "cityName": "Maharagama",
      "lat": 6.8461111,
      "lng": 79.9280556
    },
    {
      "cityName": "Maha Wadduwa West",
      "lat": 6.6833333,
      "lng": 79.9333333
    },
    {
      "cityName": "Mahawatta",
      "lat": 7.1,
      "lng": 79.85
    },
    {
      "cityName": "Mahawila",
      "lat": 6.7166667,
      "lng": 79.9333333
    },
    {
      "cityName": "Mahena",
      "lat": 6.7,
      "lng": 80.05
    },
    {
      "cityName": "Mahingala",
      "lat": 6.8166667,
      "lng": 80.1166667
    },
    {
      "cityName": "Maimbula",
      "lat": 7.1333333,
      "lng": 80.1166667
    },
    {
      "cityName": "Makalandawa",
      "lat": 6.4,
      "lng": 80.1833333
    },
    {
      "cityName": "Makilangomuwa",
      "lat": 7.0833333,
      "lng": 79.95
    },
    {
      "cityName": "Makola",
      "lat": 6.9694444,
      "lng": 79.9538889
    },
    {
      "cityName": "Makola North",
      "lat": 6.9833333,
      "lng": 79.95
    },
    {
      "cityName": "Makumbura",
      "lat": 6.8333333,
      "lng": 79.9666667
    },
    {
      "cityName": "Malabe",
      "lat": 6.9,
      "lng": 79.95
    },
    {
      "cityName": "Maladeniya",
      "lat": 7.2833333,
      "lng": 80.1
    },
    {
      "cityName": "Malagala",
      "lat": 6.8,
      "lng": 80.1166667
    },
    {
      "cityName": "Malapalla",
      "lat": 6.85,
      "lng": 79.9833333
    },
    {
      "cityName": "Maligawatta",
      "lat": 6.9372222,
      "lng": 79.8719444
    },
    {
      "cityName": "Mallawagedara",
      "lat": 7.2833333,
      "lng": 80.0333333
    },
    {
      "cityName": "Malwana",
      "lat": 6.9491667,
      "lng": 80.0152778
    },
    {
      "cityName": "Manaweriya",
      "lat": 7.2666667,
      "lng": 79.8666667
    },
    {
      "cityName": "Mandawala Batagampalata",
      "lat": 7,
      "lng": 80.0833333
    },
    {
      "cityName": "Mandawala",
      "lat": 7.0166667,
      "lng": 80.0833333
    },
    {
      "cityName": "Manhandiya",
      "lat": 6.4833333,
      "lng": 80.0333333
    },
    {
      "cityName": "Mannawatta",
      "lat": 6.45,
      "lng": 80.35
    },
    {
      "cityName": "Manning Town",
      "lat": 6.9019444,
      "lng": 79.8786111
    },
    {
      "cityName": "Mapitagama Pahala",
      "lat": 6.9333333,
      "lng": 80.0333333
    },
    {
      "cityName": "Marapola",
      "lat": 7.15,
      "lng": 80.0333333
    },
    {
      "cityName": "Matagoda",
      "lat": 7,
      "lng": 79.8833333
    },
    {
      "cityName": "Matalana",
      "lat": 7.1166667,
      "lng": 80.1
    },
    {
      "cityName": "Mattakkuliya",
      "lat": 6.9,
      "lng": 79.8666667
    },
    {
      "cityName": "Mattegama",
      "lat": 7.3166667,
      "lng": 80.1
    },
    {
      "cityName": "Mattegoda",
      "lat": 6.8166667,
      "lng": 79.9666667
    },
    {
      "cityName": "Matugama",
      "lat": 6.4166667,
      "lng": 80.1333333
    },
    {
      "cityName": "Matuguma",
      "lat": 6.5222222,
      "lng": 80.1144444
    },
    {
      "cityName": "Mawatagama",
      "lat": 6.8333333,
      "lng": 80.0166667
    },
    {
      "cityName": "Mawattegama",
      "lat": 6.8666667,
      "lng": 80.0833333
    },
    {
      "cityName": "Maweehena",
      "lat": 7.5833333,
      "lng": 80.1833333
    },
    {
      "cityName": "Mayilawalana",
      "lat": 7.05,
      "lng": 80.1166667
    },
    {
      "cityName": "Medagama",
      "lat": 6.7333333,
      "lng": 79.9666667
    },
    {
      "cityName": "Medagampitiya",
      "lat": 7.1833333,
      "lng": 80.0333333
    },
    {
      "cityName": "Medamulla",
      "lat": 7.1833333,
      "lng": 79.95
    },
    {
      "cityName": "Meddegama",
      "lat": 7.0166667,
      "lng": 80.1333333
    },
    {
      "cityName": "Mediriwila",
      "lat": 7.3,
      "lng": 79.9833333
    },
    {
      "cityName": "Meemana",
      "lat": 6.7333333,
      "lng": 80.0333333
    },
    {
      "cityName": "Meetotamulla",
      "lat": 6.9344444,
      "lng": 79.8836111
    },
    {
      "cityName": "Megoda Kolonnawa",
      "lat": 6.9286111,
      "lng": 79.9002778
    },
    {
      "cityName": "Menerigama",
      "lat": 6.8,
      "lng": 80.1333333
    },
    {
      "cityName": "Mestiya",
      "lat": 6.6666667,
      "lng": 79.95
    },
    {
      "cityName": "Midalana",
      "lat": 6.5166667,
      "lng": 80.25
    },
    {
      "cityName": "Midellawita",
      "lat": 7.0833333,
      "lng": 79.9333333
    },
    {
      "cityName": "Migahatenna",
      "lat": 6.4333333,
      "lng": 80.1833333
    },
    {
      "cityName": "Migahawatta",
      "lat": 6.9822222,
      "lng": 79.995
    },
    {
      "cityName": "Migama",
      "lat": 6.4236111,
      "lng": 80.0680556
    },
    {
      "cityName": "Migoda",
      "lat": 6.8533333,
      "lng": 80.0580556
    },
    {
      "cityName": "Milleniya",
      "lat": 6.6805556,
      "lng": 80.0188889
    },
    {
      "cityName": "Millewa",
      "lat": 6.7833333,
      "lng": 80.0666667
    },
    {
      "cityName": "Minuwangoda",
      "lat": 7.1733333,
      "lng": 79.9619444
    },
    {
      "cityName": "Mirigama",
      "lat": 7.2413889,
      "lng": 80.1325
    },
    {
      "cityName": "Mirihana",
      "lat": 6.8666667,
      "lng": 79.9
    },
    {
      "cityName": "Miriswatta",
      "lat": 7.0711111,
      "lng": 80.0183333
    },
    {
      "cityName": "Miriyagalla",
      "lat": 6.8,
      "lng": 80.1
    },
    {
      "cityName": "Mitirigala",
      "lat": 6.9833333,
      "lng": 80.1666667
    },
    {
      "cityName": "Modera",
      "lat": 6.9677778,
      "lng": 79.87
    },
    {
      "cityName": "Mohottigoda",
      "lat": 6.7666667,
      "lng": 80
    },
    {
      "cityName": "Molligoda",
      "lat": 6.6536111,
      "lng": 79.9347222
    },
    {
      "cityName": "Moragahahena",
      "lat": 6.7833333,
      "lng": 80.05
    },
    {
      "cityName": "Moragala",
      "lat": 6.4638889,
      "lng": 80.1963889
    },
    {
      "cityName": "Moragoda",
      "lat": 7.0666667,
      "lng": 80
    },
    {
      "cityName": "Morapitiya",
      "lat": 6.5333333,
      "lng": 80.2666667
    },
    {
      "cityName": "Moratuwa",
      "lat": 6.7733333,
      "lng": 79.8825
    },
    {
      "cityName": "Morontuduwa",
      "lat": 6.65,
      "lng": 79.9666667
    },
    {
      "cityName": "Mottunna",
      "lat": 7.1666667,
      "lng": 80.0833333
    },
    {
      "cityName": "Mount Lavania",
      "lat": 6.8338889,
      "lng": 79.8644444
    },
    {
      "cityName": "Mukalangamuwa",
      "lat": 7.1333333,
      "lng": 79.8666667
    },
    {
      "cityName": "Mukalangedara",
      "lat": 7.2833333,
      "lng": 80.0166667
    },
    {
      "cityName": "Mulatiyana",
      "lat": 6.5,
      "lng": 80.1666667
    },
    {
      "cityName": "Mullegama",
      "lat": 6.8833333,
      "lng": 80.0166667
    },
    {
      "cityName": "Munagama",
      "lat": 6.7166667,
      "lng": 80.0833333
    },
    {
      "cityName": "Munamalwatta",
      "lat": 6.45,
      "lng": 80.0833333
    },
    {
      "cityName": "Munnakkara",
      "lat": 7.2,
      "lng": 79.8333333
    },
    {
      "cityName": "Mutwal",
      "lat": 6.95,
      "lng": 79.8666667
    },
    {
      "cityName": "Naboda",
      "lat": 6.5905556,
      "lng": 80.0841667
    },
    {
      "cityName": "Nagahadoova",
      "lat": 6.5333333,
      "lng": 80
    },
    {
      "cityName": "Nagoda",
      "lat": 6.5719444,
      "lng": 79.9986111
    },
    {
      "cityName": "Nahalla",
      "lat": 6.6166667,
      "lng": 80.1166667
    },
    {
      "cityName": "Nahinigammana",
      "lat": 7.2833333,
      "lng": 80.05
    },
    {
      "cityName": "Nakandalagoda",
      "lat": 6.4430556,
      "lng": 80.0216667
    },
    {
      "cityName": "Nalapaya",
      "lat": 7.1919444,
      "lng": 80.0388889
    },
    {
      "cityName": "Nambapana",
      "lat": 6.7333333,
      "lng": 80.2
    },
    {
      "cityName": "Nanduwa",
      "lat": 6.6538889,
      "lng": 79.9772222
    },
    {
      "cityName": "Naragala",
      "lat": 6.6833333,
      "lng": 80.1
    },
    {
      "cityName": "Narahenpita",
      "lat": 6.8911111,
      "lng": 79.8736111
    },
    {
      "cityName": "Naranapitiya",
      "lat": 7.25,
      "lng": 80.05
    },
    {
      "cityName": "Narangodapaluwa",
      "lat": 7.05,
      "lng": 79.9333333
    },
    {
      "cityName": "Naranwala",
      "lat": 7,
      "lng": 80.0166667
    },
    {
      "cityName": "Nawagamuwa",
      "lat": 6.9166667,
      "lng": 80.0166667
    },
    {
      "cityName": "Nawala",
      "lat": 6.9,
      "lng": 79.8833333
    },
    {
      "cityName": "Nawana",
      "lat": 7.2666667,
      "lng": 80.1
    },
    {
      "cityName": "Nawinna",
      "lat": 6.85,
      "lng": 79.9166667
    },
    {
      "cityName": "Nawuttuduwa",
      "lat": 6.4833333,
      "lng": 80.0666667
    },
    {
      "cityName": "Nedagamuwa",
      "lat": 7.1333333,
      "lng": 79.95
    },
    {
      "cityName": "Neelammahara",
      "lat": 6.8333333,
      "lng": 79.9166667
    },
    {
      "cityName": "Negombo",
      "lat": 7.2086111,
      "lng": 79.8358333
    },
    {
      "cityName": "Nehinna",
      "lat": 6.55,
      "lng": 80.05
    },
    {
      "cityName": "Nelunpitiya",
      "lat": 7.2166667,
      "lng": 79.8666667
    },
    {
      "cityName": "Neluwattuduwa",
      "lat": 6.9,
      "lng": 80.1166667
    },
    {
      "cityName": "New Bazaar",
      "lat": 6.9352778,
      "lng": 79.8633333
    },
    {
      "cityName": "Nikahetikanda",
      "lat": 7.1,
      "lng": 80.1833333
    },
    {
      "cityName": "Nikgaha",
      "lat": 6.65,
      "lng": 80.2333333
    },
    {
      "cityName": "Niripola",
      "lat": 6.9,
      "lng": 80.1
    },
    {
      "cityName": "Nittambuwa",
      "lat": 7.1388889,
      "lng": 80.0980556
    },
    {
      "cityName": "Niwantidiya",
      "lat": 6.8333333,
      "lng": 79.9333333
    },
    {
      "cityName": "Niyandagala",
      "lat": 6.8333333,
      "lng": 79.9833333
    },
    {
      "cityName": "Nugadeniya",
      "lat": 7.2833333,
      "lng": 80.1166667
    },
    {
      "cityName": "Nugape",
      "lat": 7.05,
      "lng": 79.8666667
    },
    {
      "cityName": "Nugegoda",
      "lat": 6.8727778,
      "lng": 79.8908333
    },
    {
      "cityName": "Olabaduwa",
      "lat": 6.7666667,
      "lng": 80.0166667
    },
    {
      "cityName": "Omatta",
      "lat": 6.5666667,
      "lng": 80.1833333
    },
    {
      "cityName": "Opalla",
      "lat": 6.7,
      "lng": 80.1333333
    },
    {
      "cityName": "Opata",
      "lat": 7.1333333,
      "lng": 79.9166667
    },
    {
      "cityName": "Oruwala",
      "lat": 6.8833333,
      "lng": 80
    },
    {
      "cityName": "Owitigama",
      "lat": 6.8333333,
      "lng": 80.0333333
    },
    {
      "cityName": "Padagala",
      "lat": 6.6666667,
      "lng": 80.05
    },
    {
      "cityName": "Padukka",
      "lat": 6.8325,
      "lng": 80.0986111
    },
    {
      "cityName": "Pagoda",
      "lat": 6.8833333,
      "lng": 79.9
    },
    {
      "cityName": "Pahala Hewessa",
      "lat": 6.4,
      "lng": 80.2333333
    },
    {
      "cityName": "Pahala Karannagoda",
      "lat": 6.6333333,
      "lng": 80.0833333
    },
    {
      "cityName": "Pahala Millewa",
      "lat": 6.8,
      "lng": 80.0666667
    },
    {
      "cityName": "Pahalawelgama",
      "lat": 6.6333333,
      "lng": 80.1833333
    },
    {
      "cityName": "Pahalayagoda",
      "lat": 7.0666667,
      "lng": 79.9833333
    },
    {
      "cityName": "Pahurutota",
      "lat": 6.7666667,
      "lng": 80.1166667
    },
    {
      "cityName": "Paiyagala North",
      "lat": 6.5358333,
      "lng": 79.9747222
    },
    {
      "cityName": "Paiyagala South",
      "lat": 6.5275,
      "lng": 79.9794444
    },
    {
      "cityName": "Palagama",
      "lat": 6.7666667,
      "lng": 79.9666667
    },
    {
      "cityName": "Palapitiya",
      "lat": 7.2,
      "lng": 80.15
    },
    {
      "cityName": "Palkumbura",
      "lat": 7.1,
      "lng": 80.15
    },
    {
      "cityName": "Pallagoda",
      "lat": 6.4833333,
      "lng": 80.05
    },
    {
      "cityName": "Pallansena North",
      "lat": 7.2666667,
      "lng": 79.85
    },
    {
      "cityName": "Palligoda",
      "lat": 6.5166667,
      "lng": 80.1
    },
    {
      "cityName": "Palliyawatta",
      "lat": 6.9833333,
      "lng": 79.8666667
    },
    {
      "cityName": "Palugahawela",
      "lat": 7.2,
      "lng": 79.9333333
    },
    {
      "cityName": "Palugama",
      "lat": 6.9333333,
      "lng": 80.0666667
    },
    {
      "cityName": "Palupelpita",
      "lat": 7.0333333,
      "lng": 80.0666667
    },
    {
      "cityName": "Pamunuwa",
      "lat": 6.85,
      "lng": 79.9333333
    },
    {
      "cityName": "Panadura",
      "lat": 6.7133333,
      "lng": 79.9041667
    },
    {
      "cityName": "Panagoda",
      "lat": 6.6166667,
      "lng": 80.0333333
    },
    {
      "cityName": "Panaluwa",
      "lat": 6.8666667,
      "lng": 80.0666667
    },
    {
      "cityName": "Pannagula",
      "lat": 6.8833333,
      "lng": 80.1666667
    },
    {
      "cityName": "Pannila",
      "lat": 6.4333333,
      "lng": 80.1
    },
    {
      "cityName": "Pantiya",
      "lat": 6.5333333,
      "lng": 80.0833333
    },
    {
      "cityName": "Panwila",
      "lat": 6.6,
      "lng": 79.9833333
    },
    {
      "cityName": "Paraduwa",
      "lat": 6.6333333,
      "lng": 80
    },
    {
      "cityName": "Paragastota",
      "lat": 6.6666667,
      "lng": 80
    },
    {
      "cityName": "Paraigama",
      "lat": 6.4166667,
      "lng": 80.1166667
    },
    {
      "cityName": "Parana Ambalama",
      "lat": 7.05,
      "lng": 79.85
    },
    {
      "cityName": "Pasyala",
      "lat": 7.1641667,
      "lng": 80.1247222
    },
    {
      "cityName": "Pattalagedara",
      "lat": 7.15,
      "lng": 80.0666667
    },
    {
      "cityName": "Pattanduwana",
      "lat": 7.1333333,
      "lng": 79.9333333
    },
    {
      "cityName": "Pattiyagama",
      "lat": 6.9833333,
      "lng": 80.1166667
    },
    {
      "cityName": "Pedipola",
      "lat": 7.1333333,
      "lng": 79.9833333
    },
    {
      "cityName": "Pelapitiyagoda",
      "lat": 6.6166667,
      "lng": 80.0666667
    },
    {
      "cityName": "Pelawatta",
      "lat": 6.4,
      "lng": 80.2166667
    },
    {
      "cityName": "Pelenda",
      "lat": 6.5666667,
      "lng": 80.25
    },
    {
      "cityName": "Peliyagoda Badahelawatta",
      "lat": 6.9630556,
      "lng": 79.8841667
    },
    {
      "cityName": "Peliyagoda Gangaboda",
      "lat": 6.95,
      "lng": 79.8833333
    },
    {
      "cityName": "Peliyagoda Pattiya",
      "lat": 6.9580556,
      "lng": 79.8877778
    },
    {
      "cityName": "Peliyagodawatta",
      "lat": 6.9605556,
      "lng": 79.8827778
    },
    {
      "cityName": "Pelpita",
      "lat": 6.9833333,
      "lng": 80.1
    },
    {
      "cityName": "Pelpola",
      "lat": 6.6516667,
      "lng": 79.9969444
    },
    {
      "cityName": "Penigala",
      "lat": 6.4833333,
      "lng": 80.2333333
    },
    {
      "cityName": "Peralanda",
      "lat": 7.0333333,
      "lng": 79.9
    },
    {
      "cityName": "Pettah",
      "lat": 6.9394444,
      "lng": 79.8488889
    },
    {
      "cityName": "Pilikuttuwa",
      "lat": 7.0666667,
      "lng": 80.05
    },
    {
      "cityName": "Piliyandala",
      "lat": 6.7980556,
      "lng": 79.9263889
    },
    {
      "cityName": "Pimbura",
      "lat": 6.5666667,
      "lng": 80.15
    },
    {
      "cityName": "Pinnagoda",
      "lat": 6.5166667,
      "lng": 80.1333333
    },
    {
      "cityName": "Pinnameda",
      "lat": 7,
      "lng": 79.9166667
    },
    {
      "cityName": "Pinnawala",
      "lat": 6.8666667,
      "lng": 80.1166667
    },
    {
      "cityName": "Pinwatta",
      "lat": 6.6902778,
      "lng": 79.9125
    },
    {
      "cityName": "Pitigoda",
      "lat": 7.2333333,
      "lng": 80.85
    },
    {
      "cityName": "Pitipana South",
      "lat": 6.8166667,
      "lng": 80.0166667
    },
    {
      "cityName": "Pohaddaramulla",
      "lat": 6.65,
      "lng": 79.9333333
    },
    {
      "cityName": "Polgampola",
      "lat": 6.4666667,
      "lng": 80.2
    },
    {
      "cityName": "Polgasowita",
      "lat": 6.7841667,
      "lng": 79.9811111
    },
    {
      "cityName": "Poregedara",
      "lat": 6.8166667,
      "lng": 80.1
    },
    {
      "cityName": "Pore",
      "lat": 6.8833333,
      "lng": 79.9833333
    },
    {
      "cityName": "Poruwedanda",
      "lat": 6.7333333,
      "lng": 80.1166667
    },
    {
      "cityName": "Pottegedara",
      "lat": 7.25,
      "lng": 80.0666667
    },
    {
      "cityName": "Pottemulla",
      "lat": 7.25,
      "lng": 80.1333333
    },
    {
      "cityName": "Potupitiya",
      "lat": 6.6333333,
      "lng": 79.95
    },
    {
      "cityName": "Pugoda",
      "lat": 6.9702778,
      "lng": 80.1222222
    },
    {
      "cityName": "Pulluhena",
      "lat": 7.0666667,
      "lng": 79.85
    },
    {
      "cityName": "Puranapotta",
      "lat": 7.0666667,
      "lng": 80.1666667
    },
    {
      "cityName": "Putupagala",
      "lat": 6.9833333,
      "lng": 80.0666667
    },
    {
      "cityName": "Puwakpitiya",
      "lat": 6.9277778,
      "lng": 80.1855556
    },
    {
      "cityName": "Puwakwetiya",
      "lat": 7.0166667,
      "lng": 79.9666667
    },
    {
      "cityName": "Radawana",
      "lat": 7.0341667,
      "lng": 80.0902778
    },
    {
      "cityName": "Ragama",
      "lat": 7.0308333,
      "lng": 79.9166667
    },
    {
      "cityName": "Rajagiriya",
      "lat": 6.9127778,
      "lng": 79.8938889
    },
    {
      "cityName": "Ranala",
      "lat": 6.9166667,
      "lng": 80.0333333
    },
    {
      "cityName": "Ratambale",
      "lat": 7.0666667,
      "lng": 80.15
    },
    {
      "cityName": "Ratmalana North",
      "lat": 6.8166667,
      "lng": 79.8666667
    },
    {
      "cityName": "Ratmalana",
      "lat": 6.8183333,
      "lng": 79.8691667
    },
    {
      "cityName": "Ratmalana South",
      "lat": 6.8166667,
      "lng": 79.8833333
    },
    {
      "cityName": "Ratmale",
      "lat": 6.45,
      "lng": 80.2
    },
    {
      "cityName": "Ratmalgoda",
      "lat": 6.75,
      "lng": 80.1166667
    },
    {
      "cityName": "Rawatawatta",
      "lat": 6.7833333,
      "lng": 79.8833333
    },
    {
      "cityName": "Remuna",
      "lat": 6.6833333,
      "lng": 80.0666667
    },
    {
      "cityName": "Rerukana",
      "lat": 6.7333333,
      "lng": 80
    },
    {
      "cityName": "Retiyala",
      "lat": 6.6333333,
      "lng": 80.1333333
    },
    {
      "cityName": "Rilawela",
      "lat": 6.8,
      "lng": 79.9833333
    },
    {
      "cityName": "Ritiketiya",
      "lat": 6.4333333,
      "lng": 80.0666667
    },
    {
      "cityName": "Rukmale",
      "lat": 6.85,
      "lng": 79.9666667
    },
    {
      "cityName": "Samanabedda",
      "lat": 6.9166667,
      "lng": 80.0833333
    },
    {
      "cityName": "Sedawatta",
      "lat": 6.9505556,
      "lng": 79.8861111
    },
    {
      "cityName": "Senasungoda",
      "lat": 6.9833333,
      "lng": 80.1333333
    },
    {
      "cityName": "Siyambalape",
      "lat": 6.9666667,
      "lng": 79.9833333
    },
    {
      "cityName": "Slave Island",
      "lat": 6.9166667,
      "lng": 79.85
    },
    {
      "cityName": "Tabuwana",
      "lat": 6.5944444,
      "lng": 80.0611111
    },
    {
      "cityName": "Talagala",
      "lat": 6.7833333,
      "lng": 80.0333333
    },
    {
      "cityName": "Talahena",
      "lat": 6.9166667,
      "lng": 79.95
    },
    {
      "cityName": "Talahera",
      "lat": 7.1666667,
      "lng": 79.8166667
    },
    {
      "cityName": "Talahitiya",
      "lat": 6.6,
      "lng": 80.05
    },
    {
      "cityName": "Talangama North",
      "lat": 6.9013889,
      "lng": 79.9572222
    },
    {
      "cityName": "Talangama South",
      "lat": 6.9,
      "lng": 79.9333333
    },
    {
      "cityName": "Talapathpitiya",
      "lat": 6.8666667,
      "lng": 79.9166667
    },
    {
      "cityName": "Talawatugoda",
      "lat": 6.8691667,
      "lng": 79.9411111
    },
    {
      "cityName": "Talawatuhenpita North",
      "lat": 6.9833333,
      "lng": 79.9333333
    },
    {
      "cityName": "Talpitiya",
      "lat": 6.6833333,
      "lng": 79.9166667
    },
    {
      "cityName": "Tarala",
      "lat": 6.9833333,
      "lng": 80.15
    },
    {
      "cityName": "Telangapata",
      "lat": 6.9683333,
      "lng": 79.8927778
    },
    {
      "cityName": "Tihariya",
      "lat": 7.1238889,
      "lng": 80.0716667
    },
    {
      "cityName": "Timbirigaskotuwa",
      "lat": 7.2333333,
      "lng": 79.8666667
    },
    {
      "cityName": "Timbirigasyaya",
      "lat": 6.8833333,
      "lng": 79.8666667
    },
    {
      "cityName": "Tittapattara",
      "lat": 6.9297222,
      "lng": 80.0888889
    },
    {
      "cityName": "Totaha",
      "lat": 6.3666667,
      "lng": 80.1833333
    },
    {
      "cityName": "Tudugala",
      "lat": 6.5666667,
      "lng": 80.05
    },
    {
      "cityName": "Tunnane",
      "lat": 6.8833333,
      "lng": 80.0833333
    },
    {
      "cityName": "Udagama",
      "lat": 6.8333333,
      "lng": 80.1666667
    },
    {
      "cityName": "Udatuttiripitiya",
      "lat": 7.0836111,
      "lng": 80.0819444
    },
    {
      "cityName": "Udawalakanda",
      "lat": 6.6666667,
      "lng": 80.2166667
    },
    {
      "cityName": "Udugoda",
      "lat": 7.1,
      "lng": 80.1166667
    },
    {
      "cityName": "Udupila",
      "lat": 6.9925,
      "lng": 80.0188889
    },
    {
      "cityName": "Uduwa Kuda",
      "lat": 6.7666667,
      "lng": 80.0666667
    },
    {
      "cityName": "Uduwa Maha",
      "lat": 6.75,
      "lng": 80.0666667
    },
    {
      "cityName": "Uduwana",
      "lat": 6.8166667,
      "lng": 80
    },
    {
      "cityName": "Ukwatta",
      "lat": 6.6166667,
      "lng": 80
    },
    {
      "cityName": "Uragoda",
      "lat": 6.45,
      "lng": 80.1166667
    },
    {
      "cityName": "Urapana",
      "lat": 7.2333333,
      "lng": 80
    },
    {
      "cityName": "Urapola",
      "lat": 7.0972222,
      "lng": 80.1483333
    },
    {
      "cityName": "Urugala",
      "lat": 6.7333333,
      "lng": 80.1833333
    },
    {
      "cityName": "Uruwala",
      "lat": 6.9,
      "lng": 80.15
    },
    {
      "cityName": "Uswetakeiyawa",
      "lat": 7.0411111,
      "lng": 79.8625
    },
    {
      "cityName": "Utuwanbogahawatta",
      "lat": 7.1833333,
      "lng": 80.05
    },
    {
      "cityName": "Veyangoda",
      "lat": 7.1519444,
      "lng": 80.0633333
    },
    {
      "cityName": "Vitanamulla",
      "lat": 7.2,
      "lng": 80.0333333
    },
    {
      "cityName": "Wadduwa",
      "lat": 6.6641667,
      "lng": 79.9286111
    },
    {
      "cityName": "Waga",
      "lat": 6.8666667,
      "lng": 80.15
    },
    {
      "cityName": "Wagawatta",
      "lat": 6.7166667,
      "lng": 80.1333333
    },
    {
      "cityName": "Walagedara",
      "lat": 6.45,
      "lng": 80.0666667
    },
    {
      "cityName": "Walallawita",
      "lat": 6.3666667,
      "lng": 80.2
    },
    {
      "cityName": "Walarambe",
      "lat": 7,
      "lng": 80.05
    },
    {
      "cityName": "Walgama",
      "lat": 6.9666667,
      "lng": 80.0166667
    },
    {
      "cityName": "Walgammulla",
      "lat": 7.0666667,
      "lng": 80.1166667
    },
    {
      "cityName": "Walpitamulla",
      "lat": 7.15,
      "lng": 80.0166667
    },
    {
      "cityName": "Walpita",
      "lat": 6.6833333,
      "lng": 80.0833333
    },
    {
      "cityName": "Wandurebba",
      "lat": 6.5166667,
      "lng": 80.15
    },
    {
      "cityName": "Waragoda",
      "lat": 7.1166667,
      "lng": 80.15
    },
    {
      "cityName": "Watareka",
      "lat": 6.85,
      "lng": 80.0666667
    },
    {
      "cityName": "Wattala",
      "lat": 6.9897222,
      "lng": 79.8933333
    },
    {
      "cityName": "Waturagama",
      "lat": 7.0577778,
      "lng": 80.0966667
    },
    {
      "cityName": "Weboda",
      "lat": 7.0166667,
      "lng": 79.9833333
    },
    {
      "cityName": "Weherawatta",
      "lat": 6.75,
      "lng": 79.9166667
    },
    {
      "cityName": "Weiiketiya",
      "lat": 7.0786111,
      "lng": 79.8675
    },
    {
      "cityName": "Weke",
      "lat": 7.0333333,
      "lng": 80.1333333
    },
    {
      "cityName": "Welgama",
      "lat": 6.9166667,
      "lng": 80.0666667
    },
    {
      "cityName": "Welihinda",
      "lat": 7.2786111,
      "lng": 80.0594444
    },
    {
      "cityName": "Welikada",
      "lat": 6.9166667,
      "lng": 79.8833333
    },
    {
      "cityName": "Welikane",
      "lat": 6.8833333,
      "lng": 80.15
    },
    {
      "cityName": "Welipenna East",
      "lat": 6.4666667,
      "lng": 80.1
    },
    {
      "cityName": "Weliweriya East",
      "lat": 7.0333333,
      "lng": 80.0166667
    },
    {
      "cityName": "Weliwita",
      "lat": 6.9333333,
      "lng": 79.9666667
    },
    {
      "cityName": "Welkandala",
      "lat": 6.5333333,
      "lng": 80.1
    },
    {
      "cityName": "Wellathe",
      "lat": 6.5666667,
      "lng": 80.0666667
    },
    {
      "cityName": "Welmilla",
      "lat": 6.75,
      "lng": 79.9666667
    },
    {
      "cityName": "Weniwelkola",
      "lat": 6.7833333,
      "lng": 79.9833333
    },
    {
      "cityName": "Wennawatta",
      "lat": 6.9355556,
      "lng": 79.9
    },
    {
      "cityName": "Weragala",
      "lat": 6.5219444,
      "lng": 79.9969444
    },
    {
      "cityName": "Weragoda",
      "lat": 6.95,
      "lng": 79.8783333
    },
    {
      "cityName": "Werahera",
      "lat": 6.8333333,
      "lng": 79.9
    },
    {
      "cityName": "Weralugampola",
      "lat": 7.0166667,
      "lng": 80.1
    },
    {
      "cityName": "Weralupitiya",
      "lat": 6.9333333,
      "lng": 80.15
    },
    {
      "cityName": "Werawatta",
      "lat": 6.6666667,
      "lng": 80.0833333
    },
    {
      "cityName": "Wewelpanawa",
      "lat": 6.8666667,
      "lng": 80.1
    },
    {
      "cityName": "Wewita",
      "lat": 6.7,
      "lng": 79.9833333
    },
    {
      "cityName": "Widiyawatta",
      "lat": 7.1361111,
      "lng": 79.9813889
    },
    {
      "cityName": "Wigoda",
      "lat": 7.1333333,
      "lng": 80.0166667
    },
    {
      "cityName": "Yabaraluwa",
      "lat": 6.95,
      "lng": 80
    },
    {
      "cityName": "Yagirala",
      "lat": 6.3666667,
      "lng": 80.1666667
    },
    {
      "cityName": "Yagoda",
      "lat": 7.0705556,
      "lng": 79.9688889
    },
    {
      "cityName": "Yakbedda",
      "lat": 6.9172222,
      "lng": 79.8905556
    },
    {
      "cityName": "Yakupitiya",
      "lat": 6.5166667,
      "lng": 80.2
    },
    {
      "cityName": "Yalagala",
      "lat": 6.6666667,
      "lng": 80.0333333
    },
    {
      "cityName": "Yatadolawatta",
      "lat": 6.5333333,
      "lng": 80.0666667
    },
    {
      "cityName": "Yatagampitiya",
      "lat": 6.65,
      "lng": 80.2166667
    },
    {
      "cityName": "Yatawaka",
      "lat": 7.0833333,
      "lng": 80.1666667
    },
    {
      "cityName": "Yatihena",
      "lat": 6.9666667,
      "lng": 80
    }
  ]
}