{
  "name": "Shemgang",
  "cities": [
    {
      "cityName": "Bali",
      "lat": 27.2166667,
      "lng": 90.7166667
    },
    {
      "cityName": "Bioka",
      "lat": 26.9,
      "lng": 90.9166667
    },
    {
      "cityName": "Go)nphu",
      "lat": 27.0833333,
      "lng": 90.7666667
    },
    {
      "cityName": "Panbang",
      "lat": 26.8666667,
      "lng": 90.9833333
    },
    {
      "cityName": "Pangkha",
      "lat": 26.95,
      "lng": 90.8166667
    },
    {
      "cityName": "Pieksao",
      "lat": 26.9333333,
      "lng": 90.9833333
    },
    {
      "cityName": "Samchhi",
      "lat": 27.3,
      "lng": 90.6166667
    },
    {
      "cityName": "Shamgong Dzong",
      "lat": 27.2333333,
      "lng": 90.65
    },
    {
      "cityName": "Zarafi",
      "lat": 27.15,
      "lng": 90.6833333
    }
  ]
}