{
  "name": "Ioba",
  "cities": [
    {
      "cityName": "Badiéré",
      "lat": 11.2,
      "lng": -3.1666667
    },
    {
      "cityName": "Baforo",
      "lat": 11.0333333,
      "lng": -3.1
    },
    {
      "cityName": "Bagane",
      "lat": 11.2,
      "lng": -3.1833333
    },
    {
      "cityName": "Bakara",
      "lat": 11.2,
      "lng": -3.0166667
    },
    {
      "cityName": "Bakotinga",
      "lat": 11.0666667,
      "lng": -2.7166667
    },
    {
      "cityName": "Banfaré",
      "lat": 10.95,
      "lng": -2.9833333
    },
    {
      "cityName": "Bankandi",
      "lat": 11.25,
      "lng": -3.0666667
    },
    {
      "cityName": "Batiara",
      "lat": 11.2,
      "lng": -2.9666667
    },
    {
      "cityName": "Batiélé",
      "lat": 11.1166667,
      "lng": -3.1666667
    },
    {
      "cityName": "Béni",
      "lat": 11.1666667,
      "lng": -2.9333333
    },
    {
      "cityName": "Biengane",
      "lat": 11.05,
      "lng": -2.8666667
    },
    {
      "cityName": "Bilanbar",
      "lat": 11.0833333,
      "lng": -2.9833333
    },
    {
      "cityName": "Binkili",
      "lat": 11.3,
      "lng": -2.9333333
    },
    {
      "cityName": "Bisserké",
      "lat": 11.2666667,
      "lng": -3.25
    },
    {
      "cityName": "Bobora",
      "lat": 11.0833333,
      "lng": -2.9333333
    },
    {
      "cityName": "Bolanbar",
      "lat": 11.05,
      "lng": -3.0333333
    },
    {
      "cityName": "Bon",
      "lat": 11.1833333,
      "lng": -2.75
    },
    {
      "cityName": "Bonzan",
      "lat": 11.35,
      "lng": -3.1166667
    },
    {
      "cityName": "Dablétéon",
      "lat": 11.05,
      "lng": -2.7
    },
    {
      "cityName": "Dabolé",
      "lat": 11.15,
      "lng": -3.2
    },
    {
      "cityName": "Dadounin",
      "lat": 11.15,
      "lng": -2.6833333
    },
    {
      "cityName": "Dahouré",
      "lat": 11.1333333,
      "lng": -3.15
    },
    {
      "cityName": "Dakolé",
      "lat": 10.9,
      "lng": -2.8666667
    },
    {
      "cityName": "Dakoula",
      "lat": 11.0833333,
      "lng": -3.1166667
    },
    {
      "cityName": "Danbagan",
      "lat": 11.1166667,
      "lng": -3.05
    },
    {
      "cityName": "Dandéré",
      "lat": 11.0833333,
      "lng": -2.7333333
    },
    {
      "cityName": "Dandiarama",
      "lat": 11.3666667,
      "lng": -3.05
    },
    {
      "cityName": "Dano",
      "lat": 11.15,
      "lng": -3.0666667
    },
    {
      "cityName": "Dayéré",
      "lat": 11.1666667,
      "lng": -2.9833333
    },
    {
      "cityName": "Dianlé",
      "lat": 11.1,
      "lng": -2.75
    },
    {
      "cityName": "Dianvor",
      "lat": 11.0666667,
      "lng": -2.9
    },
    {
      "cityName": "Dianvour",
      "lat": 11.2333333,
      "lng": -3.2333333
    },
    {
      "cityName": "Dima",
      "lat": 11.3166667,
      "lng": -2.75
    },
    {
      "cityName": "Disini",
      "lat": 10.9333333,
      "lng": -2.9333333
    },
    {
      "cityName": "Fafo",
      "lat": 11.3333333,
      "lng": -3.0166667
    },
    {
      "cityName": "Fétigné",
      "lat": 11.2333333,
      "lng": -2.8833333
    },
    {
      "cityName": "Gaïma",
      "lat": 11.3166667,
      "lng": -3.15
    },
    {
      "cityName": "Ganion",
      "lat": 11.25,
      "lng": -3.1
    },
    {
      "cityName": "Gattari",
      "lat": 11.3,
      "lng": -3.2333333
    },
    {
      "cityName": "Gbaba",
      "lat": 11.1666667,
      "lng": -3.05
    },
    {
      "cityName": "Gohipoua",
      "lat": 11.0333333,
      "lng": -2.9166667
    },
    {
      "cityName": "Gora Gane",
      "lat": 11.1166667,
      "lng": -3.1833333
    },
    {
      "cityName": "Gorgane",
      "lat": 11.1166667,
      "lng": -2.9
    },
    {
      "cityName": "Gouri",
      "lat": 11.0666667,
      "lng": -2.95
    },
    {
      "cityName": "Guéguéré",
      "lat": 11.1333333,
      "lng": -3.1833333
    },
    {
      "cityName": "Hamélé",
      "lat": 11,
      "lng": -2.75
    },
    {
      "cityName": "Iwara",
      "lat": 11.2666667,
      "lng": -2.9666667
    },
    {
      "cityName": "Kankané",
      "lat": 11.25,
      "lng": -3.1833333
    },
    {
      "cityName": "Kaya",
      "lat": 11.35,
      "lng": -2.8833333
    },
    {
      "cityName": "Kiri",
      "lat": 11.0166667,
      "lng": -2.75
    },
    {
      "cityName": "Kolinka",
      "lat": 11.05,
      "lng": -2.7166667
    },
    {
      "cityName": "Koti",
      "lat": 11.4,
      "lng": -3.05
    },
    {
      "cityName": "Koulagane",
      "lat": 11.2,
      "lng": -3.2166667
    },
    {
      "cityName": "Koundi",
      "lat": 11.3333333,
      "lng": -2.8333333
    },
    {
      "cityName": "Kpé",
      "lat": 11.1166667,
      "lng": -2.9166667
    },
    {
      "cityName": "Kpoumané",
      "lat": 10.9666667,
      "lng": -2.8833333
    },
    {
      "cityName": "Laro",
      "lat": 11.2833333,
      "lng": -2.8333333
    },
    {
      "cityName": "Lopal",
      "lat": 11.1666667,
      "lng": -2.8833333
    },
    {
      "cityName": "Manzour",
      "lat": 11.0166667,
      "lng": -3.0833333
    },
    {
      "cityName": "Mébaré",
      "lat": 11.2,
      "lng": -3.05
    },
    {
      "cityName": "Méméré",
      "lat": 11.15,
      "lng": -2.8833333
    },
    {
      "cityName": "Mian",
      "lat": 11,
      "lng": -2.9
    },
    {
      "cityName": "Moulourou",
      "lat": 11.0833333,
      "lng": -3.15
    },
    {
      "cityName": "Mounioupélé",
      "lat": 11.15,
      "lng": -2.8666667
    },
    {
      "cityName": "Nahi",
      "lat": 11.3,
      "lng": -3.2666667
    },
    {
      "cityName": "Nahoué",
      "lat": 11.3333333,
      "lng": -2.8166667
    },
    {
      "cityName": "Nanblégane",
      "lat": 11.2166667,
      "lng": -3.1333333
    },
    {
      "cityName": "Naro",
      "lat": 11.1833333,
      "lng": -3.2166667
    },
    {
      "cityName": "Navirikpoué",
      "lat": 11.0333333,
      "lng": -2.9666667
    },
    {
      "cityName": "Navrigbé",
      "lat": 10.9833333,
      "lng": -2.9333333
    },
    {
      "cityName": "Navronkué",
      "lat": 11.1666667,
      "lng": -3.15
    },
    {
      "cityName": "Niebo",
      "lat": 11.1166667,
      "lng": -2.7
    },
    {
      "cityName": "Nienka",
      "lat": 11.2666667,
      "lng": -3.1666667
    },
    {
      "cityName": "Niérégoua",
      "lat": 11.3166667,
      "lng": -3.0333333
    },
    {
      "cityName": "Nigtéba",
      "lat": 11.3,
      "lng": -3.0333333
    },
    {
      "cityName": "Nimaré",
      "lat": 11.2,
      "lng": -3.15
    },
    {
      "cityName": "Nimi",
      "lat": 11.25,
      "lng": -2.9666667
    },
    {
      "cityName": "Ningbouma",
      "lat": 11.25,
      "lng": -3.05
    },
    {
      "cityName": "Oronkua",
      "lat": 11.2833333,
      "lng": -3.1
    },
    {
      "cityName": "Ouassa",
      "lat": 11.05,
      "lng": -2.7833333
    },
    {
      "cityName": "Pana",
      "lat": 11.3833333,
      "lng": -3.1833333
    },
    {
      "cityName": "Payalo",
      "lat": 11.2833333,
      "lng": -2.7833333
    },
    {
      "cityName": "Pékoua",
      "lat": 11,
      "lng": -2.9333333
    },
    {
      "cityName": "Pontiéba",
      "lat": 11.1166667,
      "lng": -3.1166667
    },
    {
      "cityName": "Poulaba",
      "lat": 11.3,
      "lng": -3.1833333
    },
    {
      "cityName": "Pouri",
      "lat": 11.2833333,
      "lng": -2.7333333
    },
    {
      "cityName": "Sabouré",
      "lat": 11.2,
      "lng": -3.2333333
    },
    {
      "cityName": "Sadon",
      "lat": 11.3666667,
      "lng": -2.8
    },
    {
      "cityName": "Sarba",
      "lat": 11.0666667,
      "lng": -3.1
    },
    {
      "cityName": "Séguélé",
      "lat": 11.2333333,
      "lng": -2.85
    },
    {
      "cityName": "Simou",
      "lat": 11.0666667,
      "lng": -2.75
    },
    {
      "cityName": "Soriané",
      "lat": 11.0833333,
      "lng": -3.0333333
    },
    {
      "cityName": "Sorkon",
      "lat": 11.2333333,
      "lng": -3.0333333
    },
    {
      "cityName": "Sossoré",
      "lat": 11.2166667,
      "lng": -2.7
    },
    {
      "cityName": "Tamikpuéré",
      "lat": 11.1333333,
      "lng": -3
    },
    {
      "cityName": "Tangsié",
      "lat": 10.9166667,
      "lng": -2.9
    },
    {
      "cityName": "Tanloulé",
      "lat": 11.15,
      "lng": -3.15
    },
    {
      "cityName": "Tanpour",
      "lat": 11.2,
      "lng": -3.1333333
    },
    {
      "cityName": "Tiékon",
      "lat": 11.1833333,
      "lng": -2.8833333
    },
    {
      "cityName": "Toulpouo",
      "lat": 11.1333333,
      "lng": -2.8666667
    },
    {
      "cityName": "Wahablé",
      "lat": 11.3166667,
      "lng": -3.0666667
    },
    {
      "cityName": "Wizini",
      "lat": 10.9333333,
      "lng": -2.8666667
    },
    {
      "cityName": "Wizin Kpopéri",
      "lat": 10.95,
      "lng": -2.85
    },
    {
      "cityName": "Yéréfé",
      "lat": 11.3333333,
      "lng": -3.0333333
    },
    {
      "cityName": "Yô",
      "lat": 11.05,
      "lng": -3.05
    },
    {
      "cityName": "Zangboni",
      "lat": 11.3666667,
      "lng": -2.9333333
    },
    {
      "cityName": "Zintio",
      "lat": 11.3166667,
      "lng": -3.2
    },
    {
      "cityName": "Zodoum",
      "lat": 10.9833333,
      "lng": -3.0333333
    },
    {
      "cityName": "Zoner",
      "lat": 11.2166667,
      "lng": -2.8333333
    }
  ]
}