{
  "name": "Loroum",
  "cities": [
    {
      "cityName": "Andékanda",
      "lat": 13.9666667,
      "lng": -2.25
    },
    {
      "cityName": "Ansolma",
      "lat": 13.6833333,
      "lng": -2.1833333
    },
    {
      "cityName": "Badorio",
      "lat": 13.7666667,
      "lng": -2.1166667
    },
    {
      "cityName": "Bangala",
      "lat": 13.9333333,
      "lng": -2.2666667
    },
    {
      "cityName": "Barga",
      "lat": 13.7833333,
      "lng": -2.2666667
    },
    {
      "cityName": "Bouna",
      "lat": 13.7666667,
      "lng": -1.9666667
    },
    {
      "cityName": "Danèmbana",
      "lat": 13.9666667,
      "lng": -2.3333333
    },
    {
      "cityName": "Darguèné",
      "lat": 13.7166667,
      "lng": -2.05
    },
    {
      "cityName": "Derpon",
      "lat": 13.9333333,
      "lng": -2.0666667
    },
    {
      "cityName": "Dinguéla",
      "lat": 13.8666667,
      "lng": -2.2666667
    },
    {
      "cityName": "Dougouri",
      "lat": 13.7333333,
      "lng": -2.05
    },
    {
      "cityName": "Galanga",
      "lat": 13.8,
      "lng": -2.0666667
    },
    {
      "cityName": "Haloko",
      "lat": 13.7833333,
      "lng": -2.15
    },
    {
      "cityName": "Iliwatèna",
      "lat": 13.85,
      "lng": -2.0166667
    },
    {
      "cityName": "Illigué",
      "lat": 13.8333333,
      "lng": -2.2166667
    },
    {
      "cityName": "Ingané",
      "lat": 13.95,
      "lng": -2.2166667
    },
    {
      "cityName": "Kénéma",
      "lat": 13.9666667,
      "lng": -2.2
    },
    {
      "cityName": "Kilibo",
      "lat": 13.7333333,
      "lng": -2.1333333
    },
    {
      "cityName": "Kosso",
      "lat": 13.9833333,
      "lng": -2.3
    },
    {
      "cityName": "Koumbani",
      "lat": 13.7166667,
      "lng": -2.2333333
    },
    {
      "cityName": "Kouména",
      "lat": 13.6166667,
      "lng": -2
    },
    {
      "cityName": "Koumna",
      "lat": 13.6,
      "lng": -2.0666667
    },
    {
      "cityName": "Namassa",
      "lat": 13.6666667,
      "lng": -2.15
    },
    {
      "cityName": "Nogo",
      "lat": 13.85,
      "lng": -2.2
    },
    {
      "cityName": "Nomépouga",
      "lat": 13.6833333,
      "lng": -2.05
    },
    {
      "cityName": "Ouendigui",
      "lat": 13.6833333,
      "lng": -1.9666667
    },
    {
      "cityName": "Podébokou",
      "lat": 13.9166667,
      "lng": -2.0833333
    },
    {
      "cityName": "Poussougoubako",
      "lat": 13.9666667,
      "lng": -2.3166667
    },
    {
      "cityName": "Rambo",
      "lat": 13.6,
      "lng": -2.1166667
    },
    {
      "cityName": "Rimassa",
      "lat": 13.8,
      "lng": -2.0833333
    },
    {
      "cityName": "Samtaba",
      "lat": 13.6666667,
      "lng": -2.1333333
    },
    {
      "cityName": "Silia",
      "lat": 13.75,
      "lng": -2.1333333
    },
    {
      "cityName": "Silimi Mossi",
      "lat": 13.7833333,
      "lng": -2.0666667
    },
    {
      "cityName": "Sirfou",
      "lat": 13.75,
      "lng": -1.9
    },
    {
      "cityName": "Solobo",
      "lat": 13.8666667,
      "lng": -2.0666667
    },
    {
      "cityName": "Songotaba",
      "lat": 13.8333333,
      "lng": -1.9833333
    },
    {
      "cityName": "Tangabangoa",
      "lat": 13.9166667,
      "lng": -2.2833333
    },
    {
      "cityName": "Taoboullé",
      "lat": 13.7333333,
      "lng": -2.0666667
    },
    {
      "cityName": "Titao",
      "lat": 13.7666667,
      "lng": -2.0666667
    },
    {
      "cityName": "Todiame",
      "lat": 13.65,
      "lng": -2.1333333
    },
    {
      "cityName": "Tolo",
      "lat": 13.75,
      "lng": -1.9666667
    },
    {
      "cityName": "Toukouli",
      "lat": 13.6833333,
      "lng": -2.0833333
    },
    {
      "cityName": "Toulfé",
      "lat": 13.8833333,
      "lng": -1.95
    },
    {
      "cityName": "Wagaya",
      "lat": 13.6666667,
      "lng": -2.2166667
    },
    {
      "cityName": "Woindigui",
      "lat": 13.75,
      "lng": -2.0166667
    },
    {
      "cityName": "Woro",
      "lat": 13.8666667,
      "lng": -2.1166667
    },
    {
      "cityName": "Yalaga",
      "lat": 13.8666667,
      "lng": -2.25
    },
    {
      "cityName": "Yoada",
      "lat": 13.7333333,
      "lng": -2.1666667
    },
    {
      "cityName": "You",
      "lat": 13.7,
      "lng": -2.1333333
    },
    {
      "cityName": "Zougouma",
      "lat": 13.9166667,
      "lng": -2.25
    }
  ]
}