{
  "name": "Unnamed region 07",
  "cities": [
    {
      "cityName": "Alobiga",
      "lat": 11,
      "lng": -0.9166667
    },
    {
      "cityName": "Avogonia",
      "lat": 11,
      "lng": -1.1333333
    },
    {
      "cityName": "Badabiessan",
      "lat": 11.05,
      "lng": -0.9333333
    },
    {
      "cityName": "Badongo",
      "lat": 11.1833333,
      "lng": -0.9666667
    },
    {
      "cityName": "Bassan",
      "lat": 11.3,
      "lng": -1.4
    },
    {
      "cityName": "Bédari",
      "lat": 11.3,
      "lng": -1.2833333
    },
    {
      "cityName": "Bétaré",
      "lat": 11.4333333,
      "lng": -1.3666667
    },
    {
      "cityName": "Boalé",
      "lat": 11.4,
      "lng": -1.3666667
    },
    {
      "cityName": "Bola",
      "lat": 11.4,
      "lng": -1.4333333
    },
    {
      "cityName": "Boungou",
      "lat": 11.0333333,
      "lng": -0.8833333
    },
    {
      "cityName": "Bourou",
      "lat": 11.3,
      "lng": -1.2166667
    },
    {
      "cityName": "Coumbili",
      "lat": 11.2983333,
      "lng": -1.4483333
    },
    {
      "cityName": "Danlion",
      "lat": 11.1166667,
      "lng": -0.85
    },
    {
      "cityName": "Dongo",
      "lat": 11.2166667,
      "lng": -1.0166667
    },
    {
      "cityName": "Dounlia",
      "lat": 11.0666667,
      "lng": -1.0166667
    },
    {
      "cityName": "Garouendé",
      "lat": 10.9833333,
      "lng": -0.8833333
    },
    {
      "cityName": "Gonon",
      "lat": 11.0833333,
      "lng": -0.8833333
    },
    {
      "cityName": "Gougogo",
      "lat": 11.2,
      "lng": -1.0166667
    },
    {
      "cityName": "Guéléongo",
      "lat": 11.0094444,
      "lng": -0.8708333
    },
    {
      "cityName": "Guiaro",
      "lat": 11.3688889,
      "lng": -1.3772222
    },
    {
      "cityName": "Guien",
      "lat": 11,
      "lng": -0.8833333
    },
    {
      "cityName": "Ibomboue",
      "lat": 11.15,
      "lng": -0.9833333
    },
    {
      "cityName": "Joungo",
      "lat": 11.1105556,
      "lng": -1.0633333
    },
    {
      "cityName": "Kassola",
      "lat": 11.0666667,
      "lng": -0.9166667
    },
    {
      "cityName": "Kaya",
      "lat": 11.05,
      "lng": -1.0166667
    },
    {
      "cityName": "Kolo",
      "lat": 11.05,
      "lng": -0.9833333
    },
    {
      "cityName": "Kouliga",
      "lat": 11.25,
      "lng": -1.4666667
    },
    {
      "cityName": "Langouérou",
      "lat": 11.1833333,
      "lng": -1.05
    },
    {
      "cityName": "Maréniassam",
      "lat": 11.3833333,
      "lng": -1.3666667
    },
    {
      "cityName": "Nakoalo",
      "lat": 11.05,
      "lng": -1.0833333
    },
    {
      "cityName": "Nakola",
      "lat": 11.3833333,
      "lng": -1.4666667
    },
    {
      "cityName": "Naouri",
      "lat": 11.0666667,
      "lng": -1.1
    },
    {
      "cityName": "Nétaré",
      "lat": 11.1166667,
      "lng": -1.0833333
    },
    {
      "cityName": "Nongo",
      "lat": 11.0833333,
      "lng": -0.7666667
    },
    {
      "cityName": "Pounkougan",
      "lat": 11.2,
      "lng": -1.0666667
    },
    {
      "cityName": "Sakaro",
      "lat": 11.2833333,
      "lng": -1.4166667
    },
    {
      "cityName": "Saro",
      "lat": 11.2833333,
      "lng": -1.3333333
    },
    {
      "cityName": "Sia",
      "lat": 11.0166667,
      "lng": -1.2333333
    },
    {
      "cityName": "Tanbolo",
      "lat": 11.1,
      "lng": -1.1333333
    },
    {
      "cityName": "Tangassoko",
      "lat": 11.0166667,
      "lng": -0.9833333
    },
    {
      "cityName": "Tiébélé Corabie",
      "lat": 11.0972222,
      "lng": -0.9655556
    },
    {
      "cityName": "Tomabissi",
      "lat": 11,
      "lng": -0.8333333
    },
    {
      "cityName": "Waléme",
      "lat": 11.2166667,
      "lng": -1.3
    },
    {
      "cityName": "Yelbissi",
      "lat": 11,
      "lng": -0.7666667
    },
    {
      "cityName": "Yo",
      "lat": 11.25,
      "lng": -0.9666667
    },
    {
      "cityName": "Zécco",
      "lat": 11.0333333,
      "lng": -0.85
    },
    {
      "cityName": "Zélogo",
      "lat": 10.9666667,
      "lng": -0.8833333
    },
    {
      "cityName": "Ziégo",
      "lat": 11.0361111,
      "lng": -0.7791667
    },
    {
      "cityName": "Zon",
      "lat": 11.2833333,
      "lng": -1.4
    }
  ]
}