{
  "name": "Unnamed region 09",
  "cities": [
    {
      "cityName": "A Lou",
      "lat": 22.7166667,
      "lng": 103.5833333
    },
    {
      "cityName": "A Lou Pu La",
      "lat": 22.7333333,
      "lng": 103.6166667
    },
    {
      "cityName": "A Lou Ta Sai Keou",
      "lat": 22.7,
      "lng": 103.6
    },
    {
      "cityName": "A Mou",
      "lat": 22.7166667,
      "lng": 103.6333333
    },
    {
      "cityName": "A Nan",
      "lat": 22.4833333,
      "lng": 104.1666667
    },
    {
      "cityName": "A Yong",
      "lat": 22.4666667,
      "lng": 104.1166667
    },
    {
      "cityName": "Ba Bao",
      "lat": 21.7166667,
      "lng": 103.9
    },
    {
      "cityName": "Bac Ba",
      "lat": 22.1166667,
      "lng": 104.7666667
    },
    {
      "cityName": "Bac Cai",
      "lat": 22.3833333,
      "lng": 103.9666667
    },
    {
      "cityName": "Bac Cong",
      "lat": 22.3666667,
      "lng": 104
    },
    {
      "cityName": "Bac Ha",
      "lat": 22.55,
      "lng": 104.2666667
    },
    {
      "cityName": "Bach Ha",
      "lat": 21.8166667,
      "lng": 105.0666667
    },
    {
      "cityName": "Bac Ly",
      "lat": 22.0833333,
      "lng": 103.85
    },
    {
      "cityName": "Bac Mi",
      "lat": 22.35,
      "lng": 104.2166667
    },
    {
      "cityName": "Bac Quang",
      "lat": 21.8,
      "lng": 103.9166667
    },
    {
      "cityName": "Bac Quco",
      "lat": 22.4666667,
      "lng": 103.9666667
    },
    {
      "cityName": "Bac Ta",
      "lat": 22.4666667,
      "lng": 103.9833333
    },
    {
      "cityName": "Bac Van",
      "lat": 22.4833333,
      "lng": 103.9
    },
    {
      "cityName": "Ba Dao",
      "lat": 21.1166667,
      "lng": 104.8666667
    },
    {
      "cityName": "Bai Duong",
      "lat": 21.7333333,
      "lng": 104.85
    },
    {
      "cityName": "Bai Thuong",
      "lat": 22.2,
      "lng": 104.4
    },
    {
      "cityName": "Ba Khè",
      "lat": 21.5166667,
      "lng": 104.6833333
    },
    {
      "cityName": "Ban Ang",
      "lat": 21.3166667,
      "lng": 104.2166667
    },
    {
      "cityName": "Ban Ao",
      "lat": 22.6833333,
      "lng": 103.7833333
    },
    {
      "cityName": "Ban Bac",
      "lat": 22.3333333,
      "lng": 104.2166667
    },
    {
      "cityName": "Ban Bac Ban",
      "lat": 21.0666667,
      "lng": 104.6333333
    },
    {
      "cityName": "Ban Bam",
      "lat": 21.6833333,
      "lng": 104.6
    },
    {
      "cityName": "Ban Ban",
      "lat": 21.2833333,
      "lng": 104.7333333
    },
    {
      "cityName": "Ban Bang",
      "lat": 22.2166667,
      "lng": 104.6
    },
    {
      "cityName": "Ban Ba Ngoa",
      "lat": 21.1166667,
      "lng": 104.6666667
    },
    {
      "cityName": "Ban Ban Ngoai",
      "lat": 21.2666667,
      "lng": 104.6833333
    },
    {
      "cityName": "Ban Be",
      "lat": 21.2833333,
      "lng": 104.4166667
    },
    {
      "cityName": "Ban Bi",
      "lat": 21.8833333,
      "lng": 103.8166667
    },
    {
      "cityName": "Ban Bo",
      "lat": 21.4,
      "lng": 104.7666667
    },
    {
      "cityName": "Ban Bon",
      "lat": 21.6333333,
      "lng": 104.4833333
    },
    {
      "cityName": "Ban Bong Ngoi",
      "lat": 21.45,
      "lng": 104.55
    },
    {
      "cityName": "Ban Bua",
      "lat": 21.3333333,
      "lng": 104.2166667
    },
    {
      "cityName": "Ban Bua Trong",
      "lat": 21.1666667,
      "lng": 104.55
    },
    {
      "cityName": "Ban Bung Xom",
      "lat": 21.8,
      "lng": 104.2833333
    },
    {
      "cityName": "Ban Ca",
      "lat": 21.2833333,
      "lng": 104.75
    },
    {
      "cityName": "Ban Cai",
      "lat": 21.15,
      "lng": 104.75
    },
    {
      "cityName": "Ban Cam",
      "lat": 22.5166667,
      "lng": 104.0833333
    },
    {
      "cityName": "Ban Cang",
      "lat": 21.0666667,
      "lng": 104.5333333
    },
    {
      "cityName": "Ban Canh",
      "lat": 22.25,
      "lng": 104.6
    },
    {
      "cityName": "Ban Cao",
      "lat": 22.5166667,
      "lng": 104.1166667
    },
    {
      "cityName": "Ban Ca Tang",
      "lat": 21.45,
      "lng": 104.4333333
    },
    {
      "cityName": "Ban Chac",
      "lat": 21.8666667,
      "lng": 103.8166667
    },
    {
      "cityName": "Ban Chan",
      "lat": 21.2,
      "lng": 104.3666667
    },
    {
      "cityName": "Ban Chang",
      "lat": 22.3666667,
      "lng": 104.05
    },
    {
      "cityName": "Ban Chang Tau Vang",
      "lat": 21.3833333,
      "lng": 104.5
    },
    {
      "cityName": "Ban Chanh",
      "lat": 21.0833333,
      "lng": 104.7833333
    },
    {
      "cityName": "Ban Chan Vang",
      "lat": 21.45,
      "lng": 104.4666667
    },
    {
      "cityName": "Ban Chao",
      "lat": 21.8,
      "lng": 104.3166667
    },
    {
      "cityName": "Ban Cha Ta",
      "lat": 22.05,
      "lng": 103.7166667
    },
    {
      "cityName": "Ban Chen",
      "lat": 21.1833333,
      "lng": 104.2666667
    },
    {
      "cityName": "Ban Chiang",
      "lat": 22.6333333,
      "lng": 103.8
    },
    {
      "cityName": "Ban Chim",
      "lat": 21.1,
      "lng": 104.8666667
    },
    {
      "cityName": "Ban Chim Thuong",
      "lat": 21.2833333,
      "lng": 104.2666667
    },
    {
      "cityName": "Ban Chin",
      "lat": 22.3,
      "lng": 103.9666667
    },
    {
      "cityName": "Ban Chiu Ang",
      "lat": 21.7333333,
      "lng": 103.8666667
    },
    {
      "cityName": "Ban Cho",
      "lat": 21.2333333,
      "lng": 104.6333333
    },
    {
      "cityName": "Ban Chou Hon",
      "lat": 21.7,
      "lng": 104.2
    },
    {
      "cityName": "Ban Chua",
      "lat": 21.4833333,
      "lng": 104.8333333
    },
    {
      "cityName": "Ban Chu",
      "lat": 22.0166667,
      "lng": 104.15
    },
    {
      "cityName": "Ban Chung Ban",
      "lat": 21.8666667,
      "lng": 103.8666667
    },
    {
      "cityName": "Ban Cia",
      "lat": 22.6166667,
      "lng": 104.3833333
    },
    {
      "cityName": "Ban Coc",
      "lat": 21.0666667,
      "lng": 104.7666667
    },
    {
      "cityName": "Ban Coc Lua",
      "lat": 21.5833333,
      "lng": 104.6
    },
    {
      "cityName": "Ban Co Lot",
      "lat": 21.55,
      "lng": 104.5
    },
    {
      "cityName": "Ban Com",
      "lat": 21.8,
      "lng": 104.3
    },
    {
      "cityName": "Ban Cong Na",
      "lat": 21.6,
      "lng": 104.5166667
    },
    {
      "cityName": "Ban Cou",
      "lat": 21.55,
      "lng": 104.5333333
    },
    {
      "cityName": "Ban Cu",
      "lat": 21.25,
      "lng": 104.6666667
    },
    {
      "cityName": "Ban Da",
      "lat": 21.3833333,
      "lng": 104.7666667
    },
    {
      "cityName": "Ban Da Do",
      "lat": 21.1,
      "lng": 104.5666667
    },
    {
      "cityName": "Ban Dam",
      "lat": 22.1666667,
      "lng": 104.4
    },
    {
      "cityName": "Ban Day",
      "lat": 21.4666667,
      "lng": 104.8333333
    },
    {
      "cityName": "Ban Den",
      "lat": 21.1333333,
      "lng": 104.65
    },
    {
      "cityName": "Ban Dong",
      "lat": 21.2166667,
      "lng": 104.6333333
    },
    {
      "cityName": "Ban Dong Ngai Noi",
      "lat": 21.4666667,
      "lng": 104.5333333
    },
    {
      "cityName": "Ban Doun",
      "lat": 22.0166667,
      "lng": 103.8
    },
    {
      "cityName": "Ban Duei Lang",
      "lat": 21.7833333,
      "lng": 103.8166667
    },
    {
      "cityName": "Ban Dung",
      "lat": 21.2,
      "lng": 104.5
    },
    {
      "cityName": "Ban Dung Xa",
      "lat": 21.95,
      "lng": 104.8333333
    },
    {
      "cityName": "Ban Fa",
      "lat": 22,
      "lng": 103.7666667
    },
    {
      "cityName": "Ban Fan Hom",
      "lat": 21.8833333,
      "lng": 103.7333333
    },
    {
      "cityName": "Ban Fuong",
      "lat": 21.95,
      "lng": 103.8833333
    },
    {
      "cityName": "Ban Gang",
      "lat": 21.2666667,
      "lng": 104.6666667
    },
    {
      "cityName": "Ban Gay",
      "lat": 22.3833333,
      "lng": 104.4
    },
    {
      "cityName": "Bang Hong",
      "lat": 21.6666667,
      "lng": 104.0166667
    },
    {
      "cityName": "Ban Gian",
      "lat": 21.15,
      "lng": 104.6333333
    },
    {
      "cityName": "Ban Giang",
      "lat": 21.9833333,
      "lng": 103.9
    },
    {
      "cityName": "Ban Giem",
      "lat": 21.25,
      "lng": 104.65
    },
    {
      "cityName": "Ban Giong",
      "lat": 21.6666667,
      "lng": 104.4833333
    },
    {
      "cityName": "Ban Ham",
      "lat": 21.2,
      "lng": 104.6666667
    },
    {
      "cityName": "Ban Han",
      "lat": 21.8,
      "lng": 103.7
    },
    {
      "cityName": "Ban Han Do",
      "lat": 21.9166667,
      "lng": 103.8166667
    },
    {
      "cityName": "Ban Hanh",
      "lat": 22.1166667,
      "lng": 104.2166667
    },
    {
      "cityName": "Ban Hao",
      "lat": 21.95,
      "lng": 103.7
    },
    {
      "cityName": "Ban Hat",
      "lat": 21.4833333,
      "lng": 104.3666667
    },
    {
      "cityName": "Ban He",
      "lat": 21.8333333,
      "lng": 103.85
    },
    {
      "cityName": "Ban He Luang",
      "lat": 21.9666667,
      "lng": 103.9166667
    },
    {
      "cityName": "Ban He Noi",
      "lat": 21.9666667,
      "lng": 103.9
    },
    {
      "cityName": "Ban Heo",
      "lat": 21.65,
      "lng": 104.5
    },
    {
      "cityName": "Ban Hi",
      "lat": 21.2166667,
      "lng": 104.4666667
    },
    {
      "cityName": "Ban Hoa",
      "lat": 22.0833333,
      "lng": 104.1833333
    },
    {
      "cityName": "Ban Ho",
      "lat": 22.25,
      "lng": 103.95
    },
    {
      "cityName": "Ban Hoc",
      "lat": 21.6,
      "lng": 104.55
    },
    {
      "cityName": "Ban Hon",
      "lat": 21.75,
      "lng": 103.8333333
    },
    {
      "cityName": "Ban Hua Na",
      "lat": 21.1333333,
      "lng": 104.6666667
    },
    {
      "cityName": "Ban Hung",
      "lat": 22,
      "lng": 103.8166667
    },
    {
      "cityName": "Ban Huo Bu",
      "lat": 21.5833333,
      "lng": 104.65
    },
    {
      "cityName": "Ban Inh",
      "lat": 21.0666667,
      "lng": 104.7166667
    },
    {
      "cityName": "Ban Kai",
      "lat": 21.2166667,
      "lng": 104.3166667
    },
    {
      "cityName": "Ban Ken",
      "lat": 22,
      "lng": 104.1
    },
    {
      "cityName": "Ban Kep",
      "lat": 21.85,
      "lng": 103.8666667
    },
    {
      "cityName": "Ban Kha",
      "lat": 21.95,
      "lng": 103.7833333
    },
    {
      "cityName": "Ban Khai",
      "lat": 21.2333333,
      "lng": 104.3
    },
    {
      "cityName": "Ban Khan",
      "lat": 22.3166667,
      "lng": 104.0333333
    },
    {
      "cityName": "Ban Khem",
      "lat": 21.55,
      "lng": 104.5166667
    },
    {
      "cityName": "Ban Khi",
      "lat": 21.8833333,
      "lng": 103.7666667
    },
    {
      "cityName": "Ban Khim",
      "lat": 21.8166667,
      "lng": 103.8333333
    },
    {
      "cityName": "Ban Khoa",
      "lat": 21.1666667,
      "lng": 104.6333333
    },
    {
      "cityName": "Ban Khoai",
      "lat": 21.9333333,
      "lng": 103.8666667
    },
    {
      "cityName": "Ban Khoang",
      "lat": 21.9333333,
      "lng": 103.8
    },
    {
      "cityName": "Ban Khon",
      "lat": 21.6333333,
      "lng": 104.5333333
    },
    {
      "cityName": "Bàn Kiang",
      "lat": 22.5166667,
      "lng": 103.9
    },
    {
      "cityName": "Ban Kiang Sui Tao",
      "lat": 22.5166667,
      "lng": 103.8666667
    },
    {
      "cityName": "Ban Ki",
      "lat": 21.8666667,
      "lng": 103.7666667
    },
    {
      "cityName": "Ban Kiem",
      "lat": 21.9666667,
      "lng": 103.8833333
    },
    {
      "cityName": "Ban Kim",
      "lat": 22.3,
      "lng": 103.95
    },
    {
      "cityName": "Ban Kit",
      "lat": 21.9333333,
      "lng": 103.7666667
    },
    {
      "cityName": "Ban Koua Ban",
      "lat": 21.9666667,
      "lng": 103.8666667
    },
    {
      "cityName": "Ban Kung",
      "lat": 21.8,
      "lng": 103.8166667
    },
    {
      "cityName": "Ban La",
      "lat": 21.8166667,
      "lng": 103.8
    },
    {
      "cityName": "Ban Lac",
      "lat": 22.2833333,
      "lng": 103.9666667
    },
    {
      "cityName": "Ban Lah",
      "lat": 21.15,
      "lng": 104.65
    },
    {
      "cityName": "Ban Lak",
      "lat": 21.95,
      "lng": 103.9
    },
    {
      "cityName": "Ban Lam",
      "lat": 21.6666667,
      "lng": 104.5
    },
    {
      "cityName": "Ban Lang",
      "lat": 22.5166667,
      "lng": 103.8833333
    },
    {
      "cityName": "Ban Lang Cai",
      "lat": 21.9166667,
      "lng": 105.0166667
    },
    {
      "cityName": "Ban Lan Lang",
      "lat": 21.8166667,
      "lng": 104.35
    },
    {
      "cityName": "Ban Lao",
      "lat": 21.9833333,
      "lng": 103.8
    },
    {
      "cityName": "Ban Lao Xan",
      "lat": 21.3666667,
      "lng": 104.5333333
    },
    {
      "cityName": "Ban Lap",
      "lat": 21.9833333,
      "lng": 103.7666667
    },
    {
      "cityName": "Ban La Saut",
      "lat": 22.0333333,
      "lng": 103.9166667
    },
    {
      "cityName": "Ban Lau",
      "lat": 22.1,
      "lng": 103.8833333
    },
    {
      "cityName": "Ban Len Vang",
      "lat": 21.45,
      "lng": 104.5166667
    },
    {
      "cityName": "Ban Leu",
      "lat": 21.5833333,
      "lng": 104.5
    },
    {
      "cityName": "Ban Leun",
      "lat": 21.8333333,
      "lng": 103.8666667
    },
    {
      "cityName": "Ban Lien",
      "lat": 22.5166667,
      "lng": 104.4
    },
    {
      "cityName": "Ban Liu",
      "lat": 21.4333333,
      "lng": 104.4166667
    },
    {
      "cityName": "Ban Loi Quong",
      "lat": 21.95,
      "lng": 104.8166667
    },
    {
      "cityName": "Ban Lom",
      "lat": 21.1333333,
      "lng": 104.7
    },
    {
      "cityName": "Ban Long",
      "lat": 21.9333333,
      "lng": 103.7833333
    },
    {
      "cityName": "Ban Lot",
      "lat": 22.4833333,
      "lng": 104.1
    },
    {
      "cityName": "Ban Lu",
      "lat": 21.5333333,
      "lng": 104.5
    },
    {
      "cityName": "Ban Lum Phoi",
      "lat": 21.1,
      "lng": 104.6
    },
    {
      "cityName": "Ban Luong",
      "lat": 21.5333333,
      "lng": 104.5166667
    },
    {
      "cityName": "Ban Luot",
      "lat": 21.9,
      "lng": 103.8666667
    },
    {
      "cityName": "Ban Luu",
      "lat": 21.4333333,
      "lng": 104.3833333
    },
    {
      "cityName": "Ban Mac",
      "lat": 22.6833333,
      "lng": 103.75
    },
    {
      "cityName": "Ban Mang",
      "lat": 21.0833333,
      "lng": 104.7666667
    },
    {
      "cityName": "Ban Me",
      "lat": 21.8166667,
      "lng": 103.8166667
    },
    {
      "cityName": "Ban Meu",
      "lat": 21.75,
      "lng": 103.85
    },
    {
      "cityName": "Ban Mien Son",
      "lat": 21.4333333,
      "lng": 104.45
    },
    {
      "cityName": "Ban Mit",
      "lat": 22.0166667,
      "lng": 103.8333333
    },
    {
      "cityName": "Ban Mo Cai",
      "lat": 21.4833333,
      "lng": 104.4166667
    },
    {
      "cityName": "Ban Mon",
      "lat": 21.1333333,
      "lng": 104.45
    },
    {
      "cityName": "Ban Mua",
      "lat": 21.9666667,
      "lng": 103.7
    },
    {
      "cityName": "Ban Mu",
      "lat": 22.0166667,
      "lng": 104.05
    },
    {
      "cityName": "Ban Mung",
      "lat": 21.0833333,
      "lng": 104.6833333
    },
    {
      "cityName": "Ban Muoi",
      "lat": 21.75,
      "lng": 103.8833333
    },
    {
      "cityName": "Ban Na Ban",
      "lat": 21.85,
      "lng": 103.85
    },
    {
      "cityName": "Ban Nam Ai",
      "lat": 22.0666667,
      "lng": 103.65
    },
    {
      "cityName": "Ban Nam",
      "lat": 21.6166667,
      "lng": 104.55
    },
    {
      "cityName": "Ban Nam Cha",
      "lat": 22.1666667,
      "lng": 103.65
    },
    {
      "cityName": "Ban Nam Giang",
      "lat": 21.3666667,
      "lng": 104.4666667
    },
    {
      "cityName": "Ban Nam Kham",
      "lat": 21.9833333,
      "lng": 103.6833333
    },
    {
      "cityName": "Ban Nam Liu",
      "lat": 22.0833333,
      "lng": 103.5833333
    },
    {
      "cityName": "Ban Nam Ngo",
      "lat": 21.8333333,
      "lng": 103.75
    },
    {
      "cityName": "Ban Nam Say",
      "lat": 21.9833333,
      "lng": 104.0666667
    },
    {
      "cityName": "Ban Nam So",
      "lat": 22.05,
      "lng": 103.6
    },
    {
      "cityName": "Ban Nan",
      "lat": 22.05,
      "lng": 104.2333333
    },
    {
      "cityName": "Ban Nang Phai",
      "lat": 21.5333333,
      "lng": 104.4833333
    },
    {
      "cityName": "Ban Na Quang",
      "lat": 21.15,
      "lng": 104.6666667
    },
    {
      "cityName": "Ban Na Tai",
      "lat": 21.5666667,
      "lng": 104.4666667
    },
    {
      "cityName": "Ban Na Tieu",
      "lat": 21.5833333,
      "lng": 104.4666667
    },
    {
      "cityName": "Ban Nghe",
      "lat": 22.1333333,
      "lng": 104.75
    },
    {
      "cityName": "Ban Ngo",
      "lat": 22.4833333,
      "lng": 104.3
    },
    {
      "cityName": "Ban Nhu",
      "lat": 21.4833333,
      "lng": 104.8
    },
    {
      "cityName": "Ban Nhun",
      "lat": 22.2666667,
      "lng": 104.15
    },
    {
      "cityName": "Ban Nom",
      "lat": 21.7,
      "lng": 103.8666667
    },
    {
      "cityName": "Ban Nudo Chieu",
      "lat": 21.3333333,
      "lng": 104.7
    },
    {
      "cityName": "Ban O",
      "lat": 21.6166667,
      "lng": 104.5333333
    },
    {
      "cityName": "Ban Om",
      "lat": 21.0833333,
      "lng": 104.85
    },
    {
      "cityName": "Ban Ong",
      "lat": 21.9666667,
      "lng": 103.7666667
    },
    {
      "cityName": "Ban Ouan",
      "lat": 22,
      "lng": 103.8333333
    },
    {
      "cityName": "Ban Ouei Hoa",
      "lat": 21.6833333,
      "lng": 103.8666667
    },
    {
      "cityName": "Ban Oum",
      "lat": 21.2833333,
      "lng": 104.6833333
    },
    {
      "cityName": "Ban Pa",
      "lat": 22.7,
      "lng": 103.7
    },
    {
      "cityName": "Ban Pac Nhi",
      "lat": 21.5666667,
      "lng": 104.5833333
    },
    {
      "cityName": "Ban Pa Nga",
      "lat": 21.3166667,
      "lng": 104.2
    },
    {
      "cityName": "Ban Pang",
      "lat": 22.0333333,
      "lng": 103.7666667
    },
    {
      "cityName": "Ban Pap",
      "lat": 21.2166667,
      "lng": 104.75
    },
    {
      "cityName": "Ban Pa Soui Tau",
      "lat": 22.6666667,
      "lng": 103.6833333
    },
    {
      "cityName": "Ban Pa Tao",
      "lat": 21.8666667,
      "lng": 103.7333333
    },
    {
      "cityName": "Ban Pat",
      "lat": 21.9333333,
      "lng": 103.7333333
    },
    {
      "cityName": "Ban Pen",
      "lat": 21.6166667,
      "lng": 104.5
    },
    {
      "cityName": "Ban Pe Ngoai",
      "lat": 21.2,
      "lng": 104.3833333
    },
    {
      "cityName": "Ban Peo",
      "lat": 21.1166667,
      "lng": 104.6833333
    },
    {
      "cityName": "Ban Pe Trong",
      "lat": 21.2166667,
      "lng": 104.3833333
    },
    {
      "cityName": "Ban Phai",
      "lat": 21.8166667,
      "lng": 103.8666667
    },
    {
      "cityName": "Ban Phan Tua",
      "lat": 21.6166667,
      "lng": 104.5166667
    },
    {
      "cityName": "Ban Phau",
      "lat": 21.75,
      "lng": 103.8666667
    },
    {
      "cityName": "Ban Phay",
      "lat": 21.6333333,
      "lng": 104.5
    },
    {
      "cityName": "Ban Phay Dieng",
      "lat": 21.75,
      "lng": 103.9166667
    },
    {
      "cityName": "Ban Phiec",
      "lat": 22.5333333,
      "lng": 104.0333333
    },
    {
      "cityName": "Ban Phinh Ho",
      "lat": 21.9333333,
      "lng": 104.15
    },
    {
      "cityName": "Ban Phu Ly Chay",
      "lat": 21.95,
      "lng": 104.15
    },
    {
      "cityName": "Ban Po",
      "lat": 21.9666667,
      "lng": 103.85
    },
    {
      "cityName": "Ban Poum Vay",
      "lat": 21.5,
      "lng": 104.3833333
    },
    {
      "cityName": "Ban Pua",
      "lat": 21.5833333,
      "lng": 104.5166667
    },
    {
      "cityName": "Ban Qua",
      "lat": 22.55,
      "lng": 103.8666667
    },
    {
      "cityName": "Ban Quang",
      "lat": 21.4833333,
      "lng": 104.35
    },
    {
      "cityName": "Ban Quan Thôn",
      "lat": 22.0166667,
      "lng": 104.5
    },
    {
      "cityName": "Ban Que",
      "lat": 21.4166667,
      "lng": 104.45
    },
    {
      "cityName": "Ban Quong",
      "lat": 22.5166667,
      "lng": 103.9166667
    },
    {
      "cityName": "Ban Sa",
      "lat": 22.3,
      "lng": 103.9833333
    },
    {
      "cityName": "Ban Sang",
      "lat": 21.7333333,
      "lng": 103.85
    },
    {
      "cityName": "Bán Sat",
      "lat": 21.95,
      "lng": 104.85
    },
    {
      "cityName": "Ban Sen Coc",
      "lat": 21.6,
      "lng": 104.45
    },
    {
      "cityName": "Ban Si Tang",
      "lat": 21.4333333,
      "lng": 104.4333333
    },
    {
      "cityName": "Ban Si Teng",
      "lat": 21.4666667,
      "lng": 104.55
    },
    {
      "cityName": "Ban Soi Peng",
      "lat": 21.7166667,
      "lng": 104.5333333
    },
    {
      "cityName": "Ban Son",
      "lat": 22.5666667,
      "lng": 104.0833333
    },
    {
      "cityName": "Ban Song",
      "lat": 21.95,
      "lng": 103.7666667
    },
    {
      "cityName": "Ban Song Xan",
      "lat": 21.5833333,
      "lng": 104.4333333
    },
    {
      "cityName": "Ban Song Xi",
      "lat": 21.5666667,
      "lng": 104.4333333
    },
    {
      "cityName": "Ban Soui Boue",
      "lat": 21.1,
      "lng": 104.7333333
    },
    {
      "cityName": "Ban Sung",
      "lat": 22.05,
      "lng": 104.2666667
    },
    {
      "cityName": "Ban Suoi Banne",
      "lat": 21.05,
      "lng": 104.6666667
    },
    {
      "cityName": "Ban Suoi",
      "lat": 21.1,
      "lng": 104.7
    },
    {
      "cityName": "Ban Suoi Boi",
      "lat": 21.1333333,
      "lng": 104.55
    },
    {
      "cityName": "Ban Suoi Boi Thuong",
      "lat": 21.1166667,
      "lng": 104.5166667
    },
    {
      "cityName": "Ban Suoi Cai",
      "lat": 21.6333333,
      "lng": 104.4666667
    },
    {
      "cityName": "Ban Suoi Chang",
      "lat": 21.7,
      "lng": 104.55
    },
    {
      "cityName": "Ban Suoi Co",
      "lat": 21.65,
      "lng": 104.55
    },
    {
      "cityName": "Ban Suoi Coi",
      "lat": 21.0833333,
      "lng": 104.6333333
    },
    {
      "cityName": "Ban Suoi Da",
      "lat": 21.1333333,
      "lng": 104.5
    },
    {
      "cityName": "Ban Suoi Dame",
      "lat": 21.1,
      "lng": 104.6833333
    },
    {
      "cityName": "Ban Suoi Dan",
      "lat": 21.1166667,
      "lng": 104.7833333
    },
    {
      "cityName": "Ban Suoi Ga",
      "lat": 21.15,
      "lng": 104.85
    },
    {
      "cityName": "Ban Suoi Giang",
      "lat": 21.6166667,
      "lng": 104.6
    },
    {
      "cityName": "Ban Suoi Hang",
      "lat": 21.2,
      "lng": 104.8166667
    },
    {
      "cityName": "Ban Suoi Kim",
      "lat": 21.7166667,
      "lng": 104.55
    },
    {
      "cityName": "Ban Suoi Lam",
      "lat": 21.7166667,
      "lng": 104.5
    },
    {
      "cityName": "Ban Suoi Lao",
      "lat": 21.1166667,
      "lng": 104.8333333
    },
    {
      "cityName": "Ban Suoi Liem",
      "lat": 21.1,
      "lng": 104.5833333
    },
    {
      "cityName": "Ban Suoi Lo",
      "lat": 21.7,
      "lng": 104.5
    },
    {
      "cityName": "Ban Suoi Ma",
      "lat": 21.6833333,
      "lng": 104.5166667
    },
    {
      "cityName": "Ban Suoi Man",
      "lat": 21.1166667,
      "lng": 104.8833333
    },
    {
      "cityName": "Ban Suoi Muome",
      "lat": 21.1666667,
      "lng": 104.7333333
    },
    {
      "cityName": "Ban Suoi Muon",
      "lat": 21.0666667,
      "lng": 104.65
    },
    {
      "cityName": "Ban Suoi Ngon",
      "lat": 21.1333333,
      "lng": 104.5166667
    },
    {
      "cityName": "Ban Suoi Pong",
      "lat": 21.0833333,
      "lng": 104.7166667
    },
    {
      "cityName": "Ban Suoi Tham",
      "lat": 21.15,
      "lng": 104.7833333
    },
    {
      "cityName": "Ban Suoi Tiom",
      "lat": 21.15,
      "lng": 104.7666667
    },
    {
      "cityName": "Ban Suoi Yong",
      "lat": 21.7333333,
      "lng": 104.5833333
    },
    {
      "cityName": "Ban Taay Ha",
      "lat": 21.3333333,
      "lng": 104.6833333
    },
    {
      "cityName": "Ban Ta Lo",
      "lat": 22.0333333,
      "lng": 103.7333333
    },
    {
      "cityName": "Ban Tam",
      "lat": 22.7,
      "lng": 103.7166667
    },
    {
      "cityName": "Ban Tam Peo",
      "lat": 21.1333333,
      "lng": 104.5333333
    },
    {
      "cityName": "Ban Ta Qua",
      "lat": 22.0166667,
      "lng": 104.3333333
    },
    {
      "cityName": "Ban Ta Se",
      "lat": 21.5,
      "lng": 104.4166667
    },
    {
      "cityName": "Ban Tat",
      "lat": 21.7666667,
      "lng": 104.5166667
    },
    {
      "cityName": "Ban Téo",
      "lat": 21.05,
      "lng": 104.6
    },
    {
      "cityName": "Ban Tham",
      "lat": 21.4333333,
      "lng": 104.7833333
    },
    {
      "cityName": "Ban Thao",
      "lat": 22.1166667,
      "lng": 103.8833333
    },
    {
      "cityName": "Ban Thau",
      "lat": 22.2833333,
      "lng": 104.5833333
    },
    {
      "cityName": "Ban Thay Thuong",
      "lat": 21.3166667,
      "lng": 104.6833333
    },
    {
      "cityName": "Ban The Xang",
      "lat": 21.7666667,
      "lng": 104.25
    },
    {
      "cityName": "Ban Thu",
      "lat": 22.05,
      "lng": 104.0166667
    },
    {
      "cityName": "Ban Thuong",
      "lat": 22.3666667,
      "lng": 104.0166667
    },
    {
      "cityName": "Ban Tian Seng",
      "lat": 21.9,
      "lng": 103.75
    },
    {
      "cityName": "Ban Tieng",
      "lat": 21.0666667,
      "lng": 104.7833333
    },
    {
      "cityName": "Ban Tioum",
      "lat": 21.1333333,
      "lng": 104.8
    },
    {
      "cityName": "Ban To Giao",
      "lat": 22.0333333,
      "lng": 104.0166667
    },
    {
      "cityName": "Ban To Ha",
      "lat": 21.25,
      "lng": 104.6333333
    },
    {
      "cityName": "Ban Tong",
      "lat": 21.8166667,
      "lng": 104.2833333
    },
    {
      "cityName": "Ban Tong Cang",
      "lat": 21.5833333,
      "lng": 104.55
    },
    {
      "cityName": "Ban Tong Duon",
      "lat": 21.5666667,
      "lng": 104.5333333
    },
    {
      "cityName": "Ban Tong Ma",
      "lat": 21.0833333,
      "lng": 104.7
    },
    {
      "cityName": "Ban Toun",
      "lat": 22.0833333,
      "lng": 103.8666667
    },
    {
      "cityName": "Ban Va",
      "lat": 21.7333333,
      "lng": 103.95
    },
    {
      "cityName": "Ban Vai",
      "lat": 22.5333333,
      "lng": 103.8666667
    },
    {
      "cityName": "Ban Vam",
      "lat": 21.4,
      "lng": 104.7833333
    },
    {
      "cityName": "Ban Van",
      "lat": 21.25,
      "lng": 104.2666667
    },
    {
      "cityName": "Ban Ven",
      "lat": 22.55,
      "lng": 103.85
    },
    {
      "cityName": "Ban Vien",
      "lat": 22.5666667,
      "lng": 103.85
    },
    {
      "cityName": "Ban Vien Soui Tao",
      "lat": 22.5666667,
      "lng": 103.8333333
    },
    {
      "cityName": "Ban Vuoc",
      "lat": 22.6,
      "lng": 103.8166667
    },
    {
      "cityName": "Ban Xa",
      "lat": 21.1666667,
      "lng": 104.5
    },
    {
      "cityName": "Ban Xa Binh",
      "lat": 21.4166667,
      "lng": 104.5
    },
    {
      "cityName": "Ban Xan Thai",
      "lat": 21.7833333,
      "lng": 104.2833333
    },
    {
      "cityName": "Ban Xao",
      "lat": 21.9833333,
      "lng": 103.8166667
    },
    {
      "cityName": "Ban Xeo",
      "lat": 22.5333333,
      "lng": 103.7333333
    },
    {
      "cityName": "Ban Xo",
      "lat": 22,
      "lng": 103.7
    },
    {
      "cityName": "Ban Yang Meo",
      "lat": 22.55,
      "lng": 103.7833333
    },
    {
      "cityName": "Ban Yang Suoi Tao",
      "lat": 22.5333333,
      "lng": 103.7833333
    },
    {
      "cityName": "Ban Yan Tcha",
      "lat": 22.5666667,
      "lng": 103.8666667
    },
    {
      "cityName": "Ban Yen",
      "lat": 22.2666667,
      "lng": 103.9666667
    },
    {
      "cityName": "Bao Ha",
      "lat": 22.1833333,
      "lng": 104.35
    },
    {
      "cityName": "Bao It",
      "lat": 22.55,
      "lng": 103.8166667
    },
    {
      "cityName": "Bao Ngay",
      "lat": 22.4166667,
      "lng": 104.2666667
    },
    {
      "cityName": "Bao Thang",
      "lat": 22.4166667,
      "lng": 104.1833333
    },
    {
      "cityName": "Bao Yen",
      "lat": 22.2333333,
      "lng": 104.4833333
    },
    {
      "cityName": "Ba Tsiao Pin",
      "lat": 22.5,
      "lng": 103.7666667
    },
    {
      "cityName": "Beng Muong",
      "lat": 21.4833333,
      "lng": 104.7166667
    },
    {
      "cityName": "Ben Ho",
      "lat": 22.0833333,
      "lng": 103.75
    },
    {
      "cityName": "Bihn Hà",
      "lat": 22.1166667,
      "lng": 103.65
    },
    {
      "cityName": "Binh Luc",
      "lat": 21.6666667,
      "lng": 104.9333333
    },
    {
      "cityName": "Bo Chu",
      "lat": 21.7333333,
      "lng": 103.9
    },
    {
      "cityName": "Bó Ðái",
      "lat": 21.7166667,
      "lng": 104.7666667
    },
    {
      "cityName": "Bo Khy",
      "lat": 21.05,
      "lng": 104.85
    },
    {
      "cityName": "Bò Lây",
      "lat": 22.3833333,
      "lng": 103.9833333
    },
    {
      "cityName": "Bo Lun",
      "lat": 22.0833333,
      "lng": 103.8333333
    },
    {
      "cityName": "Bôn Di",
      "lat": 22.05,
      "lng": 103.9
    },
    {
      "cityName": "Bo Siêng",
      "lat": 21.7,
      "lng": 104.4833333
    },
    {
      "cityName": "Bue Lan",
      "lat": 22.05,
      "lng": 103.85
    },
    {
      "cityName": "Bu Mon",
      "lat": 21.8,
      "lng": 103.8833333
    },
    {
      "cityName": "Bun Thuong",
      "lat": 22.2,
      "lng": 104.4166667
    },
    {
      "cityName": "Cac My",
      "lat": 22.5,
      "lng": 103.9
    },
    {
      "cityName": "Cai Tiao",
      "lat": 21.1166667,
      "lng": 104.85
    },
    {
      "cityName": "Cam An",
      "lat": 21.9,
      "lng": 104.8666667
    },
    {
      "cityName": "Câm Kìa",
      "lat": 22.0666667,
      "lng": 104.6833333
    },
    {
      "cityName": "Cam La",
      "lat": 21.7666667,
      "lng": 105
    },
    {
      "cityName": "Cam Nhan",
      "lat": 21.9666667,
      "lng": 104.9666667
    },
    {
      "cityName": "Cam Sá Phó",
      "lat": 22.45,
      "lng": 104
    },
    {
      "cityName": "Can Ho",
      "lat": 22.3833333,
      "lng": 103.8
    },
    {
      "cityName": "Can Ho Man",
      "lat": 22.4,
      "lng": 103.7833333
    },
    {
      "cityName": "Cánh Tiên",
      "lat": 21.7166667,
      "lng": 104.65
    },
    {
      "cityName": "Can Loc",
      "lat": 21.5833333,
      "lng": 104.7833333
    },
    {
      "cityName": "Can Ti",
      "lat": 22.5166667,
      "lng": 103.75
    },
    {
      "cityName": "Cao Mou",
      "lat": 22.1166667,
      "lng": 104.2
    },
    {
      "cityName": "Cao Phao",
      "lat": 21.7,
      "lng": 104.85
    },
    {
      "cityName": "Cap Ka",
      "lat": 22.3333333,
      "lng": 104.05
    },
    {
      "cityName": "Cap Na",
      "lat": 21.8166667,
      "lng": 103.7166667
    },
    {
      "cityName": "Càu Tao",
      "lat": 21.6833333,
      "lng": 104.5833333
    },
    {
      "cityName": "Ca Vinh",
      "lat": 21.5833333,
      "lng": 104.7166667
    },
    {
      "cityName": "Cây Giâu",
      "lat": 21.8,
      "lng": 104.8166667
    },
    {
      "cityName": "Cây Mit",
      "lat": 21.8666667,
      "lng": 104.5833333
    },
    {
      "cityName": "Cay So",
      "lat": 21.7666667,
      "lng": 104.8833333
    },
    {
      "cityName": "Cây Th",
      "lat": 21.7833333,
      "lng": 104.8
    },
    {
      "cityName": "Chai Man",
      "lat": 22.2666667,
      "lng": 103.9
    },
    {
      "cityName": "Chai Meo",
      "lat": 22.2833333,
      "lng": 103.9
    },
    {
      "cityName": "Chà Khui",
      "lat": 21.8,
      "lng": 104.6
    },
    {
      "cityName": "Cham Ka",
      "lat": 22.1833333,
      "lng": 103.75
    },
    {
      "cityName": "Cham Ta Lao",
      "lat": 21.5,
      "lng": 104.4333333
    },
    {
      "cityName": "Chang Man Ten",
      "lat": 22.6833333,
      "lng": 104.2666667
    },
    {
      "cityName": "Chang My",
      "lat": 21.75,
      "lng": 104.8833333
    },
    {
      "cityName": "Chan Ma Tchao",
      "lat": 22.55,
      "lng": 103.6666667
    },
    {
      "cityName": "Chan San Loung",
      "lat": 22.5666667,
      "lng": 103.7666667
    },
    {
      "cityName": "Chan Tchan",
      "lat": 22.35,
      "lng": 103.8833333
    },
    {
      "cityName": "Chao Chai",
      "lat": 21.7833333,
      "lng": 103.9166667
    },
    {
      "cityName": "Chapa Bas",
      "lat": 22.35,
      "lng": 103.8666667
    },
    {
      "cityName": "Cha Pai",
      "lat": 22.35,
      "lng": 103.85
    },
    {
      "cityName": "Cháu Ná",
      "lat": 22.5333333,
      "lng": 103.7666667
    },
    {
      "cityName": "Chau Que",
      "lat": 22.1666667,
      "lng": 104.3333333
    },
    {
      "cityName": "Chay Hi Ho",
      "lat": 21.85,
      "lng": 103.95
    },
    {
      "cityName": "Cheu Luong",
      "lat": 22.0833333,
      "lng": 103.7333333
    },
    {
      "cityName": "Chieng",
      "lat": 22.4166667,
      "lng": 104.0166667
    },
    {
      "cityName": "Chiêng Công",
      "lat": 21.5666667,
      "lng": 104.5166667
    },
    {
      "cityName": "Chin Chou Ping",
      "lat": 22.6166667,
      "lng": 104.2333333
    },
    {
      "cityName": "Chin Chu Lin",
      "lat": 22.6833333,
      "lng": 103.5833333
    },
    {
      "cityName": "Chin Tso",
      "lat": 22.5666667,
      "lng": 103.7
    },
    {
      "cityName": "Chom Chang",
      "lat": 22.15,
      "lng": 103.7666667
    },
    {
      "cityName": "Cho Minh Chay",
      "lat": 21.8333333,
      "lng": 104.0333333
    },
    {
      "cityName": "Cho Moi",
      "lat": 22.4833333,
      "lng": 103.9833333
    },
    {
      "cityName": "Cho Ngoc",
      "lat": 21.9166667,
      "lng": 104.9166667
    },
    {
      "cityName": "Chouei Teou",
      "lat": 11.7833333,
      "lng": 104.2166667
    },
    {
      "cityName": "Chu Cheng Phong",
      "lat": 21.8833333,
      "lng": 103.9166667
    },
    {
      "cityName": "Chu Kang Ho",
      "lat": 22.4333333,
      "lng": 103.9166667
    },
    {
      "cityName": "Chu Lìn",
      "lat": 22.3666667,
      "lng": 103.8833333
    },
    {
      "cityName": "Chu Tin Van",
      "lat": 21.7333333,
      "lng": 104.2333333
    },
    {
      "cityName": "Ciu Tu Fang",
      "lat": 22.6333333,
      "lng": 104.1
    },
    {
      "cityName": "Co Bac",
      "lat": 21.7166667,
      "lng": 104.4833333
    },
    {
      "cityName": "Coc Bang",
      "lat": 21.55,
      "lng": 104.65
    },
    {
      "cityName": "Côc Bào",
      "lat": 22.1333333,
      "lng": 104.35
    },
    {
      "cityName": "Coc Diep",
      "lat": 22.3333333,
      "lng": 104.4833333
    },
    {
      "cityName": "Coc Fang",
      "lat": 22.6166667,
      "lng": 104.0166667
    },
    {
      "cityName": "Coc Leu",
      "lat": 22.5,
      "lng": 103.9666667
    },
    {
      "cityName": "Coc Ly",
      "lat": 22.5166667,
      "lng": 104.1833333
    },
    {
      "cityName": "Coc Mi",
      "lat": 22.3666667,
      "lng": 104.2
    },
    {
      "cityName": "Coc My Sou Tao",
      "lat": 22.65,
      "lng": 103.7666667
    },
    {
      "cityName": "Coc Noc",
      "lat": 22.6166667,
      "lng": 104.05
    },
    {
      "cityName": "Coc Pouc",
      "lat": 22.3333333,
      "lng": 104.2333333
    },
    {
      "cityName": "Côc Sa",
      "lat": 22.5166667,
      "lng": 103.9333333
    },
    {
      "cityName": "Cóc Sâm",
      "lat": 21.95,
      "lng": 104.7666667
    },
    {
      "cityName": "Coc San",
      "lat": 22.45,
      "lng": 103.9333333
    },
    {
      "cityName": "Coc Tang",
      "lat": 22.3666667,
      "lng": 104.25
    },
    {
      "cityName": "Coc Toum",
      "lat": 22.4,
      "lng": 104.2
    },
    {
      "cityName": "Coc Xan",
      "lat": 22.4666667,
      "lng": 103.9333333
    },
    {
      "cityName": "Co Ge Phong",
      "lat": 21.75,
      "lng": 104.1833333
    },
    {
      "cityName": "Co Gi San",
      "lat": 21.8166667,
      "lng": 104.2166667
    },
    {
      "cityName": "Cò Híb",
      "lat": 22.2,
      "lng": 104.6333333
    },
    {
      "cityName": "Com Mao",
      "lat": 22.7333333,
      "lng": 104.1833333
    },
    {
      "cityName": "Con Bo",
      "lat": 21.5833333,
      "lng": 104.75
    },
    {
      "cityName": "Con Sum",
      "lat": 21.9166667,
      "lng": 103.9166667
    },
    {
      "cityName": "Co Si Pan",
      "lat": 21.2666667,
      "lng": 104.3833333
    },
    {
      "cityName": "Co Van",
      "lat": 22.1333333,
      "lng": 104.8333333
    },
    {
      "cityName": "Cua Ngai",
      "lat": 21.85,
      "lng": 104.9833333
    },
    {
      "cityName": "Cua Ngoi",
      "lat": 21.75,
      "lng": 104.8
    },
    {
      "cityName": "Cum Ha",
      "lat": 22.5,
      "lng": 103.9333333
    },
    {
      "cityName": "Cun Ciang",
      "lat": 22.2333333,
      "lng": 104.7166667
    },
    {
      "cityName": "Ðá Cay",
      "lat": 21.8,
      "lng": 104.9666667
    },
    {
      "cityName": "Ðá Chàng",
      "lat": 21.8833333,
      "lng": 104.5333333
    },
    {
      "cityName": "Da Chang",
      "lat": 21.9333333,
      "lng": 104.55
    },
    {
      "cityName": "Da Dinh",
      "lat": 22.4166667,
      "lng": 103.95
    },
    {
      "cityName": "Ðai Ban",
      "lat": 21.7666667,
      "lng": 104.8333333
    },
    {
      "cityName": "Dai Buc",
      "lat": 21.8666667,
      "lng": 104.6333333
    },
    {
      "cityName": "Dai Phac",
      "lat": 21.8333333,
      "lng": 104.65
    },
    {
      "cityName": "Dá Mài",
      "lat": 21.85,
      "lng": 104.7
    },
    {
      "cityName": "Da May",
      "lat": 21.05,
      "lng": 104.7666667
    },
    {
      "cityName": "Dam Phung",
      "lat": 21.7666667,
      "lng": 104.85
    },
    {
      "cityName": "Dang Danh",
      "lat": 21.9666667,
      "lng": 104.5666667
    },
    {
      "cityName": "Dang Dinh",
      "lat": 21.7833333,
      "lng": 104.7666667
    },
    {
      "cityName": "Ðào Lâm",
      "lat": 22.1,
      "lng": 104.7333333
    },
    {
      "cityName": "Da Trang",
      "lat": 21.7833333,
      "lng": 105.0333333
    },
    {
      "cityName": "Dau Dong",
      "lat": 22.0166667,
      "lng": 104.8666667
    },
    {
      "cityName": "Den Thang",
      "lat": 22.2,
      "lng": 103.9
    },
    {
      "cityName": "Ðiên Quan",
      "lat": 22.3,
      "lng": 104.4333333
    },
    {
      "cityName": "Ðoi Hoi",
      "lat": 21.8666667,
      "lng": 104.8833333
    },
    {
      "cityName": "Doi Muong",
      "lat": 21.1333333,
      "lng": 104.85
    },
    {
      "cityName": "Dong Banh",
      "lat": 22.1,
      "lng": 104.7666667
    },
    {
      "cityName": "Dong Bon",
      "lat": 21.7833333,
      "lng": 104.8666667
    },
    {
      "cityName": "Dong Cam",
      "lat": 22.5666667,
      "lng": 103.8166667
    },
    {
      "cityName": "Dong Cang",
      "lat": 21.95,
      "lng": 104.9666667
    },
    {
      "cityName": "Dong Chiem",
      "lat": 21.75,
      "lng": 104.9166667
    },
    {
      "cityName": "Dong Cho",
      "lat": 21.75,
      "lng": 104.8666667
    },
    {
      "cityName": "Dong Cuong",
      "lat": 21.95,
      "lng": 104.6166667
    },
    {
      "cityName": "Dong Dam",
      "lat": 21.8,
      "lng": 104.7666667
    },
    {
      "cityName": "Dong Dao",
      "lat": 21.7833333,
      "lng": 104.9166667
    },
    {
      "cityName": "Dong Dat",
      "lat": 21.5,
      "lng": 104.8333333
    },
    {
      "cityName": "Dong Ho",
      "lat": 22.4166667,
      "lng": 103.9666667
    },
    {
      "cityName": "Ðôn Giáo",
      "lat": 21.8,
      "lng": 104.7166667
    },
    {
      "cityName": "Ðông Kê",
      "lat": 21.9166667,
      "lng": 104.7833333
    },
    {
      "cityName": "Dong Ke",
      "lat": 21.9333333,
      "lng": 104.9333333
    },
    {
      "cityName": "Dong Khai",
      "lat": 21.95,
      "lng": 104.6333333
    },
    {
      "cityName": "Dong Lam",
      "lat": 21.75,
      "lng": 105.0666667
    },
    {
      "cityName": "Ðông Lang",
      "lat": 21.9333333,
      "lng": 104.85
    },
    {
      "cityName": "Dong Ly",
      "lat": 21.7666667,
      "lng": 104.9666667
    },
    {
      "cityName": "Dong Men",
      "lat": 21.65,
      "lng": 104.85
    },
    {
      "cityName": "Dong Phan",
      "lat": 22.55,
      "lng": 103.9
    },
    {
      "cityName": "Dong Quan",
      "lat": 22.0833333,
      "lng": 104.65
    },
    {
      "cityName": "Ðông Song",
      "lat": 21.65,
      "lng": 104.75
    },
    {
      "cityName": "Dong Thap",
      "lat": 21.7666667,
      "lng": 104.7
    },
    {
      "cityName": "Dong Tranh",
      "lat": 21.8333333,
      "lng": 104.9666667
    },
    {
      "cityName": "Ðông Tung",
      "lat": 22,
      "lng": 104.8666667
    },
    {
      "cityName": "Dong Vai",
      "lat": 21.9166667,
      "lng": 104.6666667
    },
    {
      "cityName": "Duc Ky",
      "lat": 21.7,
      "lng": 105.0166667
    },
    {
      "cityName": "Duc Quan",
      "lat": 21.6333333,
      "lng": 104.9
    },
    {
      "cityName": "Duong Qui",
      "lat": 22.05,
      "lng": 104.1333333
    },
    {
      "cityName": "Fou La Tchai",
      "lat": 22.5166667,
      "lng": 103.95
    },
    {
      "cityName": "Ga Ngòi Hóp",
      "lat": 21.8166667,
      "lng": 104.7666667
    },
    {
      "cityName": "Giá Cao",
      "lat": 21.5333333,
      "lng": 104.3833333
    },
    {
      "cityName": "Gia Che",
      "lat": 21.6666667,
      "lng": 104.6666667
    },
    {
      "cityName": "Gia Chu Bíng",
      "lat": 21.75,
      "lng": 104.15
    },
    {
      "cityName": "Gia Hoi",
      "lat": 21.7333333,
      "lng": 104.4166667
    },
    {
      "cityName": "Gia Khô Chay",
      "lat": 21.85,
      "lng": 103.9666667
    },
    {
      "cityName": "Gia Mai",
      "lat": 22.3,
      "lng": 104.5333333
    },
    {
      "cityName": "Giang Hou",
      "lat": 21.8333333,
      "lng": 103.7
    },
    {
      "cityName": "Giang Ta Tchay",
      "lat": 22.3,
      "lng": 103.8666667
    },
    {
      "cityName": "Giao Khai Hoa",
      "lat": 22.7,
      "lng": 104.3166667
    },
    {
      "cityName": "Gia Phù",
      "lat": 21.2,
      "lng": 104.6333333
    },
    {
      "cityName": "Giap Lam",
      "lat": 22,
      "lng": 104.6
    },
    {
      "cityName": "Gi Tang",
      "lat": 22.5,
      "lng": 104.2833333
    },
    {
      "cityName": "Giua Lang",
      "lat": 21.7833333,
      "lng": 104.85
    },
    {
      "cityName": "Goc Diep",
      "lat": 22.3166667,
      "lng": 104.5166667
    },
    {
      "cityName": "Goc Nghe",
      "lat": 22.2833333,
      "lng": 104.4
    },
    {
      "cityName": "Gô Công",
      "lat": 21.65,
      "lng": 104.9333333
    },
    {
      "cityName": "Go Dong",
      "lat": 21.75,
      "lng": 104.8333333
    },
    {
      "cityName": "Hai Luong",
      "lat": 21.7,
      "lng": 104.8166667
    },
    {
      "cityName": "Ham Kai",
      "lat": 22.4833333,
      "lng": 104.3833333
    },
    {
      "cityName": "Ham Rong",
      "lat": 22.1666667,
      "lng": 104.6166667
    },
    {
      "cityName": "Ha Nam",
      "lat": 22.0333333,
      "lng": 103.8666667
    },
    {
      "cityName": "Han Lam",
      "lat": 21.9333333,
      "lng": 103.9
    },
    {
      "cityName": "Han Xa",
      "lat": 21.7166667,
      "lng": 103.9166667
    },
    {
      "cityName": "Hào Gia",
      "lat": 21.7166667,
      "lng": 104.9166667
    },
    {
      "cityName": "Hao Si Pan",
      "lat": 22.6833333,
      "lng": 104.3
    },
    {
      "cityName": "Hao Su Ngai",
      "lat": 22.3166667,
      "lng": 103.9
    },
    {
      "cityName": "Ha Sao Tchai",
      "lat": 22.6666667,
      "lng": 104.2
    },
    {
      "cityName": "Hau Thao",
      "lat": 22.3166667,
      "lng": 103.8833333
    },
    {
      "cityName": "Hau Tru Ngai",
      "lat": 22.3333333,
      "lng": 103.8833333
    },
    {
      "cityName": "Hen Lò",
      "lat": 22.1,
      "lng": 104.75
    },
    {
      "cityName": "Hin Lao",
      "lat": 21.95,
      "lng": 103.8666667
    },
    {
      "cityName": "Hoa Cuong",
      "lat": 21.7833333,
      "lng": 104.8333333
    },
    {
      "cityName": "Hoa Gi Tong",
      "lat": 22.5666667,
      "lng": 104.25
    },
    {
      "cityName": "Hoàng Hà",
      "lat": 22.05,
      "lng": 103.8666667
    },
    {
      "cityName": "Hoang La",
      "lat": 22.2666667,
      "lng": 104
    },
    {
      "cityName": "Hoàng Liên",
      "lat": 22.2666667,
      "lng": 103.95
    },
    {
      "cityName": "Hoang Ma",
      "lat": 22.3333333,
      "lng": 104.3
    },
    {
      "cityName": "Hoang Thi",
      "lat": 21.75,
      "lng": 105.0166667
    },
    {
      "cityName": "Hoa Si Pan",
      "lat": 22.2833333,
      "lng": 103.9333333
    },
    {
      "cityName": "Hòa Sì Phán",
      "lat": 22.2833333,
      "lng": 103.9166667
    },
    {
      "cityName": "Hoa Tiao Ping",
      "lat": 22.5833333,
      "lng": 104.25
    },
    {
      "cityName": "Hô Be Mèo",
      "lat": 22.2166667,
      "lng": 103.7666667
    },
    {
      "cityName": "Hoei Sien",
      "lat": 22.0833333,
      "lng": 103.7
    },
    {
      "cityName": "Hôi Lung Sung",
      "lat": 22.4,
      "lng": 103.9
    },
    {
      "cityName": "Ho Kung Mung",
      "lat": 22.6666667,
      "lng": 103.6
    },
    {
      "cityName": "Ho Mai",
      "lat": 21.7,
      "lng": 104.9
    },
    {
      "cityName": "Ho Mam Sang",
      "lat": 22.0833333,
      "lng": 103.8166667
    },
    {
      "cityName": "Hô Meu",
      "lat": 21.75,
      "lng": 103.95
    },
    {
      "cityName": "Ho Mit",
      "lat": 22.1,
      "lng": 103.9
    },
    {
      "cityName": "Ho Nam Mi",
      "lat": 21.7833333,
      "lng": 103.85
    },
    {
      "cityName": "Ho Ngai Tung",
      "lat": 22.65,
      "lng": 103.6333333
    },
    {
      "cityName": "Hong",
      "lat": 22.1333333,
      "lng": 104.3833333
    },
    {
      "cityName": "Ho Pien",
      "lat": 22.0666667,
      "lng": 103.7166667
    },
    {
      "cityName": "Ho Sao Chay",
      "lat": 21.8333333,
      "lng": 104.0166667
    },
    {
      "cityName": "Ho Sao Tcha",
      "lat": 22.6166667,
      "lng": 104.2833333
    },
    {
      "cityName": "Ho Suoi Tao",
      "lat": 21.85,
      "lng": 104.1333333
    },
    {
      "cityName": "Ho Tô",
      "lat": 21.7666667,
      "lng": 105.1166667
    },
    {
      "cityName": "Ho To Tchai",
      "lat": 22.7833333,
      "lng": 104.15
    },
    {
      "cityName": "Ho Tsao Trai",
      "lat": 22.4,
      "lng": 104.2166667
    },
    {
      "cityName": "Hou Chau",
      "lat": 22.65,
      "lng": 104.1
    },
    {
      "cityName": "Houei Lao",
      "lat": 21.7,
      "lng": 104.1
    },
    {
      "cityName": "Houng Han",
      "lat": 22.2833333,
      "lng": 104.1333333
    },
    {
      "cityName": "Hua Chang",
      "lat": 22.2166667,
      "lng": 103.75
    },
    {
      "cityName": "Hua Cuong",
      "lat": 22.15,
      "lng": 103.7833333
    },
    {
      "cityName": "Hua Mít",
      "lat": 22.1166667,
      "lng": 103.8666667
    },
    {
      "cityName": "Hung Mi Ba",
      "lat": 21.8666667,
      "lng": 103.9333333
    },
    {
      "cityName": "Huoi Bi",
      "lat": 22.05,
      "lng": 103.8833333
    },
    {
      "cityName": "Huoi Hao",
      "lat": 21.8,
      "lng": 104.2333333
    },
    {
      "cityName": "Huong Giang",
      "lat": 22.0166667,
      "lng": 104.85
    },
    {
      "cityName": "Huong Hum",
      "lat": 22.5333333,
      "lng": 103.7166667
    },
    {
      "cityName": "Huong Vinh",
      "lat": 22.3166667,
      "lng": 103.9833333
    },
    {
      "cityName": "In Tchang",
      "lat": 22.5833333,
      "lng": 103.6666667
    },
    {
      "cityName": "I Teau Wan",
      "lat": 22.55,
      "lng": 104.3333333
    },
    {
      "cityName": "Kam Ho",
      "lat": 22.1333333,
      "lng": 103.8333333
    },
    {
      "cityName": "Kang Siou Ping",
      "lat": 21.8,
      "lng": 104.1666667
    },
    {
      "cityName": "Kan Ti",
      "lat": 22.5,
      "lng": 103.7333333
    },
    {
      "cityName": "Kan Tong",
      "lat": 22,
      "lng": 103.75
    },
    {
      "cityName": "Kao Kang",
      "lat": 22.75,
      "lng": 104.1833333
    },
    {
      "cityName": "Kau Tchou Ping",
      "lat": 22.5666667,
      "lng": 103.6666667
    },
    {
      "cityName": "Keau Nà",
      "lat": 22.75,
      "lng": 104.1666667
    },
    {
      "cityName": "Ké Kai",
      "lat": 21.8833333,
      "lng": 104.2333333
    },
    {
      "cityName": "Kê Khê",
      "lat": 21.8666667,
      "lng": 104.9666667
    },
    {
      "cityName": "Ké Lai",
      "lat": 22.1666667,
      "lng": 104.3833333
    },
    {
      "cityName": "Ken Kai",
      "lat": 22.4166667,
      "lng": 104.2
    },
    {
      "cityName": "Keou Hoi",
      "lat": 22.75,
      "lng": 104.2
    },
    {
      "cityName": "Ké San",
      "lat": 22.0833333,
      "lng": 104.3833333
    },
    {
      "cityName": "Keu Kai",
      "lat": 22.5333333,
      "lng": 103.8333333
    },
    {
      "cityName": "Keu Tang Tchai",
      "lat": 22.5333333,
      "lng": 104.1833333
    },
    {
      "cityName": "Kha Fang",
      "lat": 22.6166667,
      "lng": 104.1833333
    },
    {
      "cityName": "Khâm Kìa",
      "lat": 22.05,
      "lng": 104.7333333
    },
    {
      "cityName": "Khan Bao Chay",
      "lat": 21.8166667,
      "lng": 104.0166667
    },
    {
      "cityName": "Khân Ðao",
      "lat": 21.8666667,
      "lng": 104.7666667
    },
    {
      "cityName": "Khanh Yen",
      "lat": 22.05,
      "lng": 104.3166667
    },
    {
      "cityName": "Khan Pha",
      "lat": 21.7833333,
      "lng": 104.2333333
    },
    {
      "cityName": "Kha Que",
      "lat": 21.8833333,
      "lng": 104.7666667
    },
    {
      "cityName": "Khâu Me",
      "lat": 21.8333333,
      "lng": 104.9333333
    },
    {
      "cityName": "Khâu Vác",
      "lat": 21.7333333,
      "lng": 104.5333333
    },
    {
      "cityName": "Kha Van",
      "lat": 22.0666667,
      "lng": 104.5166667
    },
    {
      "cityName": "Khê An",
      "lat": 22.2,
      "lng": 103.7
    },
    {
      "cityName": "Khê Bai",
      "lat": 21.9,
      "lng": 104.7333333
    },
    {
      "cityName": "Khe Bang",
      "lat": 21.8166667,
      "lng": 104.5333333
    },
    {
      "cityName": "Khê Bè",
      "lat": 21.9333333,
      "lng": 104.5333333
    },
    {
      "cityName": "Khê Ben",
      "lat": 22,
      "lng": 104.5
    },
    {
      "cityName": "Khe Boc",
      "lat": 21.8166667,
      "lng": 104.6
    },
    {
      "cityName": "Khe Cam",
      "lat": 21.5833333,
      "lng": 104.7666667
    },
    {
      "cityName": "Khê Cáng",
      "lat": 22.0166667,
      "lng": 104.7166667
    },
    {
      "cityName": "Khê Cát",
      "lat": 21.75,
      "lng": 104.7666667
    },
    {
      "cityName": "Khê Cây",
      "lat": 21.7166667,
      "lng": 103.9333333
    },
    {
      "cityName": "Khê Cha",
      "lat": 22.0333333,
      "lng": 104.75
    },
    {
      "cityName": "Khê Chê",
      "lat": 21.9833333,
      "lng": 104.55
    },
    {
      "cityName": "Khe Chiêu",
      "lat": 22.1166667,
      "lng": 104.65
    },
    {
      "cityName": "Khê Cho",
      "lat": 21.8,
      "lng": 104.8333333
    },
    {
      "cityName": "Khê Chung",
      "lat": 21.9666667,
      "lng": 104.7166667
    },
    {
      "cityName": "Khe Chuong",
      "lat": 21.7166667,
      "lng": 104.75
    },
    {
      "cityName": "Khê Cóc",
      "lat": 21.8166667,
      "lng": 104.45
    },
    {
      "cityName": "Khe Co",
      "lat": 22.0833333,
      "lng": 104.6666667
    },
    {
      "cityName": "Khê Ðanh",
      "lat": 21.9333333,
      "lng": 104.4833333
    },
    {
      "cityName": "Khê Ðao",
      "lat": 21.65,
      "lng": 104.7833333
    },
    {
      "cityName": "Khe Dat",
      "lat": 21.8666667,
      "lng": 104.7833333
    },
    {
      "cityName": "Khê Dóm",
      "lat": 21.8666667,
      "lng": 104.4833333
    },
    {
      "cityName": "Khe Dong",
      "lat": 21.6333333,
      "lng": 104.8333333
    },
    {
      "cityName": "Khê Ga",
      "lat": 21.6666667,
      "lng": 104.7666667
    },
    {
      "cityName": "Khe Gan",
      "lat": 21.6333333,
      "lng": 104.7666667
    },
    {
      "cityName": "Khê Ge",
      "lat": 21.4333333,
      "lng": 104.8666667
    },
    {
      "cityName": "Khê Già",
      "lat": 22.05,
      "lng": 104.7166667
    },
    {
      "cityName": "Khê Giông",
      "lat": 21.4666667,
      "lng": 104.8
    },
    {
      "cityName": "Khe Giua",
      "lat": 21.8166667,
      "lng": 104.6833333
    },
    {
      "cityName": "Khe Gum",
      "lat": 21.95,
      "lng": 104.5333333
    },
    {
      "cityName": "Khê Ha",
      "lat": 21.8833333,
      "lng": 104.6166667
    },
    {
      "cityName": "Khê Hàm",
      "lat": 21.95,
      "lng": 104.7833333
    },
    {
      "cityName": "Khê Hao Trên",
      "lat": 21.9166667,
      "lng": 104.4333333
    },
    {
      "cityName": "Khê Ho",
      "lat": 22.2666667,
      "lng": 104.2333333
    },
    {
      "cityName": "Khê Hop",
      "lat": 21.85,
      "lng": 104.6833333
    },
    {
      "cityName": "Khê Kè",
      "lat": 21.8833333,
      "lng": 104.4666667
    },
    {
      "cityName": "Khê Kie",
      "lat": 21.85,
      "lng": 104.6
    },
    {
      "cityName": "Khê Kiêng",
      "lat": 22,
      "lng": 104.7166667
    },
    {
      "cityName": "Khê Kouen",
      "lat": 21.9833333,
      "lng": 104.4333333
    },
    {
      "cityName": "Khe Kum",
      "lat": 22.0666667,
      "lng": 104.7333333
    },
    {
      "cityName": "Khê Lao",
      "lat": 21.9,
      "lng": 104.7
    },
    {
      "cityName": "Khê Liên",
      "lat": 21.55,
      "lng": 104.8
    },
    {
      "cityName": "Khé Long",
      "lat": 21.4833333,
      "lng": 104.7666667
    },
    {
      "cityName": "Khe Mang",
      "lat": 21.8333333,
      "lng": 104.4166667
    },
    {
      "cityName": "Khê Mè",
      "lat": 21.1666667,
      "lng": 104.8
    },
    {
      "cityName": "Khe Min",
      "lat": 21.8166667,
      "lng": 104.4666667
    },
    {
      "cityName": "Khê Muôn",
      "lat": 21.9666667,
      "lng": 104.55
    },
    {
      "cityName": "Khê My",
      "lat": 21.8166667,
      "lng": 104.7833333
    },
    {
      "cityName": "Khe Ngày",
      "lat": 22.15,
      "lng": 104.3833333
    },
    {
      "cityName": "Khê Nghên",
      "lat": 21.6,
      "lng": 104.7666667
    },
    {
      "cityName": "Khe Nham",
      "lat": 21.9333333,
      "lng": 104.8
    },
    {
      "cityName": "Khê Pa",
      "lat": 21.8666667,
      "lng": 104.5666667
    },
    {
      "cityName": "Khê Phiêng",
      "lat": 21.8333333,
      "lng": 104.5833333
    },
    {
      "cityName": "Khê Phúc",
      "lat": 21.85,
      "lng": 104.8166667
    },
    {
      "cityName": "Khê Quan",
      "lat": 21.7,
      "lng": 104.75
    },
    {
      "cityName": "Khê Sài",
      "lat": 21.9833333,
      "lng": 104.75
    },
    {
      "cityName": "Khe Sau",
      "lat": 21.8166667,
      "lng": 104.8166667
    },
    {
      "cityName": "Khe Se",
      "lat": 22.0166667,
      "lng": 104.55
    },
    {
      "cityName": "Khê Sung",
      "lat": 21.7166667,
      "lng": 104.6333333
    },
    {
      "cityName": "Khe Tau",
      "lat": 21.8666667,
      "lng": 104.4166667
    },
    {
      "cityName": "Khê Tchat",
      "lat": 21.9666667,
      "lng": 104.4833333
    },
    {
      "cityName": "Khe Tha",
      "lat": 22.0833333,
      "lng": 104.7
    },
    {
      "cityName": "Khê Tham",
      "lat": 21.85,
      "lng": 104.4166667
    },
    {
      "cityName": "Khe Thep",
      "lat": 21.8,
      "lng": 104.4333333
    },
    {
      "cityName": "Khê Tiom",
      "lat": 21.9666667,
      "lng": 104.4333333
    },
    {
      "cityName": "Khê Tú",
      "lat": 21.5166667,
      "lng": 104.8333333
    },
    {
      "cityName": "Khe Xong",
      "lat": 21.5,
      "lng": 104.7833333
    },
    {
      "cityName": "Khê Xuân",
      "lat": 21.95,
      "lng": 104.55
    },
    {
      "cityName": "Kho Bôn",
      "lat": 21.9166667,
      "lng": 103.9333333
    },
    {
      "cityName": "Khôn Chung",
      "lat": 22.1,
      "lng": 104.6666667
    },
    {
      "cityName": "Khon Dam",
      "lat": 21.55,
      "lng": 104.7666667
    },
    {
      "cityName": "Khouen Dzic",
      "lat": 21.8166667,
      "lng": 104.8833333
    },
    {
      "cityName": "Khuay Meo",
      "lat": 22.65,
      "lng": 104.0333333
    },
    {
      "cityName": "Khu Chu Linh",
      "lat": 22.4,
      "lng": 103.8833333
    },
    {
      "cityName": "Khuôn Chinh",
      "lat": 21.8833333,
      "lng": 104.9333333
    },
    {
      "cityName": "Khuôn Ðát",
      "lat": 21.85,
      "lng": 105.0333333
    },
    {
      "cityName": "Khuông Chung",
      "lat": 22.05,
      "lng": 104.6666667
    },
    {
      "cityName": "Kiên Lao",
      "lat": 21.7333333,
      "lng": 104.75
    },
    {
      "cityName": "Kieou San",
      "lat": 22.7,
      "lng": 104.1666667
    },
    {
      "cityName": "Kim Noi",
      "lat": 21.85,
      "lng": 104.1
    },
    {
      "cityName": "Kim Tân",
      "lat": 22.4666667,
      "lng": 103.95
    },
    {
      "cityName": "Kinh La",
      "lat": 21.8333333,
      "lng": 104.8833333
    },
    {
      "cityName": "Koang Tec Tchai",
      "lat": 22.65,
      "lng": 104.1666667
    },
    {
      "cityName": "Kóc Hai",
      "lat": 22.5833333,
      "lng": 103.8
    },
    {
      "cityName": "Koc Lai",
      "lat": 22.5,
      "lng": 104.0333333
    },
    {
      "cityName": "Koc Né",
      "lat": 22.2833333,
      "lng": 104.3333333
    },
    {
      "cityName": "Ko Tchou Tohoung",
      "lat": 22.35,
      "lng": 103.95
    },
    {
      "cityName": "Kouan Fang",
      "lat": 22.5833333,
      "lng": 104.1333333
    },
    {
      "cityName": "Kouan Tchai",
      "lat": 22.1333333,
      "lng": 103.6666667
    },
    {
      "cityName": "Kouan Tchaui",
      "lat": 21.65,
      "lng": 104.4666667
    },
    {
      "cityName": "Kouei Biên",
      "lat": 22.2333333,
      "lng": 104.65
    },
    {
      "cityName": "Kouei Bong",
      "lat": 22.7,
      "lng": 104.2166667
    },
    {
      "cityName": "Kouei Ðam",
      "lat": 22.0166667,
      "lng": 104.4166667
    },
    {
      "cityName": "Kouei Fong",
      "lat": 21.6833333,
      "lng": 104.5333333
    },
    {
      "cityName": "Kouei Hé",
      "lat": 21.8166667,
      "lng": 103.75
    },
    {
      "cityName": "Kouei Kai",
      "lat": 21.8,
      "lng": 103.7833333
    },
    {
      "cityName": "Kouei Koum",
      "lat": 21.8666667,
      "lng": 103.8
    },
    {
      "cityName": "Kouei Koun",
      "lat": 21.7666667,
      "lng": 103.7833333
    },
    {
      "cityName": "Kouei Lang",
      "lat": 21.3666667,
      "lng": 104.6833333
    },
    {
      "cityName": "Kouéi Phao",
      "lat": 22.2666667,
      "lng": 104.6166667
    },
    {
      "cityName": "Kouei San",
      "lat": 22.1,
      "lng": 103.7166667
    },
    {
      "cityName": "Koung Loung",
      "lat": 22.7833333,
      "lng": 104.2166667
    },
    {
      "cityName": "Koun Hìa",
      "lat": 22.25,
      "lng": 104.7166667
    },
    {
      "cityName": "Kou Pa",
      "lat": 22.65,
      "lng": 104.3166667
    },
    {
      "cityName": "Kou Tchou Pin",
      "lat": 22.4666667,
      "lng": 103.7333333
    },
    {
      "cityName": "Ko Y Chay",
      "lat": 21.8333333,
      "lng": 104.2833333
    },
    {
      "cityName": "Ko Yé San",
      "lat": 21.3,
      "lng": 104.5666667
    },
    {
      "cityName": "Ku Bao Chay",
      "lat": 21.8166667,
      "lng": 104.1333333
    },
    {
      "cityName": "Ku Chu Van",
      "lat": 21.7833333,
      "lng": 104.1666667
    },
    {
      "cityName": "Kuôi Deo",
      "lat": 21.9833333,
      "lng": 104.2833333
    },
    {
      "cityName": "Kuoi Ke",
      "lat": 22.05,
      "lng": 104.35
    },
    {
      "cityName": "Kuoi Sàn",
      "lat": 22.1,
      "lng": 104.3833333
    },
    {
      "cityName": "Kuoi Tam Bao",
      "lat": 22.1,
      "lng": 104.3333333
    },
    {
      "cityName": "Ky Dong",
      "lat": 22.0333333,
      "lng": 104.5333333
    },
    {
      "cityName": "Lac Ly Tchay",
      "lat": 22.3166667,
      "lng": 103.8666667
    },
    {
      "cityName": "Là Hau Beng",
      "lat": 21.75,
      "lng": 104.5
    },
    {
      "cityName": "La Hau",
      "lat": 21.7833333,
      "lng": 104.5
    },
    {
      "cityName": "Lai Mu Lao Chay",
      "lat": 21.8333333,
      "lng": 103.9833333
    },
    {
      "cityName": "La Kou Tchai",
      "lat": 22.6666667,
      "lng": 104.1333333
    },
    {
      "cityName": "Lâm Thôn",
      "lat": 21.7,
      "lng": 104.9666667
    },
    {
      "cityName": "Lam Truong Thuong",
      "lat": 22.1833333,
      "lng": 104.7
    },
    {
      "cityName": "Lan Chan Han",
      "lat": 21.6,
      "lng": 104.5333333
    },
    {
      "cityName": "Lang Bac",
      "lat": 21.9833333,
      "lng": 104.8833333
    },
    {
      "cityName": "Làng Bài",
      "lat": 22.0666667,
      "lng": 104.2166667
    },
    {
      "cityName": "Làng Báng",
      "lat": 21.7666667,
      "lng": 104.45
    },
    {
      "cityName": "Làng Banh",
      "lat": 21.5166667,
      "lng": 104.6333333
    },
    {
      "cityName": "Làng Ban",
      "lat": 21.7666667,
      "lng": 104.3666667
    },
    {
      "cityName": "Làng Bat",
      "lat": 22.3333333,
      "lng": 104.4166667
    },
    {
      "cityName": "Lang Bau",
      "lat": 21.8166667,
      "lng": 105
    },
    {
      "cityName": "Làng Bê",
      "lat": 21.9666667,
      "lng": 104.9
    },
    {
      "cityName": "Lang Bien",
      "lat": 21.4166667,
      "lng": 104.7666667
    },
    {
      "cityName": "Làng Bình",
      "lat": 21.9,
      "lng": 104.9333333
    },
    {
      "cityName": "Lang Bo",
      "lat": 22.0833333,
      "lng": 104.3
    },
    {
      "cityName": "Làng Bôn",
      "lat": 22.2333333,
      "lng": 104.4166667
    },
    {
      "cityName": "Lang Buii",
      "lat": 22.25,
      "lng": 104.2333333
    },
    {
      "cityName": "Lang Buom",
      "lat": 22.15,
      "lng": 104.6833333
    },
    {
      "cityName": "Làng Cai",
      "lat": 22.0666667,
      "lng": 104.5333333
    },
    {
      "cityName": "Làng Cai Phó",
      "lat": 22.0833333,
      "lng": 104.4
    },
    {
      "cityName": "Làng Cá",
      "lat": 21.95,
      "lng": 104.8833333
    },
    {
      "cityName": "Làng Cà Lô",
      "lat": 21.9166667,
      "lng": 104.9666667
    },
    {
      "cityName": "Làng Cam",
      "lat": 21.4833333,
      "lng": 104.85
    },
    {
      "cityName": "Làng Cang",
      "lat": 21.2166667,
      "lng": 104.4833333
    },
    {
      "cityName": "Làng Canh",
      "lat": 21.1833333,
      "lng": 104.7666667
    },
    {
      "cityName": "Lang Can",
      "lat": 21.8833333,
      "lng": 104.9
    },
    {
      "cityName": "Làng Cao Bàn",
      "lat": 22.1166667,
      "lng": 104.3666667
    },
    {
      "cityName": "Làng Cao",
      "lat": 21.9166667,
      "lng": 104.5
    },
    {
      "cityName": "Làng Cát",
      "lat": 22.0333333,
      "lng": 104.7666667
    },
    {
      "cityName": "Làng Cây",
      "lat": 21.3166667,
      "lng": 104.75
    },
    {
      "cityName": "Làng Cha",
      "lat": 22.1666667,
      "lng": 104.5833333
    },
    {
      "cityName": "Làng Chang",
      "lat": 21.8666667,
      "lng": 104.45
    },
    {
      "cityName": "Lang Chap",
      "lat": 22.0833333,
      "lng": 104.6166667
    },
    {
      "cityName": "Làng Châu",
      "lat": 22.0666667,
      "lng": 104.25
    },
    {
      "cityName": "Lang Che",
      "lat": 21.9,
      "lng": 104.8833333
    },
    {
      "cityName": "Làng Chiet",
      "lat": 21.25,
      "lng": 104.75
    },
    {
      "cityName": "Lang Chi",
      "lat": 21.9833333,
      "lng": 104.8666667
    },
    {
      "cityName": "Lang Chi Noc",
      "lat": 22.1166667,
      "lng": 104.55
    },
    {
      "cityName": "Lang Choa",
      "lat": 22.2166667,
      "lng": 104.5
    },
    {
      "cityName": "Làng Chò",
      "lat": 22,
      "lng": 104.55
    },
    {
      "cityName": "Làng Chùa",
      "lat": 21.8333333,
      "lng": 104.9833333
    },
    {
      "cityName": "Làng Chuân",
      "lat": 22.2833333,
      "lng": 104.4833333
    },
    {
      "cityName": "Làng Chúc",
      "lat": 22.0333333,
      "lng": 104.6833333
    },
    {
      "cityName": "Lang Chue",
      "lat": 22.0833333,
      "lng": 104.5166667
    },
    {
      "cityName": "Làng Chu",
      "lat": 22.05,
      "lng": 104.25
    },
    {
      "cityName": "Làng Chung",
      "lat": 22.3166667,
      "lng": 104.1666667
    },
    {
      "cityName": "Làng Chuong",
      "lat": 22.1166667,
      "lng": 104.7333333
    },
    {
      "cityName": "Làng Côb",
      "lat": 22.1333333,
      "lng": 104.7166667
    },
    {
      "cityName": "Làng Cóc",
      "lat": 21.9833333,
      "lng": 104.3833333
    },
    {
      "cityName": "Làng Co",
      "lat": 21.4333333,
      "lng": 104.8333333
    },
    {
      "cityName": "Làng Con",
      "lat": 22.25,
      "lng": 104.2666667
    },
    {
      "cityName": "Làng Coung",
      "lat": 21.9166667,
      "lng": 104.2666667
    },
    {
      "cityName": "Làng Cú",
      "lat": 22.15,
      "lng": 104.3333333
    },
    {
      "cityName": "Làng Cung",
      "lat": 21.9,
      "lng": 104.2833333
    },
    {
      "cityName": "Lang Cung Meo",
      "lat": 21.9166667,
      "lng": 104.45
    },
    {
      "cityName": "Làng Cút",
      "lat": 22.0833333,
      "lng": 104.6
    },
    {
      "cityName": "Làng Da",
      "lat": 21.25,
      "lng": 104.4166667
    },
    {
      "cityName": "Làng Ðá",
      "lat": 21.95,
      "lng": 104.95
    },
    {
      "cityName": "Làng Ðát",
      "lat": 21.9666667,
      "lng": 104.7666667
    },
    {
      "cityName": "Làng Dau",
      "lat": 22.15,
      "lng": 104.5666667
    },
    {
      "cityName": "Làng Ðâu",
      "lat": 22.2666667,
      "lng": 104.4166667
    },
    {
      "cityName": "Lang Day",
      "lat": 21.8333333,
      "lng": 104.9166667
    },
    {
      "cityName": "Làng Diêc",
      "lat": 21.8666667,
      "lng": 104.9
    },
    {
      "cityName": "Lang Dieu",
      "lat": 22.2833333,
      "lng": 104.4333333
    },
    {
      "cityName": "Làng Dinh",
      "lat": 22.1666667,
      "lng": 104.2
    },
    {
      "cityName": "Lang Doc",
      "lat": 21.5666667,
      "lng": 104.8333333
    },
    {
      "cityName": "Làng Ðo",
      "lat": 22.4,
      "lng": 104.1333333
    },
    {
      "cityName": "Lang Dong",
      "lat": 21.85,
      "lng": 104.8
    },
    {
      "cityName": "Làng Dông Mông",
      "lat": 22.1833333,
      "lng": 104.5833333
    },
    {
      "cityName": "Làng Ðôn",
      "lat": 22.3833333,
      "lng": 104.45
    },
    {
      "cityName": "Lang Duong",
      "lat": 21.2166667,
      "lng": 104.5666667
    },
    {
      "cityName": "Lang En",
      "lat": 22.2,
      "lng": 104.2166667
    },
    {
      "cityName": "Làng Fan",
      "lat": 22.25,
      "lng": 104.3166667
    },
    {
      "cityName": "Làng Gát",
      "lat": 21.8333333,
      "lng": 104.7666667
    },
    {
      "cityName": "Làng Gênh",
      "lat": 21.9333333,
      "lng": 104.8666667
    },
    {
      "cityName": "Làng Gia Ha",
      "lat": 22.1833333,
      "lng": 104.6166667
    },
    {
      "cityName": "Làng Giang",
      "lat": 21.45,
      "lng": 104.85
    },
    {
      "cityName": "Lang Gia Thuong",
      "lat": 22.2,
      "lng": 104.6
    },
    {
      "cityName": "Làng Giem",
      "lat": 21.3666667,
      "lng": 104.8833333
    },
    {
      "cityName": "Lang Ham Rong",
      "lat": 22.1,
      "lng": 104.5833333
    },
    {
      "cityName": "Làng Hoài",
      "lat": 21.9666667,
      "lng": 104.4
    },
    {
      "cityName": "Lang Hoc",
      "lat": 21.65,
      "lng": 104.65
    },
    {
      "cityName": "Làng Hòm",
      "lat": 22.1333333,
      "lng": 104.0833333
    },
    {
      "cityName": "Lang Hop",
      "lat": 21.7166667,
      "lng": 104.6666667
    },
    {
      "cityName": "Làng Hou",
      "lat": 22.45,
      "lng": 104.4
    },
    {
      "cityName": "Lang Huong Giang",
      "lat": 21.75,
      "lng": 104.95
    },
    {
      "cityName": "Làng Hut",
      "lat": 21.9666667,
      "lng": 104.5833333
    },
    {
      "cityName": "Làng Huy",
      "lat": 21.7166667,
      "lng": 105.0333333
    },
    {
      "cityName": "Làng I",
      "lat": 21.1,
      "lng": 104.5166667
    },
    {
      "cityName": "Làng Kay",
      "lat": 22.0666667,
      "lng": 104.4666667
    },
    {
      "cityName": "Làng Kè",
      "lat": 21.5166667,
      "lng": 104.8
    },
    {
      "cityName": "Làng Kem",
      "lat": 22.1666667,
      "lng": 104.5333333
    },
    {
      "cityName": "Làng Ken",
      "lat": 22.2333333,
      "lng": 104.5666667
    },
    {
      "cityName": "Làng Khanh",
      "lat": 22.1833333,
      "lng": 104.6333333
    },
    {
      "cityName": "Làng Khao",
      "lat": 22.35,
      "lng": 104.5166667
    },
    {
      "cityName": "Làng Khay",
      "lat": 22.0666667,
      "lng": 104.5
    },
    {
      "cityName": "Lang Khe Dia",
      "lat": 21.4666667,
      "lng": 104.85
    },
    {
      "cityName": "Làng Khê Phao",
      "lat": 22,
      "lng": 104.4666667
    },
    {
      "cityName": "Lang Khe Quat",
      "lat": 22.15,
      "lng": 104.3666667
    },
    {
      "cityName": "Làng Khey So",
      "lat": 21.2833333,
      "lng": 104.7833333
    },
    {
      "cityName": "Làng Khiêng",
      "lat": 22.1166667,
      "lng": 104.5666667
    },
    {
      "cityName": "Làng Khoang",
      "lat": 22.2,
      "lng": 104.45
    },
    {
      "cityName": "Làng Khuàng",
      "lat": 22.2833333,
      "lng": 104.4666667
    },
    {
      "cityName": "Lang Khuong",
      "lat": 22.1,
      "lng": 104.6333333
    },
    {
      "cityName": "Làng Kim",
      "lat": 22.2666667,
      "lng": 104.4333333
    },
    {
      "cityName": "Làng Kouei",
      "lat": 21.8666667,
      "lng": 104.75
    },
    {
      "cityName": "Làng Ky",
      "lat": 22.3666667,
      "lng": 104.5333333
    },
    {
      "cityName": "Làng Là",
      "lat": 22.1833333,
      "lng": 104.5
    },
    {
      "cityName": "Lang Lan",
      "lat": 22.05,
      "lng": 104.6166667
    },
    {
      "cityName": "Làng Lao",
      "lat": 22.35,
      "lng": 104.0333333
    },
    {
      "cityName": "Làng Lâu",
      "lat": 21.2,
      "lng": 104.7833333
    },
    {
      "cityName": "Làng Lênh",
      "lat": 22.1,
      "lng": 104.8166667
    },
    {
      "cityName": "Lang Len",
      "lat": 21.9,
      "lng": 103.85
    },
    {
      "cityName": "Làng Lien",
      "lat": 22.1,
      "lng": 104.4333333
    },
    {
      "cityName": "Làng Li",
      "lat": 22.2,
      "lng": 104.3166667
    },
    {
      "cityName": "Làng Loi",
      "lat": 22.1,
      "lng": 104.8
    },
    {
      "cityName": "Làng Lom",
      "lat": 21.4,
      "lng": 104.85
    },
    {
      "cityName": "Làng Lót",
      "lat": 21.4333333,
      "lng": 104.85
    },
    {
      "cityName": "Làng Luan",
      "lat": 22.3166667,
      "lng": 104.4
    },
    {
      "cityName": "Làng Lú",
      "lat": 22.1833333,
      "lng": 104.2166667
    },
    {
      "cityName": "Lang Lung",
      "lat": 21.7,
      "lng": 104.65
    },
    {
      "cityName": "Lang Luong",
      "lat": 21.3,
      "lng": 104.7666667
    },
    {
      "cityName": "Lang Luu",
      "lat": 22.0833333,
      "lng": 104.45
    },
    {
      "cityName": "Làng Mác",
      "lat": 22.0666667,
      "lng": 104.85
    },
    {
      "cityName": "Làng Mai",
      "lat": 22.3166667,
      "lng": 104.5333333
    },
    {
      "cityName": "Lang Ma",
      "lat": 22.1,
      "lng": 104.25
    },
    {
      "cityName": "Làng Mang",
      "lat": 22.05,
      "lng": 104.8833333
    },
    {
      "cityName": "Lang Man",
      "lat": 21.8166667,
      "lng": 104.9333333
    },
    {
      "cityName": "Lang May",
      "lat": 21.8166667,
      "lng": 105.0333333
    },
    {
      "cityName": "Làng Meo",
      "lat": 22.15,
      "lng": 104.7
    },
    {
      "cityName": "Lang Mieu",
      "lat": 22.2166667,
      "lng": 104.5333333
    },
    {
      "cityName": "Làng Minh",
      "lat": 21.8166667,
      "lng": 104.9833333
    },
    {
      "cityName": "Lang Moc",
      "lat": 21.2333333,
      "lng": 104.4833333
    },
    {
      "cityName": "Làng Mo Kai",
      "lat": 22.65,
      "lng": 104.3333333
    },
    {
      "cityName": "Làng Mo",
      "lat": 21.2666667,
      "lng": 104.75
    },
    {
      "cityName": "Làng Muc",
      "lat": 21.9333333,
      "lng": 104.8833333
    },
    {
      "cityName": "Làng Muh",
      "lat": 21.8833333,
      "lng": 104.3
    },
    {
      "cityName": "Lang Muoi",
      "lat": 22.0833333,
      "lng": 104.15
    },
    {
      "cityName": "Lang Muo",
      "lat": 22.1666667,
      "lng": 104.7
    },
    {
      "cityName": "Lang Muong",
      "lat": 22.0833333,
      "lng": 104.85
    },
    {
      "cityName": "Làng Na Cham",
      "lat": 22.2833333,
      "lng": 104.7
    },
    {
      "cityName": "Làng Na",
      "lat": 21.95,
      "lng": 104.6
    },
    {
      "cityName": "Làng Nang",
      "lat": 22.5333333,
      "lng": 103.8833333
    },
    {
      "cityName": "Làng Nàn",
      "lat": 21.8666667,
      "lng": 104.9166667
    },
    {
      "cityName": "Lang Na Tuong",
      "lat": 22.1666667,
      "lng": 104.7666667
    },
    {
      "cityName": "Làng Ném",
      "lat": 21.85,
      "lng": 104.9333333
    },
    {
      "cityName": "Làng Nghe",
      "lat": 22.15,
      "lng": 104.7333333
    },
    {
      "cityName": "Lang Ngoi Nhuoc",
      "lat": 21.9833333,
      "lng": 104.45
    },
    {
      "cityName": "Làng Ngoi Nieou",
      "lat": 22.0333333,
      "lng": 104.5
    },
    {
      "cityName": "Làng Nguyon",
      "lat": 22.3833333,
      "lng": 104.5
    },
    {
      "cityName": "Làng Nhà Giàng",
      "lat": 21.9,
      "lng": 104.9166667
    },
    {
      "cityName": "Làng Nhi",
      "lat": 21.4833333,
      "lng": 104.5833333
    },
    {
      "cityName": "Làng Nhò",
      "lat": 22.3,
      "lng": 104.25
    },
    {
      "cityName": "Làng Nhung",
      "lat": 22.3,
      "lng": 104.4166667
    },
    {
      "cityName": "Lang Noang",
      "lat": 22.0666667,
      "lng": 104.2666667
    },
    {
      "cityName": "Lang Noc",
      "lat": 22.15,
      "lng": 104.6666667
    },
    {
      "cityName": "Lang Oe",
      "lat": 22.15,
      "lng": 104.6166667
    },
    {
      "cityName": "Lang Ong Chau",
      "lat": 21.9166667,
      "lng": 104.7333333
    },
    {
      "cityName": "Làng Pang",
      "lat": 21.8333333,
      "lng": 104.3333333
    },
    {
      "cityName": "Lang Pau Mai",
      "lat": 22.2833333,
      "lng": 104.5333333
    },
    {
      "cityName": "Lang Pha",
      "lat": 22,
      "lng": 104.5333333
    },
    {
      "cityName": "Làng Phàn",
      "lat": 22.1,
      "lng": 104.3
    },
    {
      "cityName": "Làng Phao",
      "lat": 21.3666667,
      "lng": 104.8666667
    },
    {
      "cityName": "Làng Phàt",
      "lat": 22.0333333,
      "lng": 104.4666667
    },
    {
      "cityName": "Làng Phung",
      "lat": 22.0333333,
      "lng": 104.5833333
    },
    {
      "cityName": "Làng Phuoi",
      "lat": 22.4,
      "lng": 103.9666667
    },
    {
      "cityName": "Lang Phuong",
      "lat": 22.2,
      "lng": 104.5833333
    },
    {
      "cityName": "Lang Quach",
      "lat": 21.9166667,
      "lng": 104.6833333
    },
    {
      "cityName": "Lang Quach Ngoai",
      "lat": 21.9,
      "lng": 104.6666667
    },
    {
      "cityName": "Lang Qua",
      "lat": 21.9833333,
      "lng": 104.7666667
    },
    {
      "cityName": "Làng Quang",
      "lat": 21.8,
      "lng": 104.95
    },
    {
      "cityName": "Làng Ray",
      "lat": 21.4333333,
      "lng": 104.8833333
    },
    {
      "cityName": "Làng Ro",
      "lat": 21.9666667,
      "lng": 104.8166667
    },
    {
      "cityName": "Lang Sac",
      "lat": 22.2666667,
      "lng": 104.45
    },
    {
      "cityName": "Lang Sa",
      "lat": 21.3166667,
      "lng": 104.5666667
    },
    {
      "cityName": "Làng Sang",
      "lat": 22.1166667,
      "lng": 104.3833333
    },
    {
      "cityName": "Làng San",
      "lat": 21.2666667,
      "lng": 104.7833333
    },
    {
      "cityName": "Làng São",
      "lat": 22.0833333,
      "lng": 104.7333333
    },
    {
      "cityName": "Lang Sau",
      "lat": 22,
      "lng": 104.85
    },
    {
      "cityName": "Làng Si",
      "lat": 21.9833333,
      "lng": 104.0833333
    },
    {
      "cityName": "Làng Song Ca",
      "lat": 22.3333333,
      "lng": 104.1333333
    },
    {
      "cityName": "Làng Souei",
      "lat": 21.2,
      "lng": 104.6166667
    },
    {
      "cityName": "Làng Súng",
      "lat": 21.85,
      "lng": 104.9166667
    },
    {
      "cityName": "Làng Tâm",
      "lat": 22.0166667,
      "lng": 104.2
    },
    {
      "cityName": "Làng Tan",
      "lat": 22.2833333,
      "lng": 104.2
    },
    {
      "cityName": "Làng Táo",
      "lat": 22.0833333,
      "lng": 104.8333333
    },
    {
      "cityName": "Làng Tchang",
      "lat": 22.2166667,
      "lng": 104.3666667
    },
    {
      "cityName": "Làng Thài",
      "lat": 22.2,
      "lng": 104.4666667
    },
    {
      "cityName": "Làng Tha",
      "lat": 21.95,
      "lng": 104.4
    },
    {
      "cityName": "Lang Tham",
      "lat": 22.0333333,
      "lng": 104.1
    },
    {
      "cityName": "Làng Thâm Thêu",
      "lat": 22.05,
      "lng": 104.7833333
    },
    {
      "cityName": "Làng Than Cun",
      "lat": 21.8666667,
      "lng": 104.4333333
    },
    {
      "cityName": "Làng Than",
      "lat": 21.8833333,
      "lng": 104.4333333
    },
    {
      "cityName": "Làng Thap",
      "lat": 22.2,
      "lng": 104.3666667
    },
    {
      "cityName": "Làng Thiên",
      "lat": 21.6,
      "lng": 104.75
    },
    {
      "cityName": "Làng Thi",
      "lat": 21.8333333,
      "lng": 104.45
    },
    {
      "cityName": "Làng Thíp",
      "lat": 22.1333333,
      "lng": 104.4166667
    },
    {
      "cityName": "Làng Tho",
      "lat": 21.4,
      "lng": 104.8166667
    },
    {
      "cityName": "Làng Thu",
      "lat": 22.1833333,
      "lng": 104.1666667
    },
    {
      "cityName": "Lang Thuong",
      "lat": 22.0333333,
      "lng": 104.7166667
    },
    {
      "cityName": "Làng Tinh",
      "lat": 21.7666667,
      "lng": 104.3166667
    },
    {
      "cityName": "Làng Tio",
      "lat": 21.2833333,
      "lng": 104.6
    },
    {
      "cityName": "Làng Tiom",
      "lat": 22.2333333,
      "lng": 104.45
    },
    {
      "cityName": "Lang Tohang",
      "lat": 22.3666667,
      "lng": 104.2666667
    },
    {
      "cityName": "Làng Tong",
      "lat": 21.3666667,
      "lng": 104.8333333
    },
    {
      "cityName": "Làng Tong Tchoung",
      "lat": 22.4333333,
      "lng": 104
    },
    {
      "cityName": "Lang Trac",
      "lat": 21.9666667,
      "lng": 104.5166667
    },
    {
      "cityName": "Làng Tri",
      "lat": 22.1166667,
      "lng": 104.0333333
    },
    {
      "cityName": "Làng Trinh",
      "lat": 21.25,
      "lng": 104.7833333
    },
    {
      "cityName": "Làng Tu Quan",
      "lat": 21.3333333,
      "lng": 104.6166667
    },
    {
      "cityName": "Làng Uêch",
      "lat": 22.1333333,
      "lng": 104.3
    },
    {
      "cityName": "Làng Uông",
      "lat": 21.75,
      "lng": 104.9833333
    },
    {
      "cityName": "Lang Vach",
      "lat": 22.4,
      "lng": 104.0166667
    },
    {
      "cityName": "Lang Vai",
      "lat": 21.9333333,
      "lng": 104.6666667
    },
    {
      "cityName": "Làng Vân",
      "lat": 21.5833333,
      "lng": 104.85
    },
    {
      "cityName": "Làng Vi",
      "lat": 21.2,
      "lng": 104.6
    },
    {
      "cityName": "Làng Vin Thàng",
      "lat": 22.1166667,
      "lng": 104.1333333
    },
    {
      "cityName": "Làng Vuong",
      "lat": 21.2833333,
      "lng": 104.8
    },
    {
      "cityName": "Làng Xà",
      "lat": 22.1666667,
      "lng": 104.5
    },
    {
      "cityName": "Làng Xât Xá",
      "lat": 22.4333333,
      "lng": 104.4333333
    },
    {
      "cityName": "Làng Xiêng",
      "lat": 22.0666667,
      "lng": 104.75
    },
    {
      "cityName": "Làng Xuân",
      "lat": 21.9,
      "lng": 104.95
    },
    {
      "cityName": "Lang Xuoi Xa Minh",
      "lat": 21.25,
      "lng": 104.8333333
    },
    {
      "cityName": "Làng Yang",
      "lat": 22.4333333,
      "lng": 104.0333333
    },
    {
      "cityName": "Làng Yé",
      "lat": 21.1666667,
      "lng": 104.85
    },
    {
      "cityName": "Làng Yên",
      "lat": 22.0666667,
      "lng": 104.2833333
    },
    {
      "cityName": "Lan Ho",
      "lat": 22.5666667,
      "lng": 104.35
    },
    {
      "cityName": "Lan Moi",
      "lat": 22.6,
      "lng": 103.8
    },
    {
      "cityName": "Lan Mu Chay",
      "lat": 21.9,
      "lng": 103.9666667
    },
    {
      "cityName": "Lan Mu Khan",
      "lat": 21.8666667,
      "lng": 104.0666667
    },
    {
      "cityName": "Lan Mu Yê",
      "lat": 21.8833333,
      "lng": 104.0833333
    },
    {
      "cityName": "Lan Tien Van",
      "lat": 21.8,
      "lng": 104.0166667
    },
    {
      "cityName": "Lao Chai",
      "lat": 22.3,
      "lng": 103.8166667
    },
    {
      "cityName": "Lao Chay",
      "lat": 21.85,
      "lng": 104.0166667
    },
    {
      "cityName": "Lao Chông Khoan Chay",
      "lat": 21.85,
      "lng": 104
    },
    {
      "cityName": "Lao In Pan",
      "lat": 22.65,
      "lng": 104.35
    },
    {
      "cityName": "Lao Lên Chay",
      "lat": 21.8166667,
      "lng": 103.9666667
    },
    {
      "cityName": "Lao Lin Cho Chay",
      "lat": 21.8,
      "lng": 103.9833333
    },
    {
      "cityName": "Lao Pan Tchai",
      "lat": 22.4333333,
      "lng": 103.8166667
    },
    {
      "cityName": "Lao Pao Tchai",
      "lat": 22.8166667,
      "lng": 104.1833333
    },
    {
      "cityName": "Lao Phou Van",
      "lat": 21.35,
      "lng": 104.3166667
    },
    {
      "cityName": "Lao San Chay",
      "lat": 21.8333333,
      "lng": 103.95
    },
    {
      "cityName": "Lao Tao Chay",
      "lat": 22.8,
      "lng": 104.2
    },
    {
      "cityName": "Lao Tchay",
      "lat": 22.3,
      "lng": 103.8833333
    },
    {
      "cityName": "Lao Ti Phong",
      "lat": 22.6833333,
      "lng": 104.3166667
    },
    {
      "cityName": "Lao Toang",
      "lat": 22.4666667,
      "lng": 103.85
    },
    {
      "cityName": "Lão Van Tchai",
      "lat": 22.4666667,
      "lng": 103.8166667
    },
    {
      "cityName": "Lão Van Tchay",
      "lat": 22.4333333,
      "lng": 103.9333333
    },
    {
      "cityName": "La Ri",
      "lat": 22.55,
      "lng": 103.8
    },
    {
      "cityName": "La Tchong",
      "lat": 22.6166667,
      "lng": 103.7833333
    },
    {
      "cityName": "Lech Meo",
      "lat": 22.3,
      "lng": 103.9333333
    },
    {
      "cityName": "Len Than",
      "lat": 22.6166667,
      "lng": 104.3166667
    },
    {
      "cityName": "Lich Ha",
      "lat": 22.05,
      "lng": 104.8333333
    },
    {
      "cityName": "Li Kouei Tsing",
      "lat": 22.35,
      "lng": 103.9333333
    },
    {
      "cityName": "Li Lien",
      "lat": 22.3333333,
      "lng": 104.3666667
    },
    {
      "cityName": "Li Thang",
      "lat": 22.7833333,
      "lng": 104.1666667
    },
    {
      "cityName": "Lo Chouei Tong",
      "lat": 22.6,
      "lng": 104.3833333
    },
    {
      "cityName": "Lo Loung",
      "lat": 22.7166667,
      "lng": 104.1333333
    },
    {
      "cityName": "Long Chui",
      "lat": 22.65,
      "lng": 104.3666667
    },
    {
      "cityName": "Long Com",
      "lat": 22.6,
      "lng": 104.0833333
    },
    {
      "cityName": "Long Khap",
      "lat": 22.3833333,
      "lng": 104.2833333
    },
    {
      "cityName": "Long Lâu",
      "lat": 22.0166667,
      "lng": 104.6833333
    },
    {
      "cityName": "Long Phong",
      "lat": 22.7,
      "lng": 104.2833333
    },
    {
      "cityName": "Long Ping",
      "lat": 22.6166667,
      "lng": 104.35
    },
    {
      "cityName": "Long Pó Moi",
      "lat": 22.6333333,
      "lng": 104.0333333
    },
    {
      "cityName": "Long Quei",
      "lat": 22.8,
      "lng": 104.1666667
    },
    {
      "cityName": "Long Sinh",
      "lat": 22.4333333,
      "lng": 104.5
    },
    {
      "cityName": "Long Xa",
      "lat": 22.4833333,
      "lng": 104.1833333
    },
    {
      "cityName": "Lo Sui Bé",
      "lat": 21.3,
      "lng": 104.55
    },
    {
      "cityName": "Lo Sui Tong",
      "lat": 22.3333333,
      "lng": 103.8333333
    },
    {
      "cityName": "Lò Then",
      "lat": 21.7333333,
      "lng": 104.8333333
    },
    {
      "cityName": "Loung Ca",
      "lat": 22.55,
      "lng": 104.0833333
    },
    {
      "cityName": "Loung Giang",
      "lat": 22.4833333,
      "lng": 103.8666667
    },
    {
      "cityName": "Loung Ko Ping",
      "lat": 22.7166667,
      "lng": 104.0833333
    },
    {
      "cityName": "Loung Sou Ping",
      "lat": 22.5666667,
      "lng": 104.15
    },
    {
      "cityName": "Loung Tang",
      "lat": 22.5333333,
      "lng": 103.85
    },
    {
      "cityName": "Loung Tap",
      "lat": 22.1833333,
      "lng": 103.7833333
    },
    {
      "cityName": "Loung Tchou",
      "lat": 22.0833333,
      "lng": 103.7666667
    },
    {
      "cityName": "Loung Thang",
      "lat": 22.7166667,
      "lng": 104.1666667
    },
    {
      "cityName": "Loung Tiang",
      "lat": 22.6333333,
      "lng": 104.15
    },
    {
      "cityName": "Loung Vi",
      "lat": 22.5833333,
      "lng": 103.7666667
    },
    {
      "cityName": "Luat Ly",
      "lat": 21.7333333,
      "lng": 105
    },
    {
      "cityName": "Luc An Châu",
      "lat": 22.1,
      "lng": 104.7166667
    },
    {
      "cityName": "Luc Yen",
      "lat": 22.1,
      "lng": 104.7
    },
    {
      "cityName": "Lung Buong",
      "lat": 21.5333333,
      "lng": 104.55
    },
    {
      "cityName": "Lung Co",
      "lat": 22.2,
      "lng": 104.6666667
    },
    {
      "cityName": "Lung Dinh",
      "lat": 22.5666667,
      "lng": 104.05
    },
    {
      "cityName": "Lùng Giao",
      "lat": 22.0666667,
      "lng": 104.3166667
    },
    {
      "cityName": "Lung Ha",
      "lat": 21.95,
      "lng": 104.8
    },
    {
      "cityName": "Lung Hang",
      "lat": 22.5333333,
      "lng": 103.9166667
    },
    {
      "cityName": "Lùng Pò",
      "lat": 22.7833333,
      "lng": 103.65
    },
    {
      "cityName": "Lùng Thàng",
      "lat": 22.4333333,
      "lng": 103.9666667
    },
    {
      "cityName": "Luong Do",
      "lat": 22.45,
      "lng": 103.95
    },
    {
      "cityName": "Luong Son",
      "lat": 21.6833333,
      "lng": 104.9333333
    },
    {
      "cityName": "Luong Tam",
      "lat": 21.5833333,
      "lng": 104.8
    },
    {
      "cityName": "Luong Thien",
      "lat": 21.9333333,
      "lng": 103.8833333
    },
    {
      "cityName": "Luu Sang Ho",
      "lat": 22.4,
      "lng": 103.95
    },
    {
      "cityName": "Ly Ta",
      "lat": 22.45,
      "lng": 103.85
    },
    {
      "cityName": "Ly Tzeu Ping",
      "lat": 22.4833333,
      "lng": 104.3333333
    },
    {
      "cityName": "Ma Cha",
      "lat": 22.3666667,
      "lng": 103.85
    },
    {
      "cityName": "Mac Teao Tchay",
      "lat": 22.7666667,
      "lng": 104.1833333
    },
    {
      "cityName": "Ma Ko",
      "lat": 22.7166667,
      "lng": 103.6666667
    },
    {
      "cityName": "Ma Ko Pou La Tiai",
      "lat": 22.7333333,
      "lng": 103.65
    },
    {
      "cityName": "Ma Lu Ten",
      "lat": 21.7833333,
      "lng": 104.15
    },
    {
      "cityName": "Ma Ngan Tchay",
      "lat": 22.6833333,
      "lng": 104.1333333
    },
    {
      "cityName": "Mang Nho",
      "lat": 21.1666667,
      "lng": 104.7833333
    },
    {
      "cityName": "Mang Phay",
      "lat": 22.4833333,
      "lng": 104.45
    },
    {
      "cityName": "Man Mei",
      "lat": 22.6666667,
      "lng": 104.2666667
    },
    {
      "cityName": "Mano Phoui",
      "lat": 22.5666667,
      "lng": 103.7833333
    },
    {
      "cityName": "Mào Gà",
      "lat": 21.75,
      "lng": 104.85
    },
    {
      "cityName": "Mao Mu San Chay",
      "lat": 21.8333333,
      "lng": 104.1333333
    },
    {
      "cityName": "Mao Tao Sang",
      "lat": 22.7,
      "lng": 103.5666667
    },
    {
      "cityName": "Mao Tsao Ping",
      "lat": 22.55,
      "lng": 104.3666667
    },
    {
      "cityName": "Ma Phang Sun Chay",
      "lat": 21.9,
      "lng": 104
    },
    {
      "cityName": "Ma Quay Ho",
      "lat": 22.2166667,
      "lng": 103.95
    },
    {
      "cityName": "Ma Ten",
      "lat": 22.75,
      "lng": 104.1166667
    },
    {
      "cityName": "Mau A",
      "lat": 21.8833333,
      "lng": 104.6833333
    },
    {
      "cityName": "Minh Huong",
      "lat": 21.9333333,
      "lng": 104.1
    },
    {
      "cityName": "Minh Luong",
      "lat": 22.0166667,
      "lng": 104.0333333
    },
    {
      "cityName": "Mít Noi",
      "lat": 22.0833333,
      "lng": 103.8833333
    },
    {
      "cityName": "Míu Cò San Chai",
      "lat": 22.5833333,
      "lng": 103.6166667
    },
    {
      "cityName": "Mo Cho Chay",
      "lat": 21.8333333,
      "lng": 104.0833333
    },
    {
      "cityName": "Moi Oc",
      "lat": 21.05,
      "lng": 104.8
    },
    {
      "cityName": "Mo",
      "lat": 21.8,
      "lng": 103.95
    },
    {
      "cityName": "Mo Nghe",
      "lat": 21.2833333,
      "lng": 104.6666667
    },
    {
      "cityName": "Mong Mai",
      "lat": 22.2833333,
      "lng": 104.35
    },
    {
      "cityName": "Mong Mit",
      "lat": 22.0666667,
      "lng": 103.7666667
    },
    {
      "cityName": "Mong Sen",
      "lat": 22.4,
      "lng": 103.8666667
    },
    {
      "cityName": "Mong Thiat",
      "lat": 22.2666667,
      "lng": 104.1
    },
    {
      "cityName": "Mo Tom",
      "lat": 21.0333333,
      "lng": 104.8333333
    },
    {
      "cityName": "Mou Chè",
      "lat": 22.75,
      "lng": 103.6166667
    },
    {
      "cityName": "Mou Lao",
      "lat": 22.1,
      "lng": 103.8166667
    },
    {
      "cityName": "Moung Xan",
      "lat": 22.5,
      "lng": 103.9166667
    },
    {
      "cityName": "Mou Thi Phu",
      "lat": 21.75,
      "lng": 104.1666667
    },
    {
      "cityName": "Mu Cang Chai",
      "lat": 21.8333333,
      "lng": 104.1
    },
    {
      "cityName": "Muong Ban",
      "lat": 21.1166667,
      "lng": 104.8
    },
    {
      "cityName": "Muong Bo",
      "lat": 22.25,
      "lng": 103.9833333
    },
    {
      "cityName": "Muong Khoa",
      "lat": 22.2166667,
      "lng": 103.7
    },
    {
      "cityName": "Muong Lang",
      "lat": 21.2666667,
      "lng": 104.7333333
    },
    {
      "cityName": "Muong Lon",
      "lat": 22.55,
      "lng": 104.1333333
    },
    {
      "cityName": "Muong Vi",
      "lat": 22.5333333,
      "lng": 103.8
    },
    {
      "cityName": "Mu Pi Phung",
      "lat": 21.9166667,
      "lng": 104.15
    },
    {
      "cityName": "Na An",
      "lat": 22.2166667,
      "lng": 103.6833333
    },
    {
      "cityName": "Nà Bieu",
      "lat": 22.1333333,
      "lng": 104.85
    },
    {
      "cityName": "Nà Bom",
      "lat": 21.7166667,
      "lng": 104.4166667
    },
    {
      "cityName": "Na Coc",
      "lat": 22.1833333,
      "lng": 103.7666667
    },
    {
      "cityName": "Na Cou",
      "lat": 22.3166667,
      "lng": 104.1
    },
    {
      "cityName": "Na Hieu",
      "lat": 22,
      "lng": 104.7
    },
    {
      "cityName": "Nà Hòa",
      "lat": 22.15,
      "lng": 104.65
    },
    {
      "cityName": "Naio Pien",
      "lat": 22.5333333,
      "lng": 103.6833333
    },
    {
      "cityName": "Na Kai",
      "lat": 22.1833333,
      "lng": 103.7166667
    },
    {
      "cityName": "Na Ka",
      "lat": 22.7333333,
      "lng": 104.1666667
    },
    {
      "cityName": "Na Kang",
      "lat": 22.7166667,
      "lng": 104.2833333
    },
    {
      "cityName": "Na Koua",
      "lat": 22.2166667,
      "lng": 103.7333333
    },
    {
      "cityName": "Na Koumg",
      "lat": 22.5166667,
      "lng": 104.0166667
    },
    {
      "cityName": "Na Lang",
      "lat": 22.6166667,
      "lng": 104.0666667
    },
    {
      "cityName": "Na Lao",
      "lat": 22.1666667,
      "lng": 103.7333333
    },
    {
      "cityName": "Na Leing",
      "lat": 21.6666667,
      "lng": 104.4
    },
    {
      "cityName": "Na Lein",
      "lat": 21.6666667,
      "lng": 104.45
    },
    {
      "cityName": "Na Loc",
      "lat": 22.55,
      "lng": 103.8833333
    },
    {
      "cityName": "Na Long",
      "lat": 22.25,
      "lng": 104.7333333
    },
    {
      "cityName": "Na Loung",
      "lat": 22.05,
      "lng": 103.8333333
    },
    {
      "cityName": "Na Mai",
      "lat": 22.4333333,
      "lng": 104.5166667
    },
    {
      "cityName": "Nam Bang",
      "lat": 21.7666667,
      "lng": 104.4833333
    },
    {
      "cityName": "Nam Bo Boun",
      "lat": 22.7666667,
      "lng": 104.15
    },
    {
      "cityName": "Nam Bom",
      "lat": 22.25,
      "lng": 103.7
    },
    {
      "cityName": "Nam Bo",
      "lat": 22.1166667,
      "lng": 103.8166667
    },
    {
      "cityName": "Nâm Búng",
      "lat": 21.7333333,
      "lng": 104.35
    },
    {
      "cityName": "Nam Cat",
      "lat": 21.7166667,
      "lng": 104.2166667
    },
    {
      "cityName": "Nam Chan",
      "lat": 22.0666667,
      "lng": 104.2333333
    },
    {
      "cityName": "Nam Chia",
      "lat": 22.15,
      "lng": 103.7166667
    },
    {
      "cityName": "Nam Chi",
      "lat": 22.4333333,
      "lng": 104.2666667
    },
    {
      "cityName": "Nam Cho",
      "lat": 22.1833333,
      "lng": 104.6833333
    },
    {
      "cityName": "Nam Chon",
      "lat": 22.6333333,
      "lng": 103.7666667
    },
    {
      "cityName": "Nam Cho To",
      "lat": 22.1833333,
      "lng": 103.6833333
    },
    {
      "cityName": "Nam Chuang",
      "lat": 22.4333333,
      "lng": 104.55
    },
    {
      "cityName": "Nam Com",
      "lat": 21.7166667,
      "lng": 104.3666667
    },
    {
      "cityName": "Nam Coung Xo",
      "lat": 22.2,
      "lng": 103.6833333
    },
    {
      "cityName": "Nam Cum",
      "lat": 22.1166667,
      "lng": 103.8
    },
    {
      "cityName": "Nam Cuong",
      "lat": 22.45,
      "lng": 103.9666667
    },
    {
      "cityName": "Nam Do",
      "lat": 22.7333333,
      "lng": 104.15
    },
    {
      "cityName": "Nam Gia",
      "lat": 22.5333333,
      "lng": 104.2333333
    },
    {
      "cityName": "Nam Gian",
      "lat": 22.15,
      "lng": 104.1833333
    },
    {
      "cityName": "Nâm Gièu",
      "lat": 21.7666667,
      "lng": 104.4
    },
    {
      "cityName": "Nam Giun",
      "lat": 21.8,
      "lng": 104.4166667
    },
    {
      "cityName": "Nam Hai",
      "lat": 22.05,
      "lng": 104.0833333
    },
    {
      "cityName": "Nam Hang",
      "lat": 22.7333333,
      "lng": 104.2166667
    },
    {
      "cityName": "Nâm Hanh",
      "lat": 22.35,
      "lng": 104.4
    },
    {
      "cityName": "Nam Heu",
      "lat": 22.3666667,
      "lng": 104.1
    },
    {
      "cityName": "Nam Hoac",
      "lat": 22.3333333,
      "lng": 104.5
    },
    {
      "cityName": "Nam Ja",
      "lat": 22.4333333,
      "lng": 104.3833333
    },
    {
      "cityName": "Nâm Kang",
      "lat": 22.2,
      "lng": 104.0333333
    },
    {
      "cityName": "Nam Kan",
      "lat": 22.2166667,
      "lng": 104.0666667
    },
    {
      "cityName": "Nam Keng",
      "lat": 22.1,
      "lng": 103.6666667
    },
    {
      "cityName": "Nam Kham",
      "lat": 22.1166667,
      "lng": 104.1166667
    },
    {
      "cityName": "Nam Kie",
      "lat": 21.7,
      "lng": 104.4166667
    },
    {
      "cityName": "Nam Kom",
      "lat": 22.4,
      "lng": 104.3666667
    },
    {
      "cityName": "Nam Kouan",
      "lat": 22.1166667,
      "lng": 103.6833333
    },
    {
      "cityName": "Nam Koung",
      "lat": 22.2,
      "lng": 103.75
    },
    {
      "cityName": "Nam Ky",
      "lat": 22.4833333,
      "lng": 104.2166667
    },
    {
      "cityName": "Nam La",
      "lat": 22.4166667,
      "lng": 104.35
    },
    {
      "cityName": "Nam Lang",
      "lat": 22.2833333,
      "lng": 104.05
    },
    {
      "cityName": "Nam Lao",
      "lat": 21.8833333,
      "lng": 103.7166667
    },
    {
      "cityName": "Nam Le",
      "lat": 22.7333333,
      "lng": 104.1333333
    },
    {
      "cityName": "Nam Liên",
      "lat": 22.5333333,
      "lng": 104.2833333
    },
    {
      "cityName": "Nam Loun",
      "lat": 22.35,
      "lng": 104.3166667
    },
    {
      "cityName": "Nam Loup",
      "lat": 22.6833333,
      "lng": 104.0833333
    },
    {
      "cityName": "Nam Luc",
      "lat": 22.0333333,
      "lng": 104.1666667
    },
    {
      "cityName": "Nam Luong",
      "lat": 22.4,
      "lng": 104.2833333
    },
    {
      "cityName": "Nâm Má",
      "lat": 22.1833333,
      "lng": 104.1333333
    },
    {
      "cityName": "Nam Mat Sui Thao",
      "lat": 22.2666667,
      "lng": 104.0333333
    },
    {
      "cityName": "Nam Mien",
      "lat": 22,
      "lng": 104.1333333
    },
    {
      "cityName": "Nam Mit Noi",
      "lat": 22.0666667,
      "lng": 103.8333333
    },
    {
      "cityName": "Nam Moeun",
      "lat": 22.4666667,
      "lng": 104.25
    },
    {
      "cityName": "Nam Mong",
      "lat": 22.1333333,
      "lng": 104.1666667
    },
    {
      "cityName": "Nâm Mou",
      "lat": 22.0166667,
      "lng": 104.0166667
    },
    {
      "cityName": "Nam Muoi",
      "lat": 21.6833333,
      "lng": 104.4833333
    },
    {
      "cityName": "Nam Ngo",
      "lat": 22.45,
      "lng": 104.2666667
    },
    {
      "cityName": "Nam Nham",
      "lat": 22.3666667,
      "lng": 104.4833333
    },
    {
      "cityName": "Na Mo",
      "lat": 22.5333333,
      "lng": 103.7
    },
    {
      "cityName": "Na Mon",
      "lat": 22.6833333,
      "lng": 103.7333333
    },
    {
      "cityName": "Na Mouei",
      "lat": 22.7,
      "lng": 104.05
    },
    {
      "cityName": "Nam Pa",
      "lat": 22.0666667,
      "lng": 103.8
    },
    {
      "cityName": "Nam Pat",
      "lat": 21.9166667,
      "lng": 103.7166667
    },
    {
      "cityName": "Nam Paun",
      "lat": 22.5166667,
      "lng": 103.7166667
    },
    {
      "cityName": "Nam Peng",
      "lat": 21.7333333,
      "lng": 104.3833333
    },
    {
      "cityName": "Nam Pha",
      "lat": 22.05,
      "lng": 103.7333333
    },