{
  "name": "Unnamed region 17",
  "cities": [
    {
      "cityName": "An Bo",
      "lat": 21.0333333,
      "lng": 106.4666667
    },
    {
      "cityName": "An Cau",
      "lat": 20.65,
      "lng": 106.2166667
    },
    {
      "cityName": "An Cu",
      "lat": 20.7833333,
      "lng": 106.2833333
    },
    {
      "cityName": "An Diem",
      "lat": 20.9666667,
      "lng": 106.2333333
    },
    {
      "cityName": "An Ðoài",
      "lat": 21.0333333,
      "lng": 106.3666667
    },
    {
      "cityName": "An Lac",
      "lat": 20.95,
      "lng": 106.0166667
    },
    {
      "cityName": "An Lãng",
      "lat": 20.9833333,
      "lng": 106.5333333
    },
    {
      "cityName": "An Lão",
      "lat": 20.8,
      "lng": 106.4666667
    },
    {
      "cityName": "An Luong",
      "lat": 21,
      "lng": 106.35
    },
    {
      "cityName": "An Nghiep",
      "lat": 20.8,
      "lng": 106.3166667
    },
    {
      "cityName": "An Ninh Noi",
      "lat": 20.9833333,
      "lng": 106.5666667
    },
    {
      "cityName": "An Phuong",
      "lat": 20.65,
      "lng": 106.1166667
    },
    {
      "cityName": "An Qui",
      "lat": 20.75,
      "lng": 106.5
    },
    {
      "cityName": "An Tân",
      "lat": 20.8666667,
      "lng": 106.3333333
    },
    {
      "cityName": "An Thái",
      "lat": 20.9666667,
      "lng": 106.5166667
    },
    {
      "cityName": "An Thi",
      "lat": 20.7333333,
      "lng": 106.1
    },
    {
      "cityName": "An Tho",
      "lat": 20.75,
      "lng": 106.4666667
    },
    {
      "cityName": "Ap Cao Xa",
      "lat": 20.95,
      "lng": 106.2666667
    },
    {
      "cityName": "Ap Mai Trung",
      "lat": 20.95,
      "lng": 106.2
    },
    {
      "cityName": "Ba Hoan",
      "lat": 20.85,
      "lng": 106.4666667
    },
    {
      "cityName": "Bai Thao",
      "lat": 21.2,
      "lng": 106.4
    },
    {
      "cityName": "Bang Cach",
      "lat": 20.8333333,
      "lng": 106.2
    },
    {
      "cityName": "Bang Da",
      "lat": 20.8833333,
      "lng": 106.2166667
    },
    {
      "cityName": "Ban Yen Nhan",
      "lat": 20.95,
      "lng": 106.0333333
    },
    {
      "cityName": "Bao Thap",
      "lat": 20.9166667,
      "lng": 106.3333333
    },
    {
      "cityName": "Bìch Nham",
      "lat": 21.1,
      "lng": 106.4166667
    },
    {
      "cityName": "Bìch Nhôi",
      "lat": 21.05,
      "lng": 106.5833333
    },
    {
      "cityName": "Binh Di",
      "lat": 20.8833333,
      "lng": 106.3666667
    },
    {
      "cityName": "Bình Hà",
      "lat": 20.9,
      "lng": 106.4333333
    },
    {
      "cityName": "Binh Lang",
      "lat": 20.7666667,
      "lng": 106.15
    },
    {
      "cityName": "Bình Lâu",
      "lat": 20.9333333,
      "lng": 106.3333333
    },
    {
      "cityName": "Bình Phú",
      "lat": 20.8833333,
      "lng": 105.9833333
    },
    {
      "cityName": "Bo Duong",
      "lat": 20.7166667,
      "lng": 106.35
    },
    {
      "cityName": "Bo Ho",
      "lat": 20.9833333,
      "lng": 106.45
    },
    {
      "cityName": "Bong Chau",
      "lat": 20.7,
      "lng": 106.0333333
    },
    {
      "cityName": "Bong Lai",
      "lat": 20.75,
      "lng": 106.35
    },
    {
      "cityName": "Bùi Hòa",
      "lat": 20.75,
      "lng": 106.2833333
    },
    {
      "cityName": "Bùi Xá",
      "lat": 20.85,
      "lng": 106.2166667
    },
    {
      "cityName": "Cam Cau",
      "lat": 20.8833333,
      "lng": 106.2666667
    },
    {
      "cityName": "Cam La",
      "lat": 20.9,
      "lng": 106.5166667
    },
    {
      "cityName": "Cam Lâm Dông",
      "lat": 20.9833333,
      "lng": 106.4666667
    },
    {
      "cityName": "Canh Hoach",
      "lat": 20.6833333,
      "lng": 106.1666667
    },
    {
      "cityName": "Cao Duc",
      "lat": 20.8,
      "lng": 106.25
    },
    {
      "cityName": "Cao Quán",
      "lat": 20.8166667,
      "lng": 106.0166667
    },
    {
      "cityName": "Cao Xa",
      "lat": 20.7333333,
      "lng": 106.1833333
    },
    {
      "cityName": "Cap Thuong",
      "lat": 20.9,
      "lng": 106.3833333
    },
    {
      "cityName": "Cat Duong",
      "lat": 20.7166667,
      "lng": 106.2
    },
    {
      "cityName": "Cau Tu",
      "lat": 20.95,
      "lng": 106.6166667
    },
    {
      "cityName": "Châu Xá",
      "lat": 21.0333333,
      "lng": 106.55
    },
    {
      "cityName": "Chi Diên",
      "lat": 21.0166667,
      "lng": 106.4
    },
    {
      "cityName": "Chí Linh",
      "lat": 21.0666667,
      "lng": 106.3166667
    },
    {
      "cityName": "Chi Ngai",
      "lat": 21.1333333,
      "lng": 106.4166667
    },
    {
      "cityName": "Chi Trung",
      "lat": 20.7833333,
      "lng": 106.2333333
    },
    {
      "cityName": "Chúc Khê",
      "lat": 20.85,
      "lng": 106.2833333
    },
    {
      "cityName": "Chung Thon",
      "lat": 20.75,
      "lng": 106.25
    },
    {
      "cityName": "Co Cham",
      "lat": 20.95,
      "lng": 106.4166667
    },
    {
      "cityName": "Coc Ngang",
      "lat": 20.7666667,
      "lng": 106.05
    },
    {
      "cityName": "Co Dung",
      "lat": 20.9666667,
      "lng": 106.45
    },
    {
      "cityName": "Co Manh",
      "lat": 21.2,
      "lng": 106.4166667
    },
    {
      "cityName": "Cong Khe",
      "lat": 20.9333333,
      "lng": 106.5333333
    },
    {
      "cityName": "Cong Luan",
      "lat": 20.9333333,
      "lng": 105.9333333
    },
    {
      "cityName": "Co Phap",
      "lat": 21,
      "lng": 106.3833333
    },
    {
      "cityName": "Co Phuc",
      "lat": 20.95,
      "lng": 106.55
    },
    {
      "cityName": "Cuc Phuong",
      "lat": 20.9333333,
      "lng": 106.3666667
    },
    {
      "cityName": "Cúc Th",
      "lat": 20.7166667,
      "lng": 106.3166667
    },
    {
      "cityName": "Cu Loc",
      "lat": 20.7666667,
      "lng": 106.4166667
    },
    {
      "cityName": "Cu Tri",
      "lat": 20.7666667,
      "lng": 106.2666667
    },
    {
      "cityName": "Cuu Cao",
      "lat": 20.9666667,
      "lng": 105.9666667
    },
    {
      "cityName": "Cuu Thon",
      "lat": 20.8,
      "lng": 106.0666667
    },
    {
      "cityName": "Dac Luong",
      "lat": 20.7666667,
      "lng": 106.35
    },
    {
      "cityName": "Da Coc",
      "lat": 21.1666667,
      "lng": 106.3833333
    },
    {
      "cityName": "Dai Bat",
      "lat": 21.1333333,
      "lng": 106.45
    },
    {
      "cityName": "Dai Hanh",
      "lat": 20.9,
      "lng": 105.9833333
    },
    {
      "cityName": "Dai La",
      "lat": 21.0333333,
      "lng": 106.3166667
    },
    {
      "cityName": "Dai Tan",
      "lat": 21.1333333,
      "lng": 106.4333333
    },
    {
      "cityName": "Ðai Thôn",
      "lat": 21.05,
      "lng": 106.4
    },
    {
      "cityName": "Dai Tu",
      "lat": 20.9833333,
      "lng": 106.0833333
    },
    {
      "cityName": "Da Nghi",
      "lat": 20.7833333,
      "lng": 106.3666667
    },
    {
      "cityName": "Ðan Giáp",
      "lat": 20.7166667,
      "lng": 106.25
    },
    {
      "cityName": "Dang Xa",
      "lat": 20.8333333,
      "lng": 106.0666667
    },
    {
      "cityName": "Dang Xuyen",
      "lat": 20.7833333,
      "lng": 106.0833333
    },
    {
      "cityName": "Ðan Kim",
      "lat": 20.9166667,
      "lng": 105.9333333
    },
    {
      "cityName": "Ðan Tràng",
      "lat": 20.75,
      "lng": 106.1166667
    },
    {
      "cityName": "Dao Dang",
      "lat": 20.6833333,
      "lng": 106.0833333
    },
    {
      "cityName": "Ðào Xá",
      "lat": 20.85,
      "lng": 106.15
    },
    {
      "cityName": "Da Si",
      "lat": 20.9166667,
      "lng": 106.0833333
    },
    {
      "cityName": "Di Che",
      "lat": 20.6833333,
      "lng": 106.1166667
    },
    {
      "cityName": "Dich Son",
      "lat": 21,
      "lng": 106.4833333
    },
    {
      "cityName": "Dich Tri",
      "lat": 20.9166667,
      "lng": 106.05
    },
    {
      "cityName": "Diem Xa",
      "lat": 20.6666667,
      "lng": 106.1833333
    },
    {
      "cityName": "Ðình Cao",
      "lat": 20.7,
      "lng": 106.2
    },
    {
      "cityName": "Ðình Dù",
      "lat": 20.9666667,
      "lng": 106
    },
    {
      "cityName": "Dinh Giang",
      "lat": 20.8833333,
      "lng": 106.5333333
    },
    {
      "cityName": "Ðình Loan",
      "lat": 20.9666667,
      "lng": 105.9833333
    },
    {
      "cityName": "Ðoàn Bai",
      "lat": 20.8333333,
      "lng": 106.3
    },
    {
      "cityName": "Doan Lai",
      "lat": 20.9833333,
      "lng": 106.5833333
    },
    {
      "cityName": "Doi Linh",
      "lat": 21.0666667,
      "lng": 106.35
    },
    {
      "cityName": "Do My",
      "lat": 20.85,
      "lng": 106.1166667
    },
    {
      "cityName": "Dong Ban",
      "lat": 20.9833333,
      "lng": 106.5166667
    },
    {
      "cityName": "Dong Bao",
      "lat": 20.75,
      "lng": 106.45
    },
    {
      "cityName": "Ðông Cao",
      "lat": 20.9333333,
      "lng": 106.1666667
    },
    {
      "cityName": "Ðông Cáp",
      "lat": 20.7166667,
      "lng": 106.1666667
    },
    {
      "cityName": "Ðông Gia",
      "lat": 20.8908333,
      "lng": 106.5127778
    },
    {
      "cityName": "Ðông Hà",
      "lat": 20.9666667,
      "lng": 106.3
    },
    {
      "cityName": "Dong Han",
      "lat": 20.7333333,
      "lng": 106.3666667
    },
    {
      "cityName": "Dong Kenh",
      "lat": 20.8,
      "lng": 106.4333333
    },
    {
      "cityName": "Dong Ket",
      "lat": 20.8166667,
      "lng": 105.9333333
    },
    {
      "cityName": "Ðông La",
      "lat": 20.8,
      "lng": 106.1833333
    },
    {
      "cityName": "Ðông Lâm",
      "lat": 20.7833333,
      "lng": 106.45
    },
    {
      "cityName": "Dong Lo",
      "lat": 20.7,
      "lng": 106.05
    },
    {
      "cityName": "Dong Ly",
      "lat": 20.7333333,
      "lng": 106.0666667
    },
    {
      "cityName": "Dong Mai",
      "lat": 21.0833333,
      "lng": 106.45
    },
    {
      "cityName": "Dong My",
      "lat": 20.8666667,
      "lng": 106.0666667
    },
    {
      "cityName": "Dong Ngo",
      "lat": 20.95,
      "lng": 106.35
    },
    {
      "cityName": "Dong Nhu",
      "lat": 20.9333333,
      "lng": 106.55
    },
    {
      "cityName": "Ðông Rim",
      "lat": 21.15,
      "lng": 106.3666667
    },
    {
      "cityName": "Dong Tai",
      "lat": 20.8,
      "lng": 106.3
    },
    {
      "cityName": "Dong Tao Dong",
      "lat": 20.9,
      "lng": 105.95
    },
    {
      "cityName": "Ðông Than",
      "lat": 20.9,
      "lng": 106.0166667
    },
    {
      "cityName": "Dong Than",
      "lat": 20.9,
      "lng": 106.1
    },
    {
      "cityName": "Ðông Thôn",
      "lat": 20.85,
      "lng": 106.25
    },
    {
      "cityName": "Dong Trach",
      "lat": 20.7166667,
      "lng": 106.3333333
    },
    {
      "cityName": "Dong Xa",
      "lat": 20.9166667,
      "lng": 106.2333333
    },
    {
      "cityName": "Dong Yen",
      "lat": 20.8,
      "lng": 106.05
    },
    {
      "cityName": "Do Xa",
      "lat": 20.8333333,
      "lng": 106.1
    },
    {
      "cityName": "Duc Chiem",
      "lat": 20.7,
      "lng": 106
    },
    {
      "cityName": "Duc Ninh",
      "lat": 20.7166667,
      "lng": 105.9833333
    },
    {
      "cityName": "Duc Phong",
      "lat": 20.8666667,
      "lng": 106.3
    },
    {
      "cityName": "Duc Tra",
      "lat": 20.9833333,
      "lng": 106.25
    },
    {
      "cityName": "Duc Tr",
      "lat": 21.0166667,
      "lng": 106.3166667
    },
    {
      "cityName": "Du La",
      "lat": 20.9166667,
      "lng": 106.4333333
    },
    {
      "cityName": "Duoc Son-Kang Bac",
      "lat": 21.15,
      "lng": 106.3333333
    },
    {
      "cityName": "Duong Chinh",
      "lat": 20.9666667,
      "lng": 106.6333333
    },
    {
      "cityName": "Duong Hoa",
      "lat": 20.9166667,
      "lng": 106.15
    },
    {
      "cityName": "Duong Nham",
      "lat": 21.0333333,
      "lng": 106.5166667
    },
    {
      "cityName": "Duong Phu",
      "lat": 20.75,
      "lng": 106.0833333
    },
    {
      "cityName": "Duong Quang",
      "lat": 20.9166667,
      "lng": 106.2833333
    },
    {
      "cityName": "Duong Xa",
      "lat": 20.9333333,
      "lng": 106.1166667
    },
    {
      "cityName": "Duyên An",
      "lat": 20.7166667,
      "lng": 106.05
    },
    {
      "cityName": "Duyên Linh",
      "lat": 21.0333333,
      "lng": 106.5333333
    },
    {
      "cityName": "Duyet Le",
      "lat": 20.7666667,
      "lng": 106.1833333
    },
    {
      "cityName": "Gia Coc",
      "lat": 20.7666667,
      "lng": 106.2333333
    },
    {
      "cityName": "Giap Ninh Binh",
      "lat": 20.8666667,
      "lng": 106.1833333
    },
    {
      "cityName": "Gic Coc",
      "lat": 20.7666667,
      "lng": 106.25
    },
    {
      "cityName": "Ha Chieu",
      "lat": 21.05,
      "lng": 106.5666667
    },
    {
      "cityName": "Ha Chuong",
      "lat": 20.8333333,
      "lng": 106.4833333
    },
    {
      "cityName": "Ha Hai",
      "lat": 20.7333333,
      "lng": 106.4333333
    },
    {
      "cityName": "Hai An",
      "lat": 20.6666667,
      "lng": 106.1333333
    },
    {
      "cityName": "Hai Ho",
      "lat": 20.95,
      "lng": 106.2833333
    },
    {
      "cityName": "Hai Ninh",
      "lat": 20.9166667,
      "lng": 106.5166667
    },
    {
      "cityName": "Hàn Lam",
      "lat": 20.8166667,
      "lng": 106.2333333
    },
    {
      "cityName": "Hán Lý",
      "lat": 20.7166667,
      "lng": 106.3
    },
    {
      "cityName": "Han Thuong",
      "lat": 20.95,
      "lng": 106.3166667
    },
    {
      "cityName": "Hào Khê",
      "lat": 20.7,
      "lng": 106.3
    },
    {
      "cityName": "Hào Xá",
      "lat": 20.9,
      "lng": 106.45
    },
    {
      "cityName": "Ha Thon",
      "lat": 20.8166667,
      "lng": 105.9833333
    },
    {
      "cityName": "Hau Bong",
      "lat": 20.7833333,
      "lng": 106.2666667
    },
    {
      "cityName": "Hau Chung",
      "lat": 20.7333333,
      "lng": 106.45
    },
    {
      "cityName": "Hau Quan",
      "lat": 21.0833333,
      "lng": 106.35
    },
    {
      "cityName": "Hau Xa",
      "lat": 20.7166667,
      "lng": 106.0833333
    },
    {
      "cityName": "Hòa Bình",
      "lat": 20.9333333,
      "lng": 105.9666667
    },
    {
      "cityName": "Hòa Ðam",
      "lat": 20.95,
      "lng": 106.15
    },
    {
      "cityName": "Hoa Lac Pho",
      "lat": 21.1166667,
      "lng": 106.3166667
    },
    {
      "cityName": "Hoàng Các",
      "lat": 20.7,
      "lng": 106.2166667
    },
    {
      "cityName": "Hoang Do",
      "lat": 20.8,
      "lng": 106.2833333
    },
    {
      "cityName": "Hoàng Gia",
      "lat": 20.9666667,
      "lng": 106.2666667
    },
    {
      "cityName": "Hoang Thach",
      "lat": 21.0333333,
      "lng": 106.5833333
    },
    {
      "cityName": "Hoàng Tranh",
      "lat": 20.7333333,
      "lng": 106.15
    },
    {
      "cityName": "Hoàng Xuyên",
      "lat": 20.8,
      "lng": 106.1333333
    },
    {
      "cityName": "Hoanh Bo",
      "lat": 20.7666667,
      "lng": 106.2
    },
    {
      "cityName": "Huong Dao",
      "lat": 20.9833333,
      "lng": 106.0166667
    },
    {
      "cityName": "Huong Giang",
      "lat": 20.9,
      "lng": 106.2166667
    },
    {
      "cityName": "Huong Quat",
      "lat": 20.7666667,
      "lng": 106
    },
    {
      "cityName": "Huu Chung",
      "lat": 20.7333333,
      "lng": 106.3166667
    },
    {
      "cityName": "Huu Hien",
      "lat": 20.8333333,
      "lng": 106.4333333
    },
    {
      "cityName": "Huu Loc",
      "lat": 21.1,
      "lng": 106.35
    },
    {
      "cityName": "Huyên Bô",
      "lat": 20.8666667,
      "lng": 106.2666667
    },
    {
      "cityName": "Ke Chau",
      "lat": 20.6833333,
      "lng": 106.0333333
    },
    {
      "cityName": "Ke Sat",
      "lat": 20.9,
      "lng": 106.15
    },
    {
      "cityName": "Ke Son",
      "lat": 21.05,
      "lng": 106.5166667
    },
    {
      "cityName": "Khuyen Thien",
      "lat": 20.9666667,
      "lng": 106.1166667
    },
    {
      "cityName": "Kiêm Thôn",
      "lat": 20.8,
      "lng": 106.3333333
    },
    {
      "cityName": "Kien Chau",
      "lat": 20.8333333,
      "lng": 105.9166667
    },
    {
      "cityName": "Kim Áng",
      "lat": 20.8666667,
      "lng": 106.55
    },
    {
      "cityName": "Kim Can",
      "lat": 20.9166667,
      "lng": 106.4833333
    },
    {
      "cityName": "Kim Chue",
      "lat": 20.7666667,
      "lng": 106.3
    },
    {
      "cityName": "Kim Ðiên",
      "lat": 21.1666667,
      "lng": 106.3333333
    },
    {
      "cityName": "Kim Ðôi",
      "lat": 20.9833333,
      "lng": 106.2166667
    },
    {
      "cityName": "Kim Húc",
      "lat": 20.7833333,
      "lng": 106.3
    },
    {
      "cityName": "Kim Lu",
      "lat": 20.8833333,
      "lng": 106.1333333
    },
    {
      "cityName": "Kim Xuyên",
      "lat": 21.0166667,
      "lng": 106.5166667
    },
    {
      "cityName": "Kinh Duong",
      "lat": 20.8333333,
      "lng": 106.15
    },
    {
      "cityName": "Kinh Khê",
      "lat": 20.8,
      "lng": 105.9666667
    },
    {
      "cityName": "Ky Dac",
      "lat": 21.0833333,
      "lng": 106.3333333
    },
    {
      "cityName": "Lac Duc",
      "lat": 20.8666667,
      "lng": 106.3666667
    },
    {
      "cityName": "Lac Son",
      "lat": 21.0666667,
      "lng": 106.4
    },
    {
      "cityName": "Lac Thien",
      "lat": 20.8666667,
      "lng": 106.5
    },
    {
      "cityName": "La Giàng",
      "lat": 20.8,
      "lng": 106.4166667
    },
    {
      "cityName": "Lai Cách",
      "lat": 20.95,
      "lng": 106.2333333
    },
    {
      "cityName": "Lai Khê",
      "lat": 20.9833333,
      "lng": 106.4333333
    },
    {
      "cityName": "Lai Vu",
      "lat": 20.9833333,
      "lng": 106.4166667
    },
    {
      "cityName": "Lai Xa",
      "lat": 20.8666667,
      "lng": 106.4666667
    },
    {
      "cityName": "La Khê",
      "lat": 20.75,
      "lng": 106.3666667
    },
    {
      "cityName": "Lang Dong",
      "lat": 20.9,
      "lng": 106.4
    },
    {
      "cityName": "Lang Khue",
      "lat": 21.1833333,
      "lng": 106.3666667
    },
    {
      "cityName": "Làng Sui",
      "lat": 21.1166667,
      "lng": 106.4
    },
    {
      "cityName": "Lap Le",
      "lat": 20.8166667,
      "lng": 106.45
    },
    {
      "cityName": "La Tinh",
      "lat": 20.8166667,
      "lng": 106.4166667
    },
    {
      "cityName": "Lau Dong",
      "lat": 21.0333333,
      "lng": 106.4166667
    },
    {
      "cityName": "Lâu Khê",
      "lat": 21.05,
      "lng": 106.3166667
    },
    {
      "cityName": "La Xá",
      "lat": 20.9833333,
      "lng": 106.4833333
    },
    {
      "cityName": "Le Do",
      "lat": 20.9480556,
      "lng": 106.5097222
    },
    {
      "cityName": "Linh Ha",
      "lat": 20.7,
      "lng": 106.0833333
    },
    {
      "cityName": "Linh Khê",
      "lat": 21.0333333,
      "lng": 106.35
    },
    {
      "cityName": "Loan Dã",
      "lat": 18.1833333,
      "lng": 105.65
    },
    {
      "cityName": "Lôc Ða",
      "lat": 21.15,
      "lng": 106.4333333
    },
    {
      "cityName": "Loc Yen",
      "lat": 18.1666667,
      "lng": 105.7
    },
    {
      "cityName": "Lôi Khê",
      "lat": 20.8666667,
      "lng": 106.2166667
    },
    {
      "cityName": "Long Cau",
      "lat": 20.7333333,
      "lng": 106.1666667
    },
    {
      "cityName": "Lo Son",
      "lat": 21.0166667,
      "lng": 106.5666667
    },
    {
      "cityName": "Luc Dap",
      "lat": 20.7166667,
      "lng": 106.3833333
    },
    {
      "cityName": "Luc Dien",
      "lat": 20.8666667,
      "lng": 106.0166667
    },
    {
      "cityName": "Luc Nong",
      "lat": 20.95,
      "lng": 106.5833333
    },
    {
      "cityName": "Luong Lai",
      "lat": 20.8666667,
      "lng": 106.4166667
    },
    {
      "cityName": "Luong Tai",
      "lat": 20.9666667,
      "lng": 106.1333333
    },
    {
      "cityName": "Luong Xa",
      "lat": 20.7,
      "lng": 106.0666667
    },
    {
      "cityName": "Luu Xa",
      "lat": 20.7666667,
      "lng": 106.1166667
    },
    {
      "cityName": "Luy Dung",
      "lat": 20.8666667,
      "lng": 106.35
    },
    {
      "cityName": "Ly Do",
      "lat": 20.8833333,
      "lng": 106.2
    },
    {
      "cityName": "Ly Duong",
      "lat": 21.0833333,
      "lng": 106.3166667
    },
    {
      "cityName": "Mac Cau",
      "lat": 21,
      "lng": 106.2833333
    },
    {
      "cityName": "Mai Dông",
      "lat": 20.7666667,
      "lng": 106.2833333
    },
    {
      "cityName": "Mai Xá",
      "lat": 20.7333333,
      "lng": 106.05
    },
    {
      "cityName": "Mai Xuyên",
      "lat": 20.8,
      "lng": 106.1166667
    },
    {
      "cityName": "Man Tru Chau",
      "lat": 20.8166667,
      "lng": 105.9166667
    },
    {
      "cityName": "Mao Cau",
      "lat": 20.7833333,
      "lng": 106.1166667
    },
    {
      "cityName": "Mao Dien",
      "lat": 20.9333333,
      "lng": 106.1833333
    },
    {
      "cityName": "Mat Son",
      "lat": 21.1,
      "lng": 106.3666667
    },
    {
      "cityName": "Mau Cong",
      "lat": 20.7833333,
      "lng": 106.4833333
    },
    {
      "cityName": "Me Chau",
      "lat": 20.7,
      "lng": 106.0166667
    },
    {
      "cityName": "Mo Trach",
      "lat": 20.8666667,
      "lng": 106.1666667
    },
    {
      "cityName": "Mua Thon",
      "lat": 20.9,
      "lng": 106.35
    },
    {
      "cityName": "My Cau",
      "lat": 20.8833333,
      "lng": 106.1666667
    },
    {
      "cityName": "My Xa",
      "lat": 20.9833333,
      "lng": 106.1
    },
    {
      "cityName": "Nai Khe",
      "lat": 20.6833333,
      "lng": 106.2
    },
    {
      "cityName": "Nam Giang",
      "lat": 20.9666667,
      "lng": 106.3166667
    },
    {
      "cityName": "Ngai Duong",
      "lat": 20.9666667,
      "lng": 106.0166667
    },
    {
      "cityName": "Nghia Lo",
      "lat": 20.9833333,
      "lng": 106.05
    },
    {
      "cityName": "Nghia Vu",
      "lat": 20.7666667,
      "lng": 106.1666667
    },
    {
      "cityName": "Nghi Xuyên",
      "lat": 20.7833333,
      "lng": 105.9666667
    },
    {
      "cityName": "Ngoc Cuc",
      "lat": 20.85,
      "lng": 106.1666667
    },
    {
      "cityName": "Ngoc Dong",
      "lat": 20.7166667,
      "lng": 106.0333333
    },
    {
      "cityName": "Ngoc Khuyet",
      "lat": 20.9666667,
      "lng": 106.1666667
    },
    {
      "cityName": "Ngoc Lam",
      "lat": 20.8166667,
      "lng": 106.35
    },
    {
      "cityName": "Ngoc Lap",
      "lat": 20.8,
      "lng": 106.1666667
    },
    {
      "cityName": "Ngoc Tai",
      "lat": 20.85,
      "lng": 106.3666667
    },
    {
      "cityName": "Ngoc Tri",
      "lat": 20.9833333,
      "lng": 106.3833333
    },
    {
      "cityName": "Ngo Dinh",
      "lat": 20.9833333,
      "lng": 106.3
    },
    {
      "cityName": "Ngô Xá",
      "lat": 20.7833333,
      "lng": 106.0333333
    },
    {
      "cityName": "Ngô Xuyên",
      "lat": 20.9833333,
      "lng": 106
    },
    {
      "cityName": "Ngu Lao",
      "lat": 20.7333333,
      "lng": 106.2166667
    },
    {
      "cityName": "Nhan Hoa Thuong",
      "lat": 20.8833333,
      "lng": 106.0666667
    },
    {
      "cityName": "Nhân Hòa Trung",
      "lat": 20.8833333,
      "lng": 106.05
    },
    {
      "cityName": "Nhan Le",
      "lat": 20.9833333,
      "lng": 106.35
    },
    {
      "cityName": "Nhân Lý",
      "lat": 20.7833333,
      "lng": 106.1
    },
    {
      "cityName": "Nhan Nghia",
      "lat": 20.95,
      "lng": 106.3666667
    },
    {
      "cityName": "Nho Lâm",
      "lat": 20.7166667,
      "lng": 106
    },
    {
      "cityName": "Nhu Quynh",
      "lat": 20.9833333,
      "lng": 105.9833333
    },
    {
      "cityName": "Nhu Tinh",
      "lat": 20.8,
      "lng": 106.3666667
    },
    {
      "cityName": "Ninh Giang",
      "lat": 20.7333333,
      "lng": 106.4
    },
    {
      "cityName": "Ninh Tâu",
      "lat": 20.7833333,
      "lng": 105.95
    },
    {
      "cityName": "Ninh Trap",
      "lat": 21.0833333,
      "lng": 106.4
    },
    {
      "cityName": "Ninh Xá",
      "lat": 21.05,
      "lng": 106.45
    },
    {
      "cityName": "Noi Doanh",
      "lat": 20.8,
      "lng": 105.9333333
    },
    {
      "cityName": "Noi Thon",
      "lat": 21.0666667,
      "lng": 106.3833333
    },
    {
      "cityName": "Oc Nhieu",
      "lat": 20.9166667,
      "lng": 106
    },
    {
      "cityName": "Pha Lai",
      "lat": 21.1166667,
      "lng": 106.3
    },
    {
      "cityName": "Pham Lam",
      "lat": 20.8333333,
      "lng": 106.2333333
    },
    {
      "cityName": "Phan Thuy",
      "lat": 20.75,
      "lng": 106.0333333
    },
    {
      "cityName": "Phan Xá",
      "lat": 20.85,
      "lng": 106.3333333
    },
    {
      "cityName": "Phap Co",
      "lat": 21.0166667,
      "lng": 106.5833333
    },
    {
      "cityName": "Phì Già",
      "lat": 20.9,
      "lng": 106.5
    },
    {
      "cityName": "Phi Liet",
      "lat": 21.0166667,
      "lng": 106.6
    },
    {
      "cityName": "Phong Lâm",
      "lat": 20.8333333,
      "lng": 106.3333333
    },
    {
      "cityName": "Phó Nham",
      "lat": 20.75,
      "lng": 105.9833333
    },
    {
      "cityName": "Phù Anh",
      "lat": 20.6666667,
      "lng": 106.2166667
    },
    {
      "cityName": "Phuc Cau",
      "lat": 20.9333333,
      "lng": 106.2166667
    },
    {
      "cityName": "Phúc Gioi",
      "lat": 20.85,
      "lng": 106.4833333
    },
    {
      "cityName": "Phúc Lâm",
      "lat": 20.7833333,
      "lng": 106.4
    },
    {
      "cityName": "Phuc Le",
      "lat": 20.7166667,
      "lng": 106.0166667
    },
    {
      "cityName": "Phu Coc",
      "lat": 20.7833333,
      "lng": 106.0666667
    },
    {
      "cityName": "Phuc Thien",
      "lat": 21.1333333,
      "lng": 106.4666667
    },
    {
      "cityName": "Phu Cuu",
      "lat": 20.7,
      "lng": 106.2666667
    },
    {
      "cityName": "Phúc Xá",
      "lat": 20.9333333,
      "lng": 106.2
    },
    {
      "cityName": "Phú Ða",
      "lat": 20.9333333,
      "lng": 106.05
    },
    {
      "cityName": "Phú Hòa",
      "lat": 20.8333333,
      "lng": 105.9666667
    },
    {
      "cityName": "Phu Me",
      "lat": 20.75,
      "lng": 106.2333333
    },
    {
      "cityName": "Phùng Xá",
      "lat": 20.7666667,
      "lng": 106.3166667
    },
    {
      "cityName": "Phuong Dau",
      "lat": 20.85,
      "lng": 106.4333333
    },
    {
      "cityName": "Phuong Do",
      "lat": 20.6166667,
      "lng": 106.0666667
    },
    {
      "cityName": "Phuong Duc",
      "lat": 20.9666667,
      "lng": 106.4666667
    },
    {
      "cityName": "Phuong Duong",
      "lat": 20.7166667,
      "lng": 106.2333333
    },
    {
      "cityName": "Phuong Khe",
      "lat": 20.8333333,
      "lng": 106.3166667
    },
    {
      "cityName": "Phuong Tra",
      "lat": 20.6166667,
      "lng": 106.1
    },
    {
      "cityName": "Phuong Tru",
      "lat": 20.8333333,
      "lng": 105.9333333
    },
    {
      "cityName": "Phú Th",
      "lat": 20.9,
      "lng": 105.9166667
    },
    {
      "cityName": "Phu Trieu",
      "lat": 20.9,
      "lng": 106.3
    },
    {
      "cityName": "Phu Ung",
      "lat": 20.8666667,
      "lng": 106.15
    },
    {
      "cityName": "Quang Duc",
      "lat": 20.7,
      "lng": 106.3666667
    },
    {
      "cityName": "Quang Tien",
      "lat": 20.8833333,
      "lng": 106.1833333
    },
    {
      "cityName": "Quang Trí",
      "lat": 21.0333333,
      "lng": 106.4833333
    },
    {
      "cityName": "Quang Xuyen",
      "lat": 20.8166667,
      "lng": 106.4333333
    },
    {
      "cityName": "Quí Cao",
      "lat": 20.7666667,
      "lng": 106.4833333
    },
    {
      "cityName": "Quynh Coi Ha",
      "lat": 20.8166667,
      "lng": 106.25
    },
    {
      "cityName": "Sài Th",
      "lat": 20.7666667,
      "lng": 105.9833333
    },
    {
      "cityName": "Sài Trang",
      "lat": 20.8833333,
      "lng": 106.0333333
    },
    {
      "cityName": "Sa Lung",
      "lat": 20.8833333,
      "lng": 106.15
    },
    {
      "cityName": "Tái Bô",
      "lat": 21.15,
      "lng": 106.4166667
    },
    {
      "cityName": "Tam Ða",
      "lat": 20.6833333,
      "lng": 106.2333333
    },
    {
      "cityName": "Tam Luong",
      "lat": 20.8833333,
      "lng": 106.3333333
    },
    {
      "cityName": "Tân Áp",
      "lat": 21.0833333,
      "lng": 106.4333333
    },
    {
      "cityName": "Tang Ha",
      "lat": 20.8833333,
      "lng": 106.3166667
    },
    {
      "cityName": "Tào Khê",
      "lat": 20.7333333,
      "lng": 106.2333333
    },
    {
      "cityName": "Tát Viên",
      "lat": 20.6666667,
      "lng": 106.1
    },
    {
      "cityName": "Ta Xa",
      "lat": 21.05,
      "lng": 106.3333333
    },
    {
      "cityName": "Te Son",
      "lat": 21.0333333,
      "lng": 106.4
    },
    {
      "cityName": "Thach Khoi",
      "lat": 20.9166667,
      "lng": 106.3166667
    },
    {
      "cityName": "Thái Mông",
      "lat": 21.0333333,
      "lng": 106.4333333
    },
    {
      "cityName": "Thanh Cuong",
      "lat": 20.9333333,
      "lng": 106.3
    },
    {
      "cityName": "Thanh Khê",
      "lat": 20.95,
      "lng": 106.0666667
    },
    {
      "cityName": "Thanh Ky",
      "lat": 20.8,
      "lng": 106.45
    },
    {
      "cityName": "Thanh Lãng",
      "lat": 20.9666667,
      "lng": 106.6166667
    },
    {
      "cityName": "Thanh Lieu",
      "lat": 20.9,
      "lng": 106.3333333
    },
    {
      "cityName": "Thanh Mai",
      "lat": 21.2,
      "lng": 106.45
    },
    {
      "cityName": "Thanh Tao",
      "lat": 21.1666667,
      "lng": 106.35
    },
    {
      "cityName": "Thiên Khê",
      "lat": 20.9833333,
      "lng": 106.3166667
    },
    {
      "cityName": "Thiên Xuân",
      "lat": 20.7166667,
      "lng": 106.1166667
    },
    {
      "cityName": "Thi Vien",
      "lat": 20.6833333,
      "lng": 106.25
    },
    {
      "cityName": "Tho Cau",
      "lat": 20.7833333,
      "lng": 106.05
    },
    {
      "cityName": "Tho Hoang",
      "lat": 20.8166667,
      "lng": 106.0833333
    },
    {
      "cityName": "Thong Do",
      "lat": 20.8166667,
      "lng": 106.2833333
    },
    {
      "cityName": "Thong Linh",
      "lat": 20.8666667,
      "lng": 106.45
    },
    {
      "cityName": "Tho Truong",
      "lat": 20.8,
      "lng": 106.2166667
    },
    {
      "cityName": "Thua Liet",
      "lat": 20.8833333,
      "lng": 106.4
    },
    {
      "cityName": "Thuan Le",
      "lat": 20.7833333,
      "lng": 106
    },
    {
      "cityName": "Thuong Coc",
      "lat": 20.8666667,
      "lng": 106.3166667
    },
    {
      "cityName": "Thuong Coi",
      "lat": 20.9833333,
      "lng": 106.6
    },
    {
      "cityName": "Thuong Tra",
      "lat": 21.05,
      "lng": 106.55
    },
    {
      "cityName": "Thu Th",
      "lat": 20.9,
      "lng": 106.05
    },
    {
      "cityName": "Thuy Loi",
      "lat": 20.6666667,
      "lng": 106.15
    },
    {
      "cityName": "Tien Cau",
      "lat": 20.7166667,
      "lng": 106.0666667
    },
    {
      "cityName": "Tien Kieu",
      "lat": 20.8333333,
      "lng": 106.4666667
    },
    {
      "cityName": "Tien Phuong",
      "lat": 20.65,
      "lng": 106.0833333
    },
    {
      "cityName": "Tiên Quán",
      "lat": 20.75,
      "lng": 106.0666667
    },
    {
      "cityName": "Tien Tao",
      "lat": 20.9333333,
      "lng": 106.45
    },
    {
      "cityName": "Tiên Thôn",
      "lat": 20.6333333,
      "lng": 106.1166667
    },
    {
      "cityName": "Tiên Xá",
      "lat": 20.7,
      "lng": 106.1166667
    },
    {
      "cityName": "Tieu Quam",
      "lat": 20.8166667,
      "lng": 106
    },
    {
      "cityName": "Toai Yen",
      "lat": 20.8333333,
      "lng": 106.4166667
    },
    {
      "cityName": "Tong Long",
      "lat": 21,
      "lng": 106.45
    },
    {
      "cityName": "Tong Xa Ha",
      "lat": 20.9666667,
      "lng": 106.5666667
    },
    {
      "cityName": "Tra Bo",
      "lat": 20.75,
      "lng": 106.1666667
    },
    {
      "cityName": "Trai Dat",
      "lat": 21.1833333,
      "lng": 106.4666667
    },
    {
      "cityName": "Tram Dien",
      "lat": 21.1833333,
      "lng": 106.3166667
    },
    {
      "cityName": "Tram Lo",
      "lat": 21.0666667,
      "lng": 106.4666667
    },
    {
      "cityName": "Trình Xá",
      "lat": 20.7166667,
      "lng": 106.1333333
    },
    {
      "cityName": "Trúc Thôn",
      "lat": 21.1333333,
      "lng": 106.4
    },
    {
      "cityName": "Trung Hòa",
      "lat": 21,
      "lng": 106.4333333
    },
    {
      "cityName": "Tu Da",
      "lat": 20.95,
      "lng": 106.5666667
    },
    {
      "cityName": "Tu Dong",
      "lat": 20.85,
      "lng": 106.05
    },
    {
      "cityName": "Tu Lac",
      "lat": 21.0333333,
      "lng": 106.6166667
    },
    {
      "cityName": "Tu O",
      "lat": 20.7833333,
      "lng": 106.15
    },
    {
      "cityName": "Tu Xa",
      "lat": 20.7833333,
      "lng": 106.1666667
    },
    {
      "cityName": "Tuy Lai",
      "lat": 20.9166667,
      "lng": 106.1666667
    },
    {
      "cityName": "Uc Tai",
      "lat": 20.7833333,
      "lng": 106.4166667
    },
    {
      "cityName": "Van Chanh",
      "lat": 21.0166667,
      "lng": 106.5333333
    },
    {
      "cityName": "Van Hoi",
      "lat": 20.7166667,
      "lng": 106.2666667
    },
    {
      "cityName": "Van Nhue",
      "lat": 20.8166667,
      "lng": 106.1333333
    },
    {
      "cityName": "Van O",
      "lat": 21,
      "lng": 106.5166667
    },
    {
      "cityName": "Van Tue",
      "lat": 20.9333333,
      "lng": 106.4166667
    },
    {
      "cityName": "Ve Duong",
      "lat": 20.8333333,
      "lng": 106.1333333
    },
    {
      "cityName": "Viên Quang",
      "lat": 20.75,
      "lng": 106.2
    },
    {
      "cityName": "Viet Khe",
      "lat": 20.9666667,
      "lng": 106.6
    },
    {
      "cityName": "Vinh Hau",
      "lat": 20.7666667,
      "lng": 106.0166667
    },
    {
      "cityName": "Vinh Lam",
      "lat": 21.05,
      "lng": 106.4833333
    },
    {
      "cityName": "Vinh Phuc",
      "lat": 20.75,
      "lng": 106.0166667
    },
    {
      "cityName": "Vinh Tru",
      "lat": 21.05,
      "lng": 106.3833333
    },
    {
      "cityName": "Vinh Xuyen",
      "lat": 20.75,
      "lng": 106.3833333
    },
    {
      "cityName": "Vo Hoi",
      "lat": 20.7833333,
      "lng": 106.25
    },
    {
      "cityName": "Vo Ngai",
      "lat": 20.9,
      "lng": 106.1166667
    },
    {
      "cityName": "Võng Phàn",
      "lat": 20.65,
      "lng": 106.2
    },
    {
      "cityName": "Vu Xa",
      "lat": 20.8166667,
      "lng": 106.1666667
    },
    {
      "cityName": "Xam Kho",
      "lat": 20.8833333,
      "lng": 105.9166667
    },
    {
      "cityName": "Xâm Khue",
      "lat": 21,
      "lng": 106.1166667
    },
    {
      "cityName": "Xuán Dám",
      "lat": 20.8833333,
      "lng": 106.4666667
    },
    {
      "cityName": "Xuân Ðào",
      "lat": 20.9166667,
      "lng": 106.1333333
    },
    {
      "cityName": "Yên Châu",
      "lat": 20.6166667,
      "lng": 106.0833333
    },
    {
      "cityName": "Yen Cuong",
      "lat": 21,
      "lng": 106.5333333
    },
    {
      "cityName": "Yên Dân",
      "lat": 20.8666667,
      "lng": 106
    },
    {
      "cityName": "Yèn Ðiên",
      "lat": 21,
      "lng": 106.4
    },
    {
      "cityName": "Yén Do",
      "lat": 20.85,
      "lng": 106.0666667
    },
    {
      "cityName": "Yen Lac",
      "lat": 20.8333333,
      "lng": 106.0166667
    },
    {
      "cityName": "Yen Lae",
      "lat": 20.8,
      "lng": 106.2
    },
    {
      "cityName": "Yên Phòng",
      "lat": 20.8166667,
      "lng": 106.3666667
    },
    {
      "cityName": "Yèn Tao",
      "lat": 20.6833333,
      "lng": 106.0666667
    },
    {
      "cityName": "Yen Tap",
      "lat": 20.9333333,
      "lng": 106.0833333
    },
    {
      "cityName": "Yen Vinh",
      "lat": 20.8666667,
      "lng": 105.95
    },
    {
      "cityName": "Yen Vi",
      "lat": 20.85,
      "lng": 105.9833333
    }
  ]
}