{
  "name": "Lam Dong",
  "cities": [
    {
      "cityName": "Ankroet",
      "lat": 11.9833333,
      "lng": 108.35
    },
    {
      "cityName": "Ap Bo Ray",
      "lat": 11.3833333,
      "lng": 108.1
    },
    {
      "cityName": "Ap Dai Nga",
      "lat": 11.5333333,
      "lng": 107.8666667
    },
    {
      "cityName": "Ap Da Loc",
      "lat": 11.9333333,
      "lng": 108.5166667
    },
    {
      "cityName": "Ap Da Loi",
      "lat": 11.9333333,
      "lng": 108.4666667
    },
    {
      "cityName": "Ap Dang Gia Dit",
      "lat": 12.05,
      "lng": 108.4
    },
    {
      "cityName": "Ap Dangia",
      "lat": 12.0166667,
      "lng": 108.4333333
    },
    {
      "cityName": "Ap Dan Kia",
      "lat": 12.0166667,
      "lng": 108.4
    },
    {
      "cityName": "Ap Da Thanh",
      "lat": 11.9666667,
      "lng": 108.4333333
    },
    {
      "cityName": "Ap Da Thien",
      "lat": 11.9666667,
      "lng": 108.45
    },
    {
      "cityName": "Ap Dinh An",
      "lat": 11.8833333,
      "lng": 108.4833333
    },
    {
      "cityName": "Ap Dong Thanh",
      "lat": 11.7833333,
      "lng": 108.5333333
    },
    {
      "cityName": "Ap Gia Bac",
      "lat": 11.3333333,
      "lng": 108.0833333
    },
    {
      "cityName": "Ap Kim Thach",
      "lat": 11.9666667,
      "lng": 108.4166667
    },
    {
      "cityName": "Ap Klong Jum",
      "lat": 11.5166667,
      "lng": 108.0833333
    },
    {
      "cityName": "Ap Kroet",
      "lat": 11.9833333,
      "lng": 108.3666667
    },
    {
      "cityName": "Ap Lac Binh",
      "lat": 11.8166667,
      "lng": 108.5666667
    },
    {
      "cityName": "Ap Lac Vien",
      "lat": 11.8,
      "lng": 108.55
    },
    {
      "cityName": "Ap Lac Xuan",
      "lat": 11.8333333,
      "lng": 108.5833333
    },
    {
      "cityName": "Ap Lam Lac",
      "lat": 11.5166667,
      "lng": 107.9166667
    },
    {
      "cityName": "Ap Lam Phu",
      "lat": 11.55,
      "lng": 107.9166667
    },
    {
      "cityName": "Ap Lam Tuyen",
      "lat": 11.8333333,
      "lng": 108.6166667
    },
    {
      "cityName": "Ap Lat",
      "lat": 12.0333333,
      "lng": 108.4833333
    },
    {
      "cityName": "Ap Lien Dam",
      "lat": 11.5333333,
      "lng": 107.9333333
    },
    {
      "cityName": "Ap Long Son",
      "lat": 10.95,
      "lng": 108.3333333
    },
    {
      "cityName": "Ap Man Ling",
      "lat": 11.9833333,
      "lng": 108.4
    },
    {
      "cityName": "Ap M'rang",
      "lat": 11.7833333,
      "lng": 108.5166667
    },
    {
      "cityName": "Ap Phuoc Thanh",
      "lat": 11.9833333,
      "lng": 108.4333333
    },
    {
      "cityName": "Ap Phu Thuan",
      "lat": 11.8333333,
      "lng": 108.6333333
    },
    {
      "cityName": "Ap Sre Pa",
      "lat": 11.35,
      "lng": 108.0833333
    },
    {
      "cityName": "Ap Tan Ha",
      "lat": 11.5333333,
      "lng": 107.7833333
    },
    {
      "cityName": "Ap Tan Lap",
      "lat": 11.8333333,
      "lng": 108.6
    },
    {
      "cityName": "Ap Teurlang Dong",
      "lat": 11.9833333,
      "lng": 108.1166667
    },
    {
      "cityName": "Ap Thanh Huong",
      "lat": 11.5666667,
      "lng": 107.85
    },
    {
      "cityName": "Ap Thanh Tam",
      "lat": 11.5333333,
      "lng": 107.8
    },
    {
      "cityName": "Ap Tram Hanh",
      "lat": 11.85,
      "lng": 108.5666667
    },
    {
      "cityName": "Ap Truong Son",
      "lat": 11.8666667,
      "lng": 108.55
    },
    {
      "cityName": "Ap Tuy Son",
      "lat": 11.9666667,
      "lng": 108.5333333
    },
    {
      "cityName": "Ap Xuan An",
      "lat": 11.9333333,
      "lng": 108.45
    },
    {
      "cityName": "Ap Xuan Thanh",
      "lat": 11.9666667,
      "lng": 108.5166667
    },
    {
      "cityName": "Ap Yan Kar Dang",
      "lat": 11.4333333,
      "lng": 108.0833333
    },
    {
      "cityName": "Ap Yan Kar Dom",
      "lat": 11.4166667,
      "lng": 108.1
    },
    {
      "cityName": "Bà Chin",
      "lat": 11.2666667,
      "lng": 108.1
    },
    {
      "cityName": "Bac Hoi",
      "lat": 11.7833333,
      "lng": 108.4333333
    },
    {
      "cityName": "Bakoi Da",
      "lat": 11.8333333,
      "lng": 107.8833333
    },
    {
      "cityName": "Ba Na Tong",
      "lat": 21.35,
      "lng": 103.7333333
    },
    {
      "cityName": "Ban Cung Klang",
      "lat": 12.25,
      "lng": 108.55
    },
    {
      "cityName": "Ban Dang",
      "lat": 12.3166667,
      "lng": 108.4666667
    },
    {
      "cityName": "Ban Dang Tchieng Kao",
      "lat": 12.2833333,
      "lng": 108.3666667
    },
    {
      "cityName": "Ban Da Xi",
      "lat": 12.15,
      "lng": 108.2166667
    },
    {
      "cityName": "Ban Dong",
      "lat": 12.3166667,
      "lng": 108.45
    },
    {
      "cityName": "Ban Gia Deung K'Rneu",
      "lat": 12.1833333,
      "lng": 108.3833333
    },
    {
      "cityName": "Ban Glé Dih",
      "lat": 12.2666667,
      "lng": 108.45
    },
    {
      "cityName": "Ban Gor",
      "lat": 11.5833333,
      "lng": 107.3666667
    },
    {
      "cityName": "Bang Preung",
      "lat": 11.3,
      "lng": 108.0833333
    },
    {
      "cityName": "Bang Tien",
      "lat": 11.9,
      "lng": 108.2
    },
    {
      "cityName": "Ban Hayo",
      "lat": 12.3333333,
      "lng": 108.3666667
    },
    {
      "cityName": "Ban Houn",
      "lat": 11.5166667,
      "lng": 108.1166667
    },
    {
      "cityName": "Ban Ka Deun",
      "lat": 11.55,
      "lng": 108.45
    },
    {
      "cityName": "Ban Kêou",
      "lat": 12.3333333,
      "lng": 108.4833333
    },
    {
      "cityName": "Ban Kray Am",
      "lat": 12.2666667,
      "lng": 108.4166667
    },
    {
      "cityName": "Ban Laton Kongsip",
      "lat": 11.45,
      "lng": 107.95
    },
    {
      "cityName": "Ban Ma",
      "lat": 12.3333333,
      "lng": 108.45
    },
    {
      "cityName": "Ban Manbin",
      "lat": 12.3,
      "lng": 108.4166667
    },
    {
      "cityName": "Ban Peco",
      "lat": 12.1666667,
      "lng": 108.1333333
    },
    {
      "cityName": "Ban Reum",
      "lat": 12.2333333,
      "lng": 108.5666667
    },
    {
      "cityName": "Ban Sout M'Bla",
      "lat": 11.65,
      "lng": 108
    },
    {
      "cityName": "Ban Tchieum Houiih",
      "lat": 12.25,
      "lng": 108.3333333
    },
    {
      "cityName": "Ban Tian Neum",
      "lat": 12.15,
      "lng": 108.3
    },
    {
      "cityName": "Ban Tma",
      "lat": 12.35,
      "lng": 108.3666667
    },
    {
      "cityName": "Ban Tran Yo",
      "lat": 12.2666667,
      "lng": 108.3
    },
    {
      "cityName": "Ban Trao",
      "lat": 12.0666667,
      "lng": 108.0333333
    },
    {
      "cityName": "Ban Yang Teurr",
      "lat": 12.2,
      "lng": 108.2666667
    },
    {
      "cityName": "Ban Ya Tran",
      "lat": 12.1833333,
      "lng": 108.3333333
    },
    {
      "cityName": "Ban Young",
      "lat": 12.1833333,
      "lng": 108.2666667
    },
    {
      "cityName": "B'Bro De",
      "lat": 11.7333333,
      "lng": 107.5333333
    },
    {
      "cityName": "Bda Khang Blang",
      "lat": 11.75,
      "lng": 107.8833333
    },
    {
      "cityName": "Bda Khang Nho",
      "lat": 11.7833333,
      "lng": 107.8833333
    },
    {
      "cityName": "Benla",
      "lat": 11.7,
      "lng": 107.75
    },
    {
      "cityName": "Berla",
      "lat": 11.6833333,
      "lng": 107.7666667
    },
    {
      "cityName": "Beunigne",
      "lat": 11.6333333,
      "lng": 108.1
    },
    {
      "cityName": "Bia It Dang Bo",
      "lat": 11.6,
      "lng": 107.5666667
    },
    {
      "cityName": "Binh Ninh",
      "lat": 12,
      "lng": 108.4166667
    },
    {
      "cityName": "B'Kai Dan",
      "lat": 11.8166667,
      "lng": 107.8833333
    },
    {
      "cityName": "B'ké Klour",
      "lat": 11.6166667,
      "lng": 107.9
    },
    {
      "cityName": "B'Ke Tan Blan",
      "lat": 11.6,
      "lng": 107.8666667
    },
    {
      "cityName": "B'kòr",
      "lat": 11.7666667,
      "lng": 107.9166667
    },
    {
      "cityName": "B'kuat",
      "lat": 11.6833333,
      "lng": 107.55
    },
    {
      "cityName": "Blac",
      "lat": 11.4833333,
      "lng": 107.5
    },
    {
      "cityName": "Blac Da Döng",
      "lat": 11.4833333,
      "lng": 107.4833333
    },
    {
      "cityName": "Blac Dang R'mit",
      "lat": 11.4833333,
      "lng": 107.55
    },
    {
      "cityName": "Blach",
      "lat": 11.5166667,
      "lng": 107.85
    },
    {
      "cityName": "B'lach",
      "lat": 11.7166667,
      "lng": 107.65
    },
    {
      "cityName": "Bla Kong Trao",
      "lat": 11.3833333,
      "lng": 107.5833333
    },
    {
      "cityName": "Blé Sop",
      "lat": 11.5333333,
      "lng": 108.4
    },
    {
      "cityName": "B. Lo Hir",
      "lat": 12.25,
      "lng": 108.45
    },
    {
      "cityName": "B'nao",
      "lat": 11.6833333,
      "lng": 107.65
    },
    {
      "cityName": "B'Neurr",
      "lat": 11.7833333,
      "lng": 108.2166667
    },
    {
      "cityName": "Bobla",
      "lat": 11.5666667,
      "lng": 108.0333333
    },
    {
      "cityName": "Bo Kocil",
      "lat": 11.4333333,
      "lng": 107.55
    },
    {
      "cityName": "Bon B'sar Darial",
      "lat": 11.8666667,
      "lng": 107.6666667
    },
    {
      "cityName": "Bon B'sar Nir",
      "lat": 11.8833333,
      "lng": 107.7
    },
    {
      "cityName": "Bon Da Giran Ditt",
      "lat": 11.5166667,
      "lng": 107.6166667
    },
    {
      "cityName": "Bon Da M'rong",
      "lat": 12.1666667,
      "lng": 108.2333333
    },
    {
      "cityName": "Bon Da R'hâu",
      "lat": 12.15,
      "lng": 108.25
    },
    {
      "cityName": "Bon Ding Siat",
      "lat": 11.9,
      "lng": 107.7166667
    },
    {
      "cityName": "Bondon",
      "lat": 12,
      "lng": 108.3833333
    },
    {
      "cityName": "Bondon Damour",
      "lat": 12.2166667,
      "lng": 108.5333333
    },
    {
      "cityName": "Bon Gia Di",
      "lat": 12.2166667,
      "lng": 108.3833333
    },
    {
      "cityName": "Bon Gnan",
      "lat": 11.7,
      "lng": 108.6166667
    },
    {
      "cityName": "Bon Guil",
      "lat": 11.7666667,
      "lng": 107.3666667
    },
    {
      "cityName": "Bon Guil Woui",
      "lat": 11.7166667,
      "lng": 107.3833333
    },
    {
      "cityName": "Bon Ke Blan",
      "lat": 11.4166667,
      "lng": 107.6
    },
    {
      "cityName": "Bon Khieu",
      "lat": 11.5833333,
      "lng": 107.3333333
    },
    {
      "cityName": "Bon Koi Dang",
      "lat": 11.8166667,
      "lng": 107.85
    },
    {
      "cityName": "Bon N'chiêng",
      "lat": 12.2833333,
      "lng": 108.4333333
    },
    {
      "cityName": "Bon Pankar",
      "lat": 11.8666667,
      "lng": 107.8833333
    },
    {
      "cityName": "Bon Tan Djiran B",
      "lat": 11.6166667,
      "lng": 107.75
    },
    {
      "cityName": "Bon Tön Klong B",
      "lat": 11.5666667,
      "lng": 107.65
    },
    {
      "cityName": "Bon Ya Lou",
      "lat": 12.2166667,
      "lng": 108.4333333
    },
    {
      "cityName": "Boprau",
      "lat": 11.6,
      "lng": 108.0833333
    },
    {
      "cityName": "Boun Bu Jrah",
      "lat": 11.7666667,
      "lng": 107.4333333
    },
    {
      "cityName": "B'pi Tach",
      "lat": 11.75,
      "lng": 107.6333333
    },
    {
      "cityName": "B'pi Tach Da",
      "lat": 11.7166667,
      "lng": 107.6166667
    },
    {
      "cityName": "Brass Dom",
      "lat": 11.7166667,
      "lng": 108
    },
    {
      "cityName": "Brela",
      "lat": 11.6,
      "lng": 108.45
    },
    {
      "cityName": "Brelah",
      "lat": 11.7,
      "lng": 108.4833333
    },
    {
      "cityName": "B'rla Da Nhar",
      "lat": 11.55,
      "lng": 107.5
    },
    {
      "cityName": "Bros Dor",
      "lat": 11.7,
      "lng": 107.9833333
    },
    {
      "cityName": "Bross Deur",
      "lat": 11.6833333,
      "lng": 107.9833333
    },
    {
      "cityName": "Broui Han Lian",
      "lat": 11.5166667,
      "lng": 108.0166667
    },
    {
      "cityName": "Broui K'mé",
      "lat": 11.5333333,
      "lng": 107.9666667
    },
    {
      "cityName": "B'sar Deung",
      "lat": 11.85,
      "lng": 108.15
    },
    {
      "cityName": "B'sar Dit",
      "lat": 11.8166667,
      "lng": 108.1333333
    },
    {
      "cityName": "B'sar Lou Sieum",
      "lat": 11.7333333,
      "lng": 107.4666667
    },
    {
      "cityName": "B'Soul Latch",
      "lat": 11.6833333,
      "lng": 108.0166667
    },
    {
      "cityName": "B'Su Dalao",
      "lat": 11.5166667,
      "lng": 107.7666667
    },
    {
      "cityName": "B'Sul Bil",
      "lat": 11.6166667,
      "lng": 108.2
    },
    {
      "cityName": "B'su M'rac",
      "lat": 11.5666667,
      "lng": 107.7666667
    },
    {
      "cityName": "B'trô",
      "lat": 11.7166667,
      "lng": 107.9833333
    },
    {
      "cityName": "Bu Dalac",
      "lat": 11.4666667,
      "lng": 107.4666667
    },
    {
      "cityName": "Bu Dhac",
      "lat": 11.5833333,
      "lng": 107.3166667
    },
    {
      "cityName": "Bu N'dren",
      "lat": 11.6666667,
      "lng": 107.2833333
    },
    {
      "cityName": "Bu N'dreng",
      "lat": 11.65,
      "lng": 107.2666667
    },
    {
      "cityName": "Bu N'roun",
      "lat": 11.6833333,
      "lng": 107.2833333
    },
    {
      "cityName": "Buôn Bedeur",
      "lat": 11.65,
      "lng": 107.75
    },
    {
      "cityName": "Buôn Boko",
      "lat": 11.5166667,
      "lng": 107.9
    },
    {
      "cityName": "Buôn Cil Liang",
      "lat": 12.25,
      "lng": 108.3666667
    },
    {
      "cityName": "Buôn Con Klang",
      "lat": 12.2333333,
      "lng": 108.4666667
    },
    {
      "cityName": "Buôn Cung Klang",
      "lat": 12.2166667,
      "lng": 108.4833333
    },
    {
      "cityName": "Buôn Da Kin",
      "lat": 11.8166667,
      "lng": 108.6166667
    },
    {
      "cityName": "Buon Dang Wang",
      "lat": 11.3666667,
      "lng": 107.5666667
    },
    {
      "cityName": "Buôn Deun Djiri",
      "lat": 12.1666667,
      "lng": 108.2166667
    },
    {
      "cityName": "Buôn Drao",
      "lat": 12.0666667,
      "lng": 108.0166667
    },
    {
      "cityName": "Buôn Gor",
      "lat": 11.5166667,
      "lng": 107.4166667
    },
    {
      "cityName": "Buôn Kai",
      "lat": 11.7,
      "lng": 108.5
    },
    {
      "cityName": "Buôn Karang Co",
      "lat": 11.7166667,
      "lng": 108.5166667
    },
    {
      "cityName": "Buon Keur Thuong",
      "lat": 12.2333333,
      "lng": 108.4
    },
    {
      "cityName": "Buôn Kill Ka Ploung",
      "lat": 11.7333333,
      "lng": 108.55
    },
    {
      "cityName": "Buôn Kriu",
      "lat": 11.4666667,
      "lng": 107.5666667
    },
    {
      "cityName": "Buôn Lieng Trang",
      "lat": 12.1166667,
      "lng": 108.2666667
    },
    {
      "cityName": "Buôn Nieun",
      "lat": 12.2166667,
      "lng": 108.45
    },
    {
      "cityName": "Buôn Prongo",
      "lat": 11.7,
      "lng": 108.55
    },
    {
      "cityName": "Buôn Pro Trong",
      "lat": 11.7,
      "lng": 108.5333333
    },
    {
      "cityName": "Buon Rion Deung",
      "lat": 12.2166667,
      "lng": 108.2833333
    },
    {
      "cityName": "Buon Tiangne Deugne",
      "lat": 12.1833333,
      "lng": 108.3
    },
    {
      "cityName": "Buôn Tör Lun",
      "lat": 11.5333333,
      "lng": 107.6333333
    },
    {
      "cityName": "Buon Treun Bon Tron",
      "lat": 12.1333333,
      "lng": 108.3166667
    },
    {
      "cityName": "Buon Tuda Dilt",
      "lat": 11.4833333,
      "lng": 107.6166667
    },
    {
      "cityName": "Buon Ya",
      "lat": 11.6,
      "lng": 108.0333333
    },
    {
      "cityName": "Bu Pang",
      "lat": 11.55,
      "lng": 107.3833333
    },
    {
      "cityName": "Bu R'du",
      "lat": 11.5333333,
      "lng": 107.3833333
    },
    {
      "cityName": "Cagne",
      "lat": 11.6833333,
      "lng": 108.1666667
    },
    {
      "cityName": "Cagne Dung",
      "lat": 11.7,
      "lng": 108.15
    },
    {
      "cityName": "Can Rang",
      "lat": 11.85,
      "lng": 108.5833333
    },
    {
      "cityName": "Cao Bac Lang",
      "lat": 11.7166667,
      "lng": 108.3833333
    },
    {
      "cityName": "Cao Quouil",
      "lat": 11.6,
      "lng": 108.1333333
    },
    {
      "cityName": "Cardon Dang",
      "lat": 11.8333333,
      "lng": 107.8166667
    },
    {
      "cityName": "Cardong Sesang",
      "lat": 11.75,
      "lng": 107.8166667
    },
    {
      "cityName": "Cardon S'resang",
      "lat": 11.7333333,
      "lng": 107.8
    },
    {
      "cityName": "Cau Dat",
      "lat": 11.8833333,
      "lng": 108.55
    },
    {
      "cityName": "Cayan",
      "lat": 11.55,
      "lng": 108.4833333
    },
    {
      "cityName": "Clian",
      "lat": 11.35,
      "lng": 108.05
    },
    {
      "cityName": "Cohia",
      "lat": 11.7833333,
      "lng": 108.2666667
    },
    {
      "cityName": "Confanh",
      "lat": 11.7,
      "lng": 108.2166667
    },
    {
      "cityName": "Conion Brass",
      "lat": 11.7166667,
      "lng": 108.0333333
    },
    {
      "cityName": "Conion Pill",
      "lat": 11.6166667,
      "lng": 107.9833333
    },
    {
      "cityName": "Connai",
      "lat": 11.2833333,
      "lng": 108.0333333
    },
    {
      "cityName": "Conn Panh",
      "lat": 11.7333333,
      "lng": 108.0833333
    },
    {
      "cityName": "Conntach Da",
      "lat": 11.7166667,
      "lng": 108.2833333
    },
    {
      "cityName": "Contach Dang",
      "lat": 11.7333333,
      "lng": 108.25
    },
    {
      "cityName": "Contach Tria",
      "lat": 11.7166667,
      "lng": 108.2
    },
    {
      "cityName": "Conte",
      "lat": 11.5166667,
      "lng": 107.8333333
    },
    {
      "cityName": "Con Yang Dariam",
      "lat": 11.5166667,
      "lng": 107.9666667
    },
    {
      "cityName": "Cung Clang",
      "lat": 12.2333333,
      "lng": 108.5166667
    },
    {
      "cityName": "Cuong Linh",
      "lat": 11.55,
      "lng": 108
    },
    {
      "cityName": "Da Ðeum",
      "lat": 12.0666667,
      "lng": 108.5
    },
    {
      "cityName": "Da Hòa",
      "lat": 11.4,
      "lng": 107.6333333
    },
    {
      "cityName": "Da Huynh",
      "lat": 11.7666667,
      "lng": 108.2833333
    },
    {
      "cityName": "Dai Ninh",
      "lat": 11.65,
      "lng": 108.3166667
    },
    {
      "cityName": "Da Jrang",
      "lat": 11.4166667,
      "lng": 107.6166667
    },
    {
      "cityName": "Da Kra",
      "lat": 11.5833333,
      "lng": 108.3333333
    },
    {
      "cityName": "Da Krone",
      "lat": 11.5666667,
      "lng": 108.45
    },
    {
      "cityName": "Da Lat",
      "lat": 11.9333333,
      "lng": 108.4166667
    },
    {
      "cityName": "Da Lé",
      "lat": 11.6,
      "lng": 108.2333333
    },
    {
      "cityName": "Dalou",
      "lat": 11.4,
      "lng": 108.1333333
    },
    {
      "cityName": "Da M'bor",
      "lat": 11.6166667,
      "lng": 107.6333333
    },
    {
      "cityName": "Dangia",
      "lat": 11.6333333,
      "lng": 108.2833333
    },
    {
      "cityName": "Dang Klar",
      "lat": 11.75,
      "lng": 107.6666667
    },
    {
      "cityName": "Dang Som",
      "lat": 11.6166667,
      "lng": 108.3
    },
    {
      "cityName": "Dang Son",
      "lat": 11.3166667,
      "lng": 108.0833333
    },
    {
      "cityName": "Dankia",
      "lat": 12.0166667,
      "lng": 108.3833333
    },
    {
      "cityName": "Da Yon",
      "lat": 11.3166667,
      "lng": 108.1
    },
    {
      "cityName": "Deune",
      "lat": 11.6833333,
      "lng": 108.45
    },
    {
      "cityName": "Diirlagne",
      "lat": 11.6166667,
      "lng": 108.15
    },
    {
      "cityName": "Di Linh",
      "lat": 11.5833333,
      "lng": 108.0666667
    },
    {
      "cityName": "Dingh Sac",
      "lat": 11.6166667,
      "lng": 107.5333333
    },
    {
      "cityName": "Ðinh An",
      "lat": 11.8333333,
      "lng": 108.4666667
    },
    {
      "cityName": "Diom",
      "lat": 11.7833333,
      "lng": 108.5666667
    },
    {
      "cityName": "Djirai",
      "lat": 11.65,
      "lng": 107.8333333
    },
    {
      "cityName": "Djiret",
      "lat": 11.5833333,
      "lng": 108.5333333
    },
    {
      "cityName": "Dji Rott",
      "lat": 11.5833333,
      "lng": 108.3666667
    },
    {
      "cityName": "D'joe23",
      "lat": 11.6,
      "lng": 108.1166667
    },
    {
      "cityName": "Ðong Krola",
      "lat": 12.05,
      "lng": 108.1333333
    },
    {
      "cityName": "Dong Lac",
      "lat": 11.6166667,
      "lng": 108.1166667
    },
    {
      "cityName": "Dong Tieng Lieng",
      "lat": 12.05,
      "lng": 108.5
    },
    {
      "cityName": "Drông",
      "lat": 11.7833333,
      "lng": 108.45
    },
    {
      "cityName": "Drong To",
      "lat": 11.5,
      "lng": 108.1166667
    },
    {
      "cityName": "Duc Trong",
      "lat": 11.75,
      "lng": 108.3833333
    },
    {
      "cityName": "Fillain",
      "lat": 11.9166667,
      "lng": 108.1
    },
    {
      "cityName": "Fimnom",
      "lat": 11.7833333,
      "lng": 108.4166667
    },
    {
      "cityName": "Fyan",
      "lat": 11.8833333,
      "lng": 108.2
    },
    {
      "cityName": "Gan Reo",
      "lat": 11.7833333,
      "lng": 108.3666667
    },
    {
      "cityName": "Gourang Ya",
      "lat": 11.75,
      "lng": 107.9666667
    },
    {
      "cityName": "Hiep Thuan",
      "lat": 11.6166667,
      "lng": 108.2166667
    },
    {
      "cityName": "Hoat",
      "lat": 11.8166667,
      "lng": 108.35
    },
    {
      "cityName": "Hong Yu",
      "lat": 12.05,
      "lng": 108.0833333
    },
    {
      "cityName": "Kadê Mtôt",
      "lat": 11.7333333,
      "lng": 108.5
    },
    {
      "cityName": "Kadô",
      "lat": 11.7666667,
      "lng": 108.55
    },
    {
      "cityName": "Kadou",
      "lat": 12.0666667,
      "lng": 108.2333333
    },
    {
      "cityName": "Kala",
      "lat": 11.5666667,
      "lng": 108.1166667
    },
    {
      "cityName": "Kambouette",
      "lat": 11.7166667,
      "lng": 108.4166667
    },
    {
      "cityName": "Kanam",
      "lat": 11.9,
      "lng": 108.6333333
    },
    {
      "cityName": "Kao R'thi",
      "lat": 11.5833333,
      "lng": 108.1166667
    },
    {
      "cityName": "Kàram",
      "lat": 11.6666667,
      "lng": 108.4666667
    },
    {
      "cityName": "Karang Go",
      "lat": 11.5666667,
      "lng": 108.4666667
    },
    {
      "cityName": "Khu Chi Lang",
      "lat": 11.95,
      "lng": 108.4666667
    },
    {
      "cityName": "Kil Kout",
      "lat": 11.9,
      "lng": 108.2833333
    },
    {
      "cityName": "Kil Moup",
      "lat": 12.1166667,
      "lng": 108.25
    },
    {
      "cityName": "Kil Panthieng",
      "lat": 11.9833333,
      "lng": 108.2666667
    },
    {
      "cityName": "Kim Lê",
      "lat": 11.5833333,
      "lng": 108.05
    },
    {
      "cityName": "Klong A",
      "lat": 11.8,
      "lng": 108.4333333
    },
    {
      "cityName": "Klong Beuss",
      "lat": 11.7,
      "lng": 108.1833333
    },
    {
      "cityName": "Klong B",
      "lat": 11.8166667,
      "lng": 108.45
    },
    {
      "cityName": "Klong Toum",
      "lat": 11.7666667,
      "lng": 108.3166667
    },
    {
      "cityName": "Klong Trau",
      "lat": 11.5666667,
      "lng": 108.0833333
    },
    {
      "cityName": "Koglam",
      "lat": 11.75,
      "lng": 108.3333333
    },
    {
      "cityName": "Koh No",
      "lat": 11.8,
      "lng": 108.05
    },
    {
      "cityName": "Kondo Hanghot",
      "lat": 12.1833333,
      "lng": 108.4166667
    },
    {
      "cityName": "Kondo Lieng Dang",
      "lat": 12.1833333,
      "lng": 108.45
    },
    {
      "cityName": "Kondroum",
      "lat": 11.4,
      "lng": 107.95
    },
    {
      "cityName": "Kon Ho-A",
      "lat": 11.5833333,
      "lng": 107.5833333
    },
    {
      "cityName": "Kon Ho B",
      "lat": 11.6333333,
      "lng": 107.5833333
    },
    {
      "cityName": "Kon Nhâu",
      "lat": 11.5833333,
      "lng": 108.0166667
    },
    {
      "cityName": "Kontom Tria",
      "lat": 11.6166667,
      "lng": 107.95
    },
    {
      "cityName": "Konyang Dor",
      "lat": 11.6666667,
      "lng": 108.0333333
    },
    {
      "cityName": "Konyang Tao Dung",
      "lat": 11.7666667,
      "lng": 108
    },
    {
      "cityName": "Konyông Brass",
      "lat": 11.7,
      "lng": 108.05
    },
    {
      "cityName": "Krai",
      "lat": 11.5333333,
      "lng": 108.4666667
    },
    {
      "cityName": "Krela Ghoul",
      "lat": 11.7166667,
      "lng": 108.1166667
    },
    {
      "cityName": "Krela Ngai",
      "lat": 11.6833333,
      "lng": 108.1166667
    },
    {
      "cityName": "Kroot Da R'gna",
      "lat": 11.5833333,
      "lng": 107.9
    },
    {
      "cityName": "Laac Na Buec",
      "lat": 11.6333333,
      "lng": 107.5333333
    },
    {
      "cityName": "Lac Nghia",
      "lat": 11.75,
      "lng": 108.5
    },
    {
      "cityName": "Lac Nghiep",
      "lat": 11.85,
      "lng": 108.6166667
    },
    {
      "cityName": "Lahon",
      "lat": 11.4833333,
      "lng": 107.9666667
    },
    {
      "cityName": "Lambou",
      "lat": 11.8166667,
      "lng": 108.1
    },
    {
      "cityName": "Laouan Krela",
      "lat": 11.5333333,
      "lng": 108.3666667
    },
    {
      "cityName": "Liang R\"sol",
      "lat": 11.6333333,
      "lng": 108.2
    },
    {
      "cityName": "Lieng Dung",
      "lat": 11.9833333,
      "lng": 108.05
    },
    {
      "cityName": "Liên Hoan",
      "lat": 11.65,
      "lng": 108.1166667
    },
    {
      "cityName": "Lu Tupe",
      "lat": 12.0333333,
      "lng": 108.1833333
    },
    {
      "cityName": "Ma Am",
      "lat": 11.5333333,
      "lng": 108.3833333
    },
    {
      "cityName": "Mabaye",
      "lat": 11.55,
      "lng": 108.4
    },
    {
      "cityName": "Manline",
      "lat": 11.9666667,
      "lng": 108.4
    },
    {
      "cityName": "Ma Sra",
      "lat": 11.5166667,
      "lng": 108.4333333
    },
    {
      "cityName": "M\"Boom Sere Naoi",
      "lat": 11.6166667,
      "lng": 107.9333333
    },
    {
      "cityName": "M\"Boun Dagle",
      "lat": 11.65,
      "lng": 107.9666667
    },
    {
      "cityName": "Minrong Sekang",
      "lat": 11.6166667,
      "lng": 107.8333333
    },
    {
      "cityName": "M\"kar Da Te",
      "lat": 11.55,
      "lng": 107.5333333
    },
    {
      "cityName": "Nam Bang",
      "lat": 11.85,
      "lng": 108.3333333
    },
    {
      "cityName": "Nam Son",
      "lat": 11.7166667,
      "lng": 108.3666667
    },
    {
      "cityName": "Nghia Lam",
      "lat": 11.7333333,
      "lng": 108.3666667
    },
    {
      "cityName": "Nhon Hong",
      "lat": 11.7333333,
      "lng": 108.3166667
    },
    {
      "cityName": "Nihang",
      "lat": 11.65,
      "lng": 108.05
    },
    {
      "cityName": "Noseri",
      "lat": 11.5166667,
      "lng": 107.8666667
    },
    {
      "cityName": "Nossé",
      "lat": 11.3666667,
      "lng": 108.1
    },
    {
      "cityName": "Padan",
      "lat": 11.3666667,
      "lng": 108.0333333
    },
    {
      "cityName": "Pampe Da R\"ging",
      "lat": 12.1333333,
      "lng": 108.1
    },
    {
      "cityName": "Pampei Dan",
      "lat": 12.1333333,
      "lng": 108.15
    },
    {
      "cityName": "Pampe Nom",
      "lat": 12.1166667,
      "lng": 108.15
    },
    {
      "cityName": "Pang Ba",
      "lat": 11.8166667,
      "lng": 108.0666667
    },
    {
      "cityName": "Pang Deung",
      "lat": 12.1166667,
      "lng": 108.0166667
    },
    {
      "cityName": "Pang Giong",
      "lat": 12.05,
      "lng": 107.9833333
    },
    {
      "cityName": "Pang Tang",
      "lat": 12.1333333,
      "lng": 108.0166667
    },
    {
      "cityName": "Pang Thing Deunn",
      "lat": 12.1333333,
      "lng": 108.1833333
    },
    {
      "cityName": "Pang Thing Ette",
      "lat": 12.15,
      "lng": 108.1833333
    },
    {
      "cityName": "Pantar",
      "lat": 11.75,
      "lng": 108.1
    },
    {
      "cityName": "Phát Chi",
      "lat": 11.8666667,
      "lng": 108.5666667
    },
    {
      "cityName": "Phê Loun",
      "lat": 12.0166667,
      "lng": 108.1166667
    },
    {
      "cityName": "Phey Djut",
      "lat": 12.1,
      "lng": 108.15
    },
    {
      "cityName": "Phey Srunh",
      "lat": 12.0333333,
      "lng": 108.15
    },
    {
      "cityName": "Phi Dang",
      "lat": 11.75,
      "lng": 107.5666667
    },
    {
      "cityName": "Phi Ði Bot",
      "lat": 12.15,
      "lng": 108.1166667
    },
    {
      "cityName": "Phi Dung",
      "lat": 11.8,
      "lng": 107.6666667
    },
    {
      "cityName": "Phi Sua",
      "lat": 12.0666667,
      "lng": 107.9666667
    },
    {
      "cityName": "Phi Toch",
      "lat": 11.7666667,
      "lng": 108.1166667
    },
    {
      "cityName": "Pho Lang Bah",
      "lat": 11.7333333,
      "lng": 108.6333333
    },
    {
      "cityName": "Pho Tabou",
      "lat": 11.7333333,
      "lng": 108.6833333
    },
    {
      "cityName": "Phu Hiep",
      "lat": 11.6333333,
      "lng": 108.1833333
    },
    {
      "cityName": "Phu Hoi",
      "lat": 11.7,
      "lng": 108.3666667
    },
    {
      "cityName": "Phu My",
      "lat": 11.9166667,
      "lng": 108.1833333
    },
    {
      "cityName": "Phu Thanh",
      "lat": 11.7666667,
      "lng": 108.4166667
    },
    {
      "cityName": "Podiam",
      "lat": 11.7166667,
      "lng": 108.0833333
    },
    {
      "cityName": "Potpé",
      "lat": 12.0333333,
      "lng": 108.3
    },
    {
      "cityName": "Poul",
      "lat": 11.9,
      "lng": 108.1333333
    },
    {
      "cityName": "Pré Boyao",
      "lat": 11.6833333,
      "lng": 108.3666667
    },
    {
      "cityName": "Pre Ca Nac",
      "lat": 11.65,
      "lng": 108.4
    },
    {
      "cityName": "Pré Rion",
      "lat": 11.6833333,
      "lng": 108.3833333
    },
    {
      "cityName": "Preteing",
      "lat": 11.9333333,
      "lng": 108.2166667
    },
    {
      "cityName": "Prou Dar Sa",
      "lat": 11.8333333,
      "lng": 107.7166667
    },
    {
      "cityName": "Prou",
      "lat": 11.85,
      "lng": 107.7666667
    },
    {
      "cityName": "Psourr",
      "lat": 11.8666667,
      "lng": 108.2666667
    },
    {
      "cityName": "R\"da",
      "lat": 11.6833333,
      "lng": 108.0666667
    },
    {
      "cityName": "R\"han Blang",
      "lat": 11.5333333,
      "lng": 108.0833333
    },
    {
      "cityName": "Rhan Plang",
      "lat": 11.5833333,
      "lng": 108.2333333
    },
    {
      "cityName": "Riam To Quanh",
      "lat": 11.55,
      "lng": 108.0333333
    },
    {
      "cityName": "Ri Hill",
      "lat": 11.8,
      "lng": 108.1666667
    },
    {
      "cityName": "Riong Bolieng",
      "lat": 11.8,
      "lng": 108.25
    },
    {
      "cityName": "Riong Sereigne",
      "lat": 11.8,
      "lng": 108.2666667
    },
    {
      "cityName": "Riong Serignac",
      "lat": 11.7833333,
      "lng": 108.25
    },
    {
      "cityName": "Riong Thô",
      "lat": 11.8333333,
      "lng": 108.2833333
    },
    {
      "cityName": "Riu Danarr",
      "lat": 11.4666667,
      "lng": 107.5333333
    },
    {
      "cityName": "Rlang Yuk Nung",
      "lat": 11.9833333,
      "lng": 108.1833333
    },
    {
      "cityName": "R\"lom",
      "lat": 11.6833333,
      "lng": 108.4666667
    },
    {
      "cityName": "Rlom",
      "lat": 11.85,
      "lng": 108.2166667
    },
    {
      "cityName": "Romên",
      "lat": 12.1,
      "lng": 108.2
    },
    {
      "cityName": "Santa Maria",
      "lat": 11.4166667,
      "lng": 107.6833333
    },
    {
      "cityName": "Sanung",
      "lat": 12.05,
      "lng": 108.1833333
    },
    {
      "cityName": "Son",
      "lat": 11.6666667,
      "lng": 108.3166667
    },
    {
      "cityName": "Souei Cao",
      "lat": 21.2,
      "lng": 103.75
    },
    {
      "cityName": "Srê Bóh",
      "lat": 11.4833333,
      "lng": 108.0333333
    },
    {
      "cityName": "Sré Kop",
      "lat": 11.5166667,
      "lng": 108.3666667
    },
    {
      "cityName": "Srê U",
      "lat": 11.5833333,
      "lng": 108.2166667
    },
    {
      "cityName": "Ta Houei",
      "lat": 11.8333333,
      "lng": 108.4833333
    },
    {
      "cityName": "Taleu",
      "lat": 11.45,
      "lng": 108.2
    },
    {
      "cityName": "Talip",
      "lat": 11.4,
      "lng": 108.2333333
    },
    {
      "cityName": "Tali",
      "lat": 11.5333333,
      "lng": 108.3
    },
    {
      "cityName": "Tali Teurlou",
      "lat": 11.45,
      "lng": 108.15
    },
    {
      "cityName": "Tamboloong",
      "lat": 11.3333333,
      "lng": 108.05
    },
    {
      "cityName": "Tambor",
      "lat": 11.6833333,
      "lng": 108.35
    },
    {
      "cityName": "Tamon",
      "lat": 11.5333333,
      "lng": 108.2333333
    },
    {
      "cityName": "Tân Da Nghich",
      "lat": 11.2666667,
      "lng": 108.0666667
    },
    {
      "cityName": "Tang Jran Dring",
      "lat": 11.5833333,
      "lng": 107.7666667
    },
    {
      "cityName": "Tang Klang",
      "lat": 11.5833333,
      "lng": 107.7333333
    },
    {
      "cityName": "Ta Nhiên",
      "lat": 11.55,
      "lng": 108.4666667
    },
    {
      "cityName": "Ta Non",
      "lat": 11.45,
      "lng": 108.2333333
    },
    {
      "cityName": "Tarklette",
      "lat": 11.7166667,
      "lng": 108.4666667
    },
    {
      "cityName": "Tché Réou",
      "lat": 11.6,
      "lng": 108.4666667
    },
    {
      "cityName": "Tcherong",
      "lat": 11.6333333,
      "lng": 108.5166667
    },
    {
      "cityName": "Tchinong Kra",
      "lat": 11.6833333,
      "lng": 108.3333333
    },
    {
      "cityName": "Teurlang Tho",
      "lat": 11.9333333,
      "lng": 108.15
    },
    {
      "cityName": "Teurnoum",
      "lat": 11.9166667,
      "lng": 108.35
    },
    {
      "cityName": "Thanh Bình",
      "lat": 11.7666667,
      "lng": 108.3
    },
    {
      "cityName": "Theup",
      "lat": 11.4166667,
      "lng": 108.15
    },
    {
      "cityName": "Tianon Hono",
      "lat": 11.55,
      "lng": 108.5333333
    },
    {
      "cityName": "Tiên Hai",
      "lat": 11.85,
      "lng": 108.35
    },
    {
      "cityName": "Tou Dah",
      "lat": 11.5,
      "lng": 108.2166667
    },
    {
      "cityName": "Trai Mat",
      "lat": 11.95,
      "lng": 108.5
    },
    {
      "cityName": "Trang Ton",
      "lat": 11.5666667,
      "lng": 107.9
    },
    {
      "cityName": "Trang Tourné",
      "lat": 11.5833333,
      "lng": 107.95
    },
    {
      "cityName": "Trang Wat",
      "lat": 11.6,
      "lng": 107.9333333
    },
    {
      "cityName": "Trodate",
      "lat": 11.5166667,
      "lng": 107.3833333
    },
    {
      "cityName": "Tu Da",
      "lat": 11.3833333,
      "lng": 108.1333333
    },
    {
      "cityName": "Xã Tân Phát",
      "lat": 11.55,
      "lng": 107.8333333
    },
    {
      "cityName": "Xã Tân Rài",
      "lat": 11.6333333,
      "lng": 107.8333333
    },
    {
      "cityName": "Xieng Tiaran",
      "lat": 11.5333333,
      "lng": 108.5333333
    },
    {
      "cityName": "Xóm Lu Tupe",
      "lat": 12.0166667,
      "lng": 108.1833333
    },
    {
      "cityName": "Xom N\"sung",
      "lat": 11.6333333,
      "lng": 108.2666667
    },
    {
      "cityName": "Xóm Xroui",
      "lat": 12,
      "lng": 108.0666667
    },
    {
      "cityName": "Xuan Tho",
      "lat": 11.9333333,
      "lng": 108.5333333
    },
    {
      "cityName": "Yout",
      "lat": 11.6833333,
      "lng": 108.4333333
    }
  ]
}