{
  "name": "Sumatera Utara",
  "cities": [
    {
      "cityName": "Ackgadang",
      "lat": 0.8,
      "lng": 99.566667
    },
    {
      "cityName": "Adianbadja",
      "lat": 2.5731,
      "lng": 99.4397
    },
    {
      "cityName": "Adianbaja",
      "lat": 2.5567,
      "lng": 99.3899
    },
    {
      "cityName": "Adian Baturang",
      "lat": 2.1248,
      "lng": 99.1527
    },
    {
      "cityName": "Adianbolon",
      "lat": 2.5384,
      "lng": 99.2804
    },
    {
      "cityName": "Adianhoting",
      "lat": 1.8592,
      "lng": 98.8983
    },
    {
      "cityName": "Adianmatutung",
      "lat": 1.7918,
      "lng": 98.7765
    },
    {
      "cityName": "Adiannagindjang",
      "lat": 2.4671,
      "lng": 99.2411
    },
    {
      "cityName": "Adian Nangka",
      "lat": 2.8233,
      "lng": 98.1908
    },
    {
      "cityName": "Adian Padang",
      "lat": 2.1394,
      "lng": 99.1412
    },
    {
      "cityName": "Adianpara-para",
      "lat": 2.8288,
      "lng": 98.211
    },
    {
      "cityName": "Adian Tengah",
      "lat": 3.3441,
      "lng": 98.3771
    },
    {
      "cityName": "Adiantukat",
      "lat": 2.557,
      "lng": 99.457
    },
    {
      "cityName": "Adil Makmur",
      "lat": 3.0804,
      "lng": 99.4518
    },
    {
      "cityName": "Adimulyo",
      "lat": 3.5506,
      "lng": 98.4882
    },
    {
      "cityName": "Adios",
      "lat": 3.548,
      "lng": 98.5419
    },
    {
      "cityName": "Adjibuhara",
      "lat": 3.1441,
      "lng": 98.5375
    },
    {
      "cityName": "Adjidjahe",
      "lat": 3.136,
      "lng": 98.5225
    },
    {
      "cityName": "Adjinembah",
      "lat": 3.016,
      "lng": 98.5115
    },
    {
      "cityName": "Adolina 5",
      "lat": 3.5485,
      "lng": 98.95235
    },
    {
      "cityName": "Adolina",
      "lat": 3.50068,
      "lng": 98.94041
    },
    {
      "cityName": "Aekbadak",
      "lat": 1.116667,
      "lng": 99.433333
    },
    {
      "cityName": "Aek Badan",
      "lat": 1.8635,
      "lng": 98.6511
    },
    {
      "cityName": "Aek Batar",
      "lat": 2.7808,
      "lng": 99.1787
    },
    {
      "cityName": "Aek Belu",
      "lat": 2.8518,
      "lng": 99.4937
    },
    {
      "cityName": "Aekbolon",
      "lat": 2.3028,
      "lng": 99.0612
    },
    {
      "cityName": "Aekbota",
      "lat": 2.7442,
      "lng": 99.1462
    },
    {
      "cityName": "Aekgadang",
      "lat": 1.4,
      "lng": 99.416667
    },
    {
      "cityName": "Aek Gala-gala",
      "lat": 2.5101,
      "lng": 99.2549
    },
    {
      "cityName": "Aekgambir",
      "lat": 1.5289,
      "lng": 98.9224
    },
    {
      "cityName": "Aek godang",
      "lat": 1.9335,
      "lng": 98.8976
    },
    {
      "cityName": "Aekgorak",
      "lat": 2.662,
      "lng": 99.0043
    },
    {
      "cityName": "Aekgorat",
      "lat": 2.6146,
      "lng": 99.0023
    },
    {
      "cityName": "Aek Habil",
      "lat": 1.7266,
      "lng": 98.8009
    },
    {
      "cityName": "Aek Horsih",
      "lat": 1.9421,
      "lng": 98.5539
    },
    {
      "cityName": "Aek Horsik",
      "lat": 1.6147,
      "lng": 98.8522
    },
    {
      "cityName": "Aek Humbang",
      "lat": 1.983333,
      "lng": 99.183333
    },
    {
      "cityName": "Aek-kanan",
      "lat": 1.966667,
      "lng": 99.8
    },
    {
      "cityName": "Aek Lobu",
      "lat": 1.7602,
      "lng": 98.7703
    },
    {
      "cityName": "Aek Marsasar",
      "lat": 1.9752,
      "lng": 98.5336
    },
    {
      "cityName": "Aekmas 1",
      "lat": 2.1398,
      "lng": 99.0142
    },
    {
      "cityName": "Aekmas 2",
      "lat": 2.121,
      "lng": 99.017
    },
    {
      "cityName": "Aek Meranti",
      "lat": 1.7943,
      "lng": 98.815
    },
    {
      "cityName": "Aek Mompang",
      "lat": 1.8287,
      "lng": 98.8276
    },
    {
      "cityName": "Aek Mual",
      "lat": 2.4027,
      "lng": 99.0672
    },
    {
      "cityName": "Aekmuaraboek",
      "lat": 1.9613,
      "lng": 98.5447
    },
    {
      "cityName": "Aeknabara",
      "lat": 1.283333,
      "lng": 99.75
    },
    {
      "cityName": "Aeknabirong",
      "lat": 1.8993,
      "lng": 98.784
    },
    {
      "cityName": "Aeknabontor",
      "lat": 1.6578,
      "lng": 98.9345
    },
    {
      "cityName": "Aeknadua",
      "lat": 1.9599,
      "lng": 98.6432
    },
    {
      "cityName": "Aek Nagali",
      "lat": 2.7222,
      "lng": 99.3679
    },
    {
      "cityName": "Aek Nahuta",
      "lat": 2.9423,
      "lng": 99.0506
    },
    {
      "cityName": "Aeknaororan",
      "lat": 1.8758,
      "lng": 98.8996
    },
    {
      "cityName": "Aeknasia",
      "lat": 1.9808,
      "lng": 98.9509
    },
    {
      "cityName": "Aeknatolu",
      "lat": 2.6005,
      "lng": 99.0151
    },
    {
      "cityName": "Aeknauli",
      "lat": 3.2385,
      "lng": 97.9797
    },
    {
      "cityName": "Aekoensim",
      "lat": 2.166667,
      "lng": 99.333333
    },
    {
      "cityName": "Aekpaoeng",
      "lat": 2.5915,
      "lng": 99.3668
    },
    {
      "cityName": "Aekpatik",
      "lat": 1.5338,
      "lng": 98.9266
    },
    {
      "cityName": "Aek Polan",
      "lat": 2.8712,
      "lng": 99.4896
    },
    {
      "cityName": "Aekraja",
      "lat": 2.3044,
      "lng": 99.0205
    },
    {
      "cityName": "Aek Raso",
      "lat": 1.9328,
      "lng": 98.5181
    },
    {
      "cityName": "Aekrihit",
      "lat": 2.5258,
      "lng": 99.264
    },
    {
      "cityName": "Aek Sakur",
      "lat": 2.7058,
      "lng": 99.49
    },
    {
      "cityName": "Aeksibin",
      "lat": 1.9786,
      "lng": 98.5307
    },
    {
      "cityName": "Aek Suha",
      "lat": 2.8054,
      "lng": 99.1077
    },
    {
      "cityName": "Aeksuhat",
      "lat": 1.45,
      "lng": 99.566667
    },
    {
      "cityName": "Aektalun",
      "lat": 2.6972,
      "lng": 99.202
    },
    {
      "cityName": "Aek Tangga",
      "lat": 2.5929,
      "lng": 99.438
    },
    {
      "cityName": "Aek Tarum",
      "lat": 2.6786,
      "lng": 99.3776
    },
    {
      "cityName": "Aektolang",
      "lat": 1.6894,
      "lng": 98.843
    },
    {
      "cityName": "Aektolong",
      "lat": 1.547,
      "lng": 98.9152
    },
    {
      "cityName": "AFD 1",
      "lat": 2.7605,
      "lng": 99.3605
    },
    {
      "cityName": "AFD 3",
      "lat": 2.7595,
      "lng": 99.3352
    },
    {
      "cityName": "Afdeling 10",
      "lat": 2.8288,
      "lng": 99.212
    },
    {
      "cityName": "Afdeling 10 Mayang",
      "lat": 2.9506,
      "lng": 99.3182
    },
    {
      "cityName": "Afdeling 11",
      "lat": 3.1033,
      "lng": 99.1805
    },
    {
      "cityName": "Afdeling 11 Mayang",
      "lat": 2.9292,
      "lng": 99.3154
    },
    {
      "cityName": "Afdeling 13",
      "lat": 3.0274,
      "lng": 99.1305
    },
    {
      "cityName": "Afdeling 14",
      "lat": 3.046,
      "lng": 99.1798
    },
    {
      "cityName": "Afdeling 1 A",
      "lat": 3.1461,
      "lng": 99.1965
    },
    {
      "cityName": "Afdeling 1",
      "lat": 3.1282,
      "lng": 99.1638
    },
    {
      "cityName": "Afdeling1 Bahbayu",
      "lat": 3.0484,
      "lng": 99.2631
    },
    {
      "cityName": "Afdeling 1 Doloksinumbah",
      "lat": 3.0995,
      "lng": 99.3216
    },
    {
      "cityName": "Afdeling 1 Gunung Para",
      "lat": 3.1884,
      "lng": 99.1139
    },
    {
      "cityName": "Afdeling 1 Mayang",
      "lat": 3.0641,
      "lng": 99.3564
    },
    {
      "cityName": "Afdeling 1 Seimangkei",
      "lat": 3.1414,
      "lng": 99.3346
    },
    {
      "cityName": "Afdeling 22/8",
      "lat": 3.1923,
      "lng": 99.1951
    },
    {
      "cityName": "Afdeling 23/7",
      "lat": 3.1947,
      "lng": 99.195
    },
    {
      "cityName": "Afdeling 24/6",
      "lat": 3.1985,
      "lng": 99.1678
    },
    {
      "cityName": "Afdeling 2",
      "lat": 2.765,
      "lng": 99.3165
    },
    {
      "cityName": "Afdeling 2 Dolokinumbah",
      "lat": 3.0626,
      "lng": 99.2944
    },
    {
      "cityName": "Afdeling 2 Gunungbayu",
      "lat": 3.1377,
      "lng": 99.3969
    },
    {
      "cityName": "Afdeling 2 Seimangkei",
      "lat": 3.1239,
      "lng": 99.3321
    },
    {
      "cityName": "Afdeling 3",
      "lat": 3.0713,
      "lng": 99.1419
    },
    {
      "cityName": "Afdeling 3 Bangun",
      "lat": 2.975,
      "lng": 99.1328
    },
    {
      "cityName": "Afdeling 3 Doloksinumbah",
      "lat": 3.0192,
      "lng": 99.2875
    },
    {
      "cityName": "Afdeling 3 Gunungbayu",
      "lat": 3.1219,
      "lng": 99.3611
    },
    {
      "cityName": "Afdeling 3 Mayang",
      "lat": 2.9854,
      "lng": 99.3359
    },
    {
      "cityName": "Afdeling 3 Tanah Gambus",
      "lat": 3.2029,
      "lng": 99.4048
    },
    {
      "cityName": "Afdeling 4",
      "lat": 2.7993,
      "lng": 99.1019
    },
    {
      "cityName": "Afdeling 4 Dolokdinumbah",
      "lat": 3.0049,
      "lng": 99.2766
    },
    {
      "cityName": "Afdeling 4 Gunungbayu",
      "lat": 3.0928,
      "lng": 99.3503
    },
    {
      "cityName": "Afdeling 4 Mayang",
      "lat": 2.9892,
      "lng": 99.3217
    },
    {
      "cityName": "Afdeling 5",
      "lat": 2.9724,
      "lng": 99.257
    },
    {
      "cityName": "Afdeling 5 A Tinjoan",
      "lat": 3.0643,
      "lng": 99.4442
    },
    {
      "cityName": "Afdeling 5 B Tinjoan",
      "lat": 3.0362,
      "lng": 99.4649
    },
    {
      "cityName": "Afdeling 5 Gunungbayu",
      "lat": 3.0934,
      "lng": 99.3703
    },
    {
      "cityName": "Afdeling 5 Maligas",
      "lat": 3.0461,
      "lng": 99.3939
    },
    {
      "cityName": "Afdeling 5 Mayang",
      "lat": 2.9658,
      "lng": 99.3167
    },
    {
      "cityName": "Afdeling 6",
      "lat": 3.046,
      "lng": 99.2035
    },
    {
      "cityName": "Afdeling 6 Gunungbayu",
      "lat": 3.1091,
      "lng": 99.3867
    },
    {
      "cityName": "Afdeling 6 Mayang",
      "lat": 2.9563,
      "lng": 99.3428
    },
    {
      "cityName": "Afdeling 7",
      "lat": 2.9153,
      "lng": 99.2185
    },
    {
      "cityName": "Afdeling 7 Mayang",
      "lat": 2.9435,
      "lng": 99.373
    },
    {
      "cityName": "Afdeling 7 Pondok Laut",
      "lat": 3.2186,
      "lng": 99.3728
    },
    {
      "cityName": "Afdeling 8",
      "lat": 3.2056,
      "lng": 99.2142
    },
    {
      "cityName": "Afdeling 8 Mayang",
      "lat": 2.9654,
      "lng": 99.3745
    },
    {
      "cityName": "Afdeling 8 Pondok Laut",
      "lat": 3.2243,
      "lng": 99.3775
    },
    {
      "cityName": "Afdeling 9-10 Gunungbayu",
      "lat": 3.1195,
      "lng": 99.4556
    },
    {
      "cityName": "Afdeling 9",
      "lat": 2.8434,
      "lng": 99.2284
    },
    {
      "cityName": "Afdeling 9 Mayang",
      "lat": 2.9294,
      "lng": 99.3419
    },
    {
      "cityName": "Afdeling Dua/Tiga",
      "lat": 2.9528,
      "lng": 99.1907
    },
    {
      "cityName": "Afdelinggunungbayu",
      "lat": 3.1702,
      "lng": 99.3568
    },
    {
      "cityName": "Afdeling H",
      "lat": 2.8236,
      "lng": 99.108
    },
    {
      "cityName": "Afdeling III",
      "lat": 3.2617,
      "lng": 99.433
    },
    {
      "cityName": "Afdeling I Pabatu",
      "lat": 3.2149,
      "lng": 99.1075
    },
    {
      "cityName": "Afdeling K",
      "lat": 3.0051,
      "lng": 99.1512
    },
    {
      "cityName": "Afdeling Pondok Kandanglembu",
      "lat": 3.1418,
      "lng": 99.1485
    },
    {
      "cityName": "Afdeling Pondok Ullu",
      "lat": 3.1353,
      "lng": 99.4162
    },
    {
      "cityName": "Afdeling VII",
      "lat": 3.3479,
      "lng": 99.3099
    },
    {
      "cityName": "Afia",
      "lat": 1.3778,
      "lng": 97.5207
    },
    {
      "cityName": "Afoa",
      "lat": 0.8047,
      "lng": 97.8893
    },
    {
      "cityName": "Afoeloe",
      "lat": 1.265,
      "lng": 97.2442
    },
    {
      "cityName": "Agalon",
      "lat": 2.5125,
      "lng": 99.0425
    },
    {
      "cityName": "Ahad",
      "lat": 3.1919,
      "lng": 99.5089
    },
    {
      "cityName": "Aik Pancur",
      "lat": 3.4531,
      "lng": 98.7855
    },
    {
      "cityName": "Airbebau",
      "lat": 3.214,
      "lng": 99.5476
    },
    {
      "cityName": "Airbening",
      "lat": 4.0743,
      "lng": 98.1945
    },
    {
      "cityName": "Air Hitam",
      "lat": 3.1258,
      "lng": 99.6328
    },
    {
      "cityName": "Airhitam",
      "lat": 3.3325,
      "lng": 99.4467
    },
    {
      "cityName": "Airhitan",
      "lat": 3.2049,
      "lng": 99.4934
    },
    {
      "cityName": "Air Putih 1",
      "lat": 3.0549,
      "lng": 99.6984
    },
    {
      "cityName": "Air Putih 2",
      "lat": 3.0513,
      "lng": 99.6979
    },
    {
      "cityName": "Air Putih",
      "lat": 3.0991,
      "lng": 99.6315
    },
    {
      "cityName": "Airputih",
      "lat": 4.2038,
      "lng": 98.1137
    },
    {
      "cityName": "Air Tawar Luar",
      "lat": 3.9541,
      "lng": 98.37
    },
    {
      "cityName": "Ajerpanas",
      "lat": 3.768,
      "lng": 97.6214
    },
    {
      "cityName": "Ajibaho 1",
      "lat": 3.4508,
      "lng": 98.6956
    },
    {
      "cityName": "Ajibaho 2",
      "lat": 3.4327,
      "lng": 98.6877
    },
    {
      "cityName": "Ajibelang",
      "lat": 3.1385,
      "lng": 98.535
    },
    {
      "cityName": "Ajijulu",
      "lat": 3.1561,
      "lng": 98.53
    },
    {
      "cityName": "Alai",
      "lat": 3.7238,
      "lng": 98.6658
    },
    {
      "cityName": "Alban",
      "lat": 3.4136,
      "lng": 98.2395
    },
    {
      "cityName": "Albion",
      "lat": 1.5788,
      "lng": 98.897
    },
    {
      "cityName": "Aliyoso",
      "lat": 3.6604,
      "lng": 98.7478
    },
    {
      "cityName": "Aloban",
      "lat": 1.7936,
      "lng": 98.7693
    },
    {
      "cityName": "Alur Bantayan",
      "lat": 3.9526,
      "lng": 98.2692
    },
    {
      "cityName": "Alur Cempedak",
      "lat": 4.1062,
      "lng": 98.216
    },
    {
      "cityName": "Alur Dua",
      "lat": 4.0093,
      "lng": 98.277
    },
    {
      "cityName": "Alurejo",
      "lat": 3.9934,
      "lng": 98.3289
    },
    {
      "cityName": "Alurgadung",
      "lat": 3.82,
      "lng": 98.2994
    },
    {
      "cityName": "Alurgantung",
      "lat": 4.1993,
      "lng": 98.0629
    },
    {
      "cityName": "Alurhitam",
      "lat": 3.9446,
      "lng": 98.1473
    },
    {
      "cityName": "Alur Hitam",
      "lat": 4.0047,
      "lng": 98.3289
    },
    {
      "cityName": "Alur Kapal",
      "lat": 3.9514,
      "lng": 98.4572
    },
    {
      "cityName": "Alurlebah",
      "lat": 4.0625,
      "lng": 98.2513
    },
    {
      "cityName": "Alurlemak",
      "lat": 4.2062,
      "lng": 98.161
    },
    {
      "cityName": "Alurmeranti",
      "lat": 4.0234,
      "lng": 98.1371
    },
    {
      "cityName": "Alur Meranti",
      "lat": 4.2222,
      "lng": 98.082
    },
    {
      "cityName": "Alur Merbau",
      "lat": 4.0878,
      "lng": 98.2543
    },
    {
      "cityName": "Alur Slamet",
      "lat": 4.2371,
      "lng": 98.0161
    },
    {
      "cityName": "Amaitaniha",
      "lat": 0.583333,
      "lng": 97.75
    },
    {
      "cityName": "Amal",
      "lat": 3.5287,
      "lng": 98.4175
    },
    {
      "cityName": "Amandamai",
      "lat": 3.5996,
      "lng": 98.539
    },
    {
      "cityName": "Aman Damai",
      "lat": 3.5997,
      "lng": 98.3568
    },
    {
      "cityName": "Amandamaiblok Dua",
      "lat": 3.5913,
      "lng": 98.3586
    },
    {
      "cityName": "Amandamaiblok I",
      "lat": 3.5823,
      "lng": 98.3585
    },
    {
      "cityName": "Amandamaiblok III",
      "lat": 3.6027,
      "lng": 98.3524
    },
    {
      "cityName": "Amandaraja",
      "lat": 0.7538,
      "lng": 97.6789
    },
    {
      "cityName": "Aman Hilir",
      "lat": 3.4541,
      "lng": 98.323
    },
    {
      "cityName": "Aman Hulu",
      "lat": 3.4504,
      "lng": 98.3246
    },
    {
      "cityName": "Amansari",
      "lat": 3.1339,
      "lng": 99.1477
    },
    {
      "cityName": "Amarta",
      "lat": 3.7107,
      "lng": 98.5051
    },
    {
      "cityName": "Ambar",
      "lat": 2.8544,
      "lng": 99.3313
    },
    {
      "cityName": "Ambarhoda",
      "lat": 2.0614,
      "lng": 99.0258
    },
    {
      "cityName": "Ambarita",
      "lat": 2.666667,
      "lng": 98.85
    },
    {
      "cityName": "Ambarla",
      "lat": 2.8629,
      "lng": 99.3774
    },
    {
      "cityName": "Ambarlansang",
      "lat": 2.4736,
      "lng": 99.2084
    },
    {
      "cityName": "Ambar Mardugu",
      "lat": 2.065,
      "lng": 99.06
    },
    {
      "cityName": "Ambarokan",
      "lat": 3.1509,
      "lng": 98.9259
    },
    {
      "cityName": "Ambarsalikat",
      "lat": 2.1242,
      "lng": 99.072
    },
    {
      "cityName": "Ambasang",
      "lat": 2.846,
      "lng": 98.1566
    },
    {
      "cityName": "Ambocang",
      "lat": 1.6957,
      "lng": 98.8099
    },
    {
      "cityName": "Amborgang",
      "lat": 2.5007,
      "lng": 99.0862
    },
    {
      "cityName": "Ambugha",
      "lat": 1.4063,
      "lng": 97.1304
    },
    {
      "cityName": "Ampatnegri",
      "lat": 3.1863,
      "lng": 99.4859
    },
    {
      "cityName": "Ampera",
      "lat": 3.4514,
      "lng": 99.2337
    },
    {
      "cityName": "Amplas",
      "lat": 3.5547,
      "lng": 98.7207
    },
    {
      "cityName": "Amplaspasar 3",
      "lat": 3.56949,
      "lng": 98.75949
    },
    {
      "cityName": "Ampus 2",
      "lat": 3.4859,
      "lng": 98.1822
    },
    {
      "cityName": "Anaksungai",
      "lat": 3.829,
      "lng": 98.6086
    },
    {
      "cityName": "Anauma",
      "lat": 1.1933,
      "lng": 97.4731
    },
    {
      "cityName": "Andalhe",
      "lat": 3.0879,
      "lng": 99.4661
    },
    {
      "cityName": "Anderasi",
      "lat": 2.9022,
      "lng": 99.1064
    },
    {
      "cityName": "Anggarung",
      "lat": 3.573,
      "lng": 98.6738
    },
    {
      "cityName": "Anggoli",
      "lat": 1.5159,
      "lng": 98.9884
    },
    {
      "cityName": "Angkalanpuge",
      "lat": 2.477,
      "lng": 98.1136
    },
    {
      "cityName": "Anibar",
      "lat": 2.5126,
      "lng": 99.2567
    },
    {
      "cityName": "Antara 1",
      "lat": 3.1445,
      "lng": 99.468
    },
    {
      "cityName": "Antara 2",
      "lat": 3.163,
      "lng": 99.4827
    },
    {
      "cityName": "Anturmangan",
      "lat": 2.0309,
      "lng": 99.0561
    },
    {
      "cityName": "Arabadsjauwa",
      "lat": 0.9446,
      "lng": 97.8623
    },
    {
      "cityName": "Aracondong",
      "lat": 3.778,
      "lng": 98.471
    },
    {
      "cityName": "Arah Tunggal",
      "lat": 3.6117,
      "lng": 98.4288
    },
    {
      "cityName": "Aras",
      "lat": 3.2945,
      "lng": 99.3897
    },
    {
      "cityName": "Araskabu 1",
      "lat": 3.6015,
      "lng": 98.85589
    },
    {
      "cityName": "Araskabu 2",
      "lat": 3.6071,
      "lng": 98.85302
    },
    {
      "cityName": "Araskabu 3",
      "lat": 3.6222,
      "lng": 98.8638
    },
    {
      "cityName": "Araskabu 5",
      "lat": 3.6293,
      "lng": 98.8451
    },
    {
      "cityName": "Araskabu 6",
      "lat": 3.61789,
      "lng": 98.83621
    },
    {
      "cityName": "Araspanjang",
      "lat": 3.3319,
      "lng": 99.0416
    },
    {
      "cityName": "Ardagusena",
      "lat": 3.4843,
      "lng": 98.6864
    },
    {
      "cityName": "Areal Inalum",
      "lat": 3.3161,
      "lng": 99.3402
    },
    {
      "cityName": "Arimas",
      "lat": 3.1253,
      "lng": 98.0728
    },
    {
      "cityName": "Aripinagar",
      "lat": 2.1263,
      "lng": 99.0587
    },
    {
      "cityName": "Arnhemia",
      "lat": 3.466667,
      "lng": 98.6
    },
    {
      "cityName": "Arohan",
      "lat": 2.9647,
      "lng": 99.3166
    },
    {
      "cityName": "Arugemuk 2",
      "lat": 3.6768,
      "lng": 98.87391
    },
    {
      "cityName": "Arugemuk 3",
      "lat": 3.6711,
      "lng": 98.892
    },
    {
      "cityName": "Arung",
      "lat": 2.4496,
      "lng": 99.1576
    },
    {
      "cityName": "Asahan",
      "lat": 3.0131,
      "lng": 99.5169
    },
    {
      "cityName": "Asahan Mati",
      "lat": 3.0059,
      "lng": 99.8424
    },
    {
      "cityName": "Asam",
      "lat": 3.18,
      "lng": 99.5733
    },
    {
      "cityName": "Asamkumbang",
      "lat": 3.5353,
      "lng": 98.3833
    },
    {
      "cityName": "Asam Kumbang",
      "lat": 3.5577,
      "lng": 98.6239
    },
    {
      "cityName": "Asembumbang",
      "lat": 3.7624,
      "lng": 98.5844
    },
    {
      "cityName": "Asrama Abdul Hamid",
      "lat": 3.6033,
      "lng": 98.6145
    },
    {
      "cityName": "Aur",
      "lat": 3.5802,
      "lng": 98.6825
    },
    {
      "cityName": "Avros",
      "lat": 3.4156,
      "lng": 99.2004
    },
    {
      "cityName": "Awaaj",
      "lat": 1.4,
      "lng": 97.483333
    },
    {
      "cityName": "Awaay",
      "lat": 1.395,
      "lng": 97.5172
    },
    {
      "cityName": "Awoni",
      "lat": 1.0086,
      "lng": 97.8312
    },
    {
      "cityName": "Babura",
      "lat": 3.5829,
      "lng": 98.6494
    },
    {
      "cityName": "Babusalam Dua",
      "lat": 3.7299,
      "lng": 98.3202
    },
    {
      "cityName": "Babus Salam Tuan Guru",
      "lat": 3.871,
      "lng": 98.3886
    },
    {
      "cityName": "Bacang",
      "lat": 1.8873,
      "lng": 98.5703
    },
    {
      "cityName": "Bacang Kumbang",
      "lat": 3.5304,
      "lng": 97.7848
    },
    {
      "cityName": "Bacangsidua",
      "lat": 3.474,
      "lng": 98.1881
    },
    {
      "cityName": "Badakbejuang",
      "lat": 3.3387,
      "lng": 99.172
    },
    {
      "cityName": "Badar Kasih",
      "lat": 3.4642,
      "lng": 98.4957
    },
    {
      "cityName": "Badjakuning",
      "lat": 3.934,
      "lng": 98.4291
    },
    {
      "cityName": "Badjalinggai",
      "lat": 3.1604,
      "lng": 99.0068
    },
    {
      "cityName": "Badjoga",
      "lat": 2.9897,
      "lng": 99.2352
    },
    {
      "cityName": "Badjongga",
      "lat": 2.883333,
      "lng": 99.35
    },
    {
      "cityName": "Baganasahan",
      "lat": 3.0148,
      "lng": 99.8582
    },
    {
      "cityName": "Bagan",
      "lat": 3.6486,
      "lng": 98.9867
    },
    {
      "cityName": "Bagan Baru",
      "lat": 3.227,
      "lng": 99.5863
    },
    {
      "cityName": "Baganbatak",
      "lat": 3.1893,
      "lng": 99.6707
    },
    {
      "cityName": "Bagancina",
      "lat": 2.2,
      "lng": 100.483333
    },
    {
      "cityName": "Bagan Dalam",
      "lat": 3.2235,
      "lng": 99.5891
    },
    {
      "cityName": "Bagan Deli",
      "lat": 3.7756,
      "lng": 98.7033
    },
    {
      "cityName": "Bagan-koealapagoerawan",
      "lat": 3.4136,
      "lng": 99.3213
    },
    {
      "cityName": "Bagan Luar",
      "lat": 3.2245,
      "lng": 99.5858
    },
    {
      "cityName": "Baganpedjoedian",
      "lat": 2.516667,
      "lng": 100.316667
    },
    {
      "cityName": "Bagan Percut",
      "lat": 3.7161,
      "lng": 98.782
    },
    {
      "cityName": "Bagan Serdang",
      "lat": 3.6958,
      "lng": 98.846
    },
    {
      "cityName": "Bagansinemba",
      "lat": 1.766667,
      "lng": 100.483333
    },
    {
      "cityName": "Bagansitoekang",
      "lat": 2.633333,
      "lng": 100.25
    },
    {
      "cityName": "Bagan Udang",
      "lat": 3.935,
      "lng": 98.4535
    },
    {
      "cityName": "Bagasan 1",
      "lat": 2.4183,
      "lng": 99.1979
    },
    {
      "cityName": "Bagasan 2",
      "lat": 2.3392,
      "lng": 99.0608
    },
    {
      "cityName": "Bagatpuluan",
      "lat": 2.7977,
      "lng": 99.1643
    },
    {
      "cityName": "Bagelen",
      "lat": 3.3146,
      "lng": 99.1615
    },
    {
      "cityName": "Bagolda",
      "lat": 3.5482,
      "lng": 98.4438
    },
    {
      "cityName": "Bagot Naharnop",
      "lat": 1.9621,
      "lng": 98.8097
    },
    {
      "cityName": "Bagotpoloan",
      "lat": 2.7549,
      "lng": 99.1289
    },
    {
      "cityName": "Bagotpuloan",
      "lat": 3.3182,
      "lng": 99.0271
    },
    {
      "cityName": "Bagotsinuan",
      "lat": 3.004,
      "lng": 98.8011
    },
    {
      "cityName": "Bagunpurba",
      "lat": 3.3752,
      "lng": 98.8152
    },
    {
      "cityName": "Bahabolon",
      "lat": 3.1394,
      "lng": 99.1734
    },
    {
      "cityName": "Bahabolontongahtongah",
      "lat": 3.1413,
      "lng": 99.1678
    },
    {
      "cityName": "Bahalat",
      "lat": 2.948,
      "lng": 99.206
    },
    {
      "cityName": "Bahalbatu",
      "lat": 3.071,
      "lng": 99.3359
    },
    {
      "cityName": "Bahampit",
      "lat": 3.0955,
      "lng": 99.0595
    },
    {
      "cityName": "Bahapam",
      "lat": 3.4681,
      "lng": 98.3664
    },
    {
      "cityName": "Bahaudan",
      "lat": 2.3362,
      "lng": 99.1283
    },
    {
      "cityName": "Bah Bah Buntu",
      "lat": 3.1805,
      "lng": 98.6617
    },
    {
      "cityName": "Bahbajoe",
      "lat": 3.0634,
      "lng": 99.2628
    },
    {
      "cityName": "Bah Balua",
      "lat": 3.3244,
      "lng": 98.7981
    },
    {
      "cityName": "Bah Biding",
      "lat": 2.9458,
      "lng": 99.1926
    },
    {
      "cityName": "Bah Biding Dalam",
      "lat": 2.9409,
      "lng": 99.1945
    },
    {
      "cityName": "Bahbirong",
      "lat": 3.3283,
      "lng": 98.9873
    },
    {
      "cityName": "Bahbolonkahean",
      "lat": 3.1475,
      "lng": 99.1749
    },
    {
      "cityName": "Bahbulat",
      "lat": 2.9585,
      "lng": 99.3139
    },
    {
      "cityName": "Bahdamar",
      "lat": 3.2157,
      "lng": 99.1626
    },
    {
      "cityName": "Bah Gerger",
      "lat": 3.2169,
      "lng": 98.7678
    },
    {
      "cityName": "Bahgerger",
      "lat": 3.3842,
      "lng": 99.0077
    },
    {
      "cityName": "Bahgorat",
      "lat": 3.1507,
      "lng": 99.0295
    },
    {
      "cityName": "Bahgunung",
      "lat": 3.0747,
      "lng": 99.1963
    },
    {
      "cityName": "Bah Hisam",
      "lat": 3.3025,
      "lng": 98.936
    },
    {
      "cityName": "Bahinda",
      "lat": 3.2095,
      "lng": 99.3183
    },
    {
      "cityName": "Bah Jambi",
      "lat": 2.9835,
      "lng": 99.2203
    },
    {
      "cityName": "Bahjenis",
      "lat": 3.3166,
      "lng": 99.1282
    },
    {
      "cityName": "Bah Joga Utara",
      "lat": 2.9933,
      "lng": 99.2333
    },
    {
      "cityName": "Bah Kisat",
      "lat": 2.8228,
      "lng": 99.0743
    },
    {
      "cityName": "Bah Kora",
      "lat": 2.9088,
      "lng": 99.0215
    },
    {
      "cityName": "Bahlias",
      "lat": 3.1801,
      "lng": 99.3441
    },
    {
      "cityName": "Bahlintah",
      "lat": 3.1715,
      "lng": 99.1132
    },
    {
      "cityName": "Bah Liran",
      "lat": 2.8997,
      "lng": 99.0113
    },
    {
      "cityName": "Bahoan",
      "lat": 3.1589,
      "lng": 98.7779
    },
    {
      "cityName": "Bah Pasussang",
      "lat": 3.0581,
      "lng": 98.864
    },
    {
      "cityName": "Bah Perak",
      "lat": 3.3637,
      "lng": 98.8372
    },
    {
      "cityName": "Bahri",
      "lat": 3.698,
      "lng": 98.6765
    },
    {
      "cityName": "Bah Ruksi",
      "lat": 2.9172,
      "lng": 99.0213
    },
    {
      "cityName": "Bahsalak",
      "lat": 3.0621,
      "lng": 99.0529
    },
    {
      "cityName": "Bahsampuran 2",
      "lat": 2.8781,
      "lng": 99.0103
    },
    {
      "cityName": "Bah Sampuran",
      "lat": 2.8818,
      "lng": 99.0166
    },
    {
      "cityName": "Bah Sidua-dua",
      "lat": 3.3992,
      "lng": 98.9806
    },
    {
      "cityName": "Bahtobu",
      "lat": 3.0798,
      "lng": 99.1371
    },
    {
      "cityName": "Bah Tonang",
      "lat": 3.0972,
      "lng": 98.9787
    },
    {
      "cityName": "Bahtopu",
      "lat": 3.1182,
      "lng": 98.7404
    },
    {
      "cityName": "Bahunghuluan",
      "lat": 3.1645,
      "lng": 99.1927
    },
    {
      "cityName": "Bahungkahean",
      "lat": 3.1823,
      "lng": 99.2043
    },
    {
      "cityName": "Bahungtengah",
      "lat": 3.1754,
      "lng": 99.2034
    },
    {
      "cityName": "Bajadolok",
      "lat": 2.9044,
      "lng": 99.1862
    },
    {
      "cityName": "Bajak",
      "lat": 3.2397,
      "lng": 99.2312
    },
    {
      "cityName": "Bajalawan",
      "lat": 3.1341,
      "lng": 99.0174
    },
    {
      "cityName": "Bajalinggel",
      "lat": 3.1612,
      "lng": 99.1071
    },
    {
      "cityName": "Bajarongge",
      "lat": 3.365,
      "lng": 98.9834
    },
    {
      "cityName": "Bakal Batu",
      "lat": 2.8362,
      "lng": 98.1355
    },
    {
      "cityName": "Bakal Julu",
      "lat": 2.8652,
      "lng": 98.2486
    },
    {
      "cityName": "Bakal Lama",
      "lat": 2.87,
      "lng": 98.2377
    },
    {
      "cityName": "Bakammodong",
      "lat": 3.3445,
      "lng": 99.3717
    },
    {
      "cityName": "Bakaranbatu",
      "lat": 3.3792,
      "lng": 99.0885
    },
    {
      "cityName": "Bakaran Batu",
      "lat": 3.5715,
      "lng": 98.86941
    },
    {
      "cityName": "Bakian",
      "lat": 1.9667,
      "lng": 98.5408
    },
    {
      "cityName": "Bakkudu",
      "lat": 2.5302,
      "lng": 99.2696
    },
    {
      "cityName": "Bakti",
      "lat": 3.5701,
      "lng": 98.8814
    },
    {
      "cityName": "Balaban",
      "lat": 4.1136,
      "lng": 98.0911
    },
    {
      "cityName": "Balai Gajah",
      "lat": 3.9415,
      "lng": 98.4019
    },
    {
      "cityName": "Balaikasih",
      "lat": 3.5163,
      "lng": 98.4358
    },
    {
      "cityName": "Balaja",
      "lat": 2.8456,
      "lng": 99.0323
    },
    {
      "cityName": "Balang",
      "lat": 3.3374,
      "lng": 98.298
    },
    {
      "cityName": "Balangdua",
      "lat": 3.06,
      "lng": 98.1603
    },
    {
      "cityName": "Balapujung",
      "lat": 3.1356,
      "lng": 98.7055
    },
    {
      "cityName": "Balari",
      "lat": -0.016667,
      "lng": 98.4
    },
    {
      "cityName": "Balbalpetarum",
      "lat": 3.1395,
      "lng": 98.0402
    },
    {
      "cityName": "Balige",
      "lat": 2.968,
      "lng": 99.1726
    },
    {
      "cityName": "Balimbingan",
      "lat": 2.9297,
      "lng": 99.2104
    },
    {
      "cityName": "Balimbing",
      "lat": 0.583333,
      "lng": 99.183333
    },
    {
      "cityName": "Balingga",
      "lat": 2.3494,
      "lng": 99.2001
    },
    {
      "cityName": "Balno",
      "lat": 2.2465,
      "lng": 98.1635
    },
    {
      "cityName": "Balodjasa",
      "lat": 0.817599,
      "lng": 97.350014
    },
    {
      "cityName": "Baloga",
      "lat": 0.7552,
      "lng": 97.8778
    },
    {
      "cityName": "Balowondrato",
      "lat": 0.8711,
      "lng": 97.3557
    },
    {
      "cityName": "Baluhobot",
      "lat": 3.2426,
      "lng": 98.9563
    },
    {
      "cityName": "Balukpadang",
      "lat": 3.1321,
      "lng": 99.0369
    },
    {
      "cityName": "Baluutomo",
      "lat": 3.0153,
      "lng": 99.1402
    },
    {
      "cityName": "Bamban",
      "lat": 3.4461,
      "lng": 99.1628
    },
    {
      "cityName": "Bambangan 1",
      "lat": 3.7015,
      "lng": 98.5547
    },
    {
      "cityName": "Bambangan 2",
      "lat": 3.6941,
      "lng": 98.5628
    },
    {
      "cityName": "Bamban-hulu",
      "lat": 4.1908,
      "lng": 98.173
    },
    {
      "cityName": "Bambosar Raya",
      "lat": 3.1308,
      "lng": 98.9588
    },
    {
      "cityName": "Banauaji 2",
      "lat": 1.9437,
      "lng": 98.9581
    },
    {
      "cityName": "Banayatnahor",
      "lat": 1.9753,
      "lng": 98.9749
    },
    {
      "cityName": "Banban 1",
      "lat": 2.8159,
      "lng": 99.19
    },
    {
      "cityName": "Banban 2",
      "lat": 2.8074,
      "lng": 99.1949
    },
    {
      "cityName": "Bandan",
      "lat": 3.0408,
      "lng": 99.1843
    },
    {
      "cityName": "Bandarabaju",
      "lat": 3.1201,
      "lng": 99.0467
    },
    {
      "cityName": "Bandaradjawa",
      "lat": 3.2019,
      "lng": 99.0554
    },
    {
      "cityName": "Bandarbaju",
      "lat": 3.1321,
      "lng": 99.2021
    },
    {
      "cityName": "Bandar",
      "lat": 2.05,
      "lng": 99.75
    },
    {
      "cityName": "Bandar Banyu 1",
      "lat": 3.1259,
      "lng": 99.2023
    },
    {
      "cityName": "Bandar-Baroe",
      "lat": 3.2726,
      "lng": 98.5494
    },
    {
      "cityName": "Bandarbaru 2",
      "lat": 3.2849,
      "lng": 98.5569
    },
    {
      "cityName": "Bandarbaru",
      "lat": 3.4061,
      "lng": 98.2197
    },
    {
      "cityName": "Bandarbayu",
      "lat": 3.2762,
      "lng": 98.9863
    },
    {
      "cityName": "Bandarbedjambu",
      "lat": 3.2765,
      "lng": 99.0624
    },
    {
      "cityName": "Bandarberingin",
      "lat": 3.3548,
      "lng": 99.3545
    },
    {
      "cityName": "Bandar Betsy 2",
      "lat": 3.2019,
      "lng": 99.2685
    },
    {
      "cityName": "Bandarbingai",
      "lat": 3.5649,
      "lng": 98.4473
    },
    {
      "cityName": "Bandarbuntu",
      "lat": 3.1382,
      "lng": 99.3056
    },
    {
      "cityName": "Bandarchalipah",
      "lat": 3.4351,
      "lng": 99.2785
    },
    {
      "cityName": "Bandar-dalam",
      "lat": 3.3749,
      "lng": 99.24
    },
    {
      "cityName": "Bandardjambu",
      "lat": 3.1298,
      "lng": 99.0933
    },
    {
      "cityName": "Bandar Dolok",
      "lat": 2.8252,
      "lng": 99.0321
    },
    {
      "cityName": "Bandar Gugung",
      "lat": 3.3196,
      "lng": 98.762
    },
    {
      "cityName": "Bandargunung",
      "lat": 3.2521,
      "lng": 99.2768
    },
    {
      "cityName": "Bandar Hanopan",
      "lat": 3.1498,
      "lng": 98.839
    },
    {
      "cityName": "Bandarhataran",
      "lat": 3.162,
      "lng": 99.2977
    },
    {
      "cityName": "Bandar Honopan",
      "lat": 3.1043,
      "lng": 98.9853
    },
    {
      "cityName": "Bandarjawa",
      "lat": 3.1553,
      "lng": 99.3109
    },
    {
      "cityName": "Bandar Jaya",
      "lat": 3.1173,
      "lng": 98.9593
    },
    {
      "cityName": "Bandarkalobi",
      "lat": 3.1583,
      "lng": 99.2087
    },
    {
      "cityName": "Bandarkasihan",
      "lat": 3.4234,
      "lng": 98.1959
    },
    {
      "cityName": "Bandarkebon",
      "lat": 3.225,
      "lng": 99.2808
    },
    {
      "cityName": "Bandarkhalipah 1",
      "lat": 3.6018,
      "lng": 98.7431
    },
    {
      "cityName": "Bandarkhalipah 2",
      "lat": 3.6052,
      "lng": 98.7408
    },
    {
      "cityName": "Bandarkhalipah 3",
      "lat": 3.6071,
      "lng": 98.7408
    },
    {
      "cityName": "Bandarkhalipah 4",
      "lat": 3.6092,
      "lng": 98.7412
    },
    {
      "cityName": "Bandarkhalipah 5",
      "lat": 3.6033,
      "lng": 98.7474
    },
    {
      "cityName": "Bandar Khalipah",
      "lat": 3.6344,
      "lng": 98.76319
    },
    {
      "cityName": "Bandar Klippa",
      "lat": 3.63291,
      "lng": 98.77682
    },
    {
      "cityName": "Bandarklippapasar 10",
      "lat": 3.6094,
      "lng": 98.7611
    },
    {
      "cityName": "Bandarklippapasar 11",
      "lat": 3.614,
      "lng": 98.7618
    },
    {
      "cityName": "Bandarklippapasar 1",
      "lat": 3.5707,
      "lng": 98.7552
    },
    {
      "cityName": "Bandarklippapasar 2",
      "lat": 3.58,
      "lng": 98.7569
    },
    {
      "cityName": "Bandarklippapasar 8",
      "lat": 3.5996,
      "lng": 98.7539
    },
    {
      "cityName": "Bandarklippapasar 9",
      "lat": 3.6035,
      "lng": 98.7634
    },
    {
      "cityName": "Bandarkuala",
      "lat": 3.3435,
      "lng": 98.8237
    },
    {
      "cityName": "Bandar Kuala",
      "lat": 3.3894,
      "lng": 98.2882
    },
    {
      "cityName": "Bandar Labuhan",
      "lat": 3.50419,
      "lng": 98.78431
    },
    {
      "cityName": "Bandar Labuhan Bawah",
      "lat": 3.497,
      "lng": 98.7778
    },
    {
      "cityName": "Bandarlawan",
      "lat": 3.3434,
      "lng": 99.1372
    },
    {
      "cityName": "Bandarmagodang",
      "lat": 3.2955,
      "lng": 98.9466
    },
    {
      "cityName": "Bandarmalela 1",
      "lat": 3.019,
      "lng": 99.1359
    },
    {
      "cityName": "Bandarmalela 2",
      "lat": 3.0149,
      "lng": 99.1334
    },
    {
      "cityName": "Bandarmaratur",
      "lat": 3.1433,
      "lng": 99.3218
    },
    {
      "cityName": "Bandarmaria",
      "lat": 3.3062,
      "lng": 99.042
    },
    {
      "cityName": "Bandar Maria",
      "lat": 3.5377,
      "lng": 98.5693
    },
    {
      "cityName": "Bandar Mariah",
      "lat": 3.3285,
      "lng": 98.7609
    },
    {
      "cityName": "Bandarmasilam",
      "lat": 3.242,
      "lng": 99.2722
    },
    {
      "cityName": "Bandar Meriah",
      "lat": 3.083,
      "lng": 98.4066
    },
    {
      "cityName": "Bandarmerubun",
      "lat": 3.0245,
      "lng": 98.7757
    },
    {
      "cityName": "Bandar Minggu",
      "lat": 3.0459,
      "lng": 99.7419
    },
    {
      "cityName": "Bandar Muda",
      "lat": 3.5429,
      "lng": 98.2576
    },
    {
      "cityName": "Bandarnahor",
      "lat": 3.136,
      "lng": 99.3196
    },
    {
      "cityName": "Bandarnegeri",
      "lat": 3.2547,
      "lng": 98.9046
    },
    {
      "cityName": "Bandar Negeri",
      "lat": 3.2897,
      "lng": 98.9418
    },
    {
      "cityName": "Bandarpadang",
      "lat": 3.3369,
      "lng": 99.1062
    },
    {
      "cityName": "Bandarpalas",
      "lat": 1.933333,
      "lng": 100.2
    },
    {
      "cityName": "Bandarpasirmandgai",
      "lat": 2.7699,
      "lng": 99.3907
    },
    {
      "cityName": "Bandar Pinang",
      "lat": 3.322,
      "lng": 98.9226
    },
    {
      "cityName": "Bandarpulau",
      "lat": 3.1645,
      "lng": 99.2772
    },
    {
      "cityName": "Bandar Purba",
      "lat": 3.2491,
      "lng": 97.9989
    },
    {
      "cityName": "Bandarrajalepar",
      "lat": 3.1736,
      "lng": 98.9197
    },
    {
      "cityName": "Bandarrawa",
      "lat": 3.2493,
      "lng": 99.277
    },
    {
      "cityName": "Bandarrawan",
      "lat": 3.1748,
      "lng": 99.0668
    },
    {
      "cityName": "Bandarsakti",
      "lat": 3.2838,
      "lng": 99.3139
    },
    {
      "cityName": "Bandarsakuda 1",
      "lat": 3.0662,
      "lng": 99.2897
    },
    {
      "cityName": "Bandarsawah",
      "lat": 3.15,
      "lng": 99.3222
    },
    {
      "cityName": "Bandar Selamat 2",
      "lat": 3.1349,
      "lng": 99.1504
    },
    {
      "cityName": "Bandarselamat",
      "lat": 3.113,
      "lng": 99.15
    },
    {
      "cityName": "Bandar Selamat",
      "lat": 3.599,
      "lng": 98.724
    },
    {
      "cityName": "Bandarsenembah",
      "lat": 3.2295,
      "lng": 98.6535
    },
    {
      "cityName": "Bandar Serdang",
      "lat": 3.3321,
      "lng": 98.8125
    },
    {
      "cityName": "Bandarsetia 7",
      "lat": 3.63089,
      "lng": 98.75122
    },
    {
      "cityName": "Bandarsetia 8",
      "lat": 3.6391,
      "lng": 98.75768
    },
    {
      "cityName": "Bandar Setia",
      "lat": 3.6171,
      "lng": 98.7479
    },
    {
      "cityName": "Bandar Setia Lima",
      "lat": 3.6298,
      "lng": 98.7491
    },
    {
      "cityName": "Bandar Siantar 1",
      "lat": 3.0309,
      "lng": 99.1786
    },
    {
      "cityName": "Bandar Siantar 2",
      "lat": 3.0261,
      "lng": 99.1696
    },
    {
      "cityName": "Bandar Silau",
      "lat": 3.1558,
      "lng": 98.8461
    },
    {
      "cityName": "Bandarsilau",
      "lat": 3.2089,
      "lng": 99.2899
    },
    {
      "cityName": "Bandarsilo",
      "lat": 3.2971,
      "lng": 98.7489
    },
    {
      "cityName": "Bandarsinio",
      "lat": 3.2284,
      "lng": 99.0522
    },
    {
      "cityName": "Bandarsinombah",
      "lat": 3.6016,
      "lng": 98.468
    },
    {
      "cityName": "Bandarsono",
      "lat": 3.3183,
      "lng": 99.1523
    },
    {
      "cityName": "Bandartabu",
      "lat": 2.4911,
      "lng": 99.1372
    },
    {
      "cityName": "Bandartelu",
      "lat": 3.4901,
      "lng": 98.2383
    },
    {
      "cityName": "Bandartengah",
      "lat": 3.3975,
      "lng": 99.2577
    },
    {
      "cityName": "Bandartinggi",
      "lat": 3.2907,
      "lng": 99.3024
    },
    {
      "cityName": "Bandartonga",
      "lat": 3.0934,
      "lng": 99.2155
    },
    {
      "cityName": "Bandartutung",
      "lat": 3.1104,
      "lng": 99.2484
    },
    {
      "cityName": "Bandaruluan",
      "lat": 3.1096,
      "lng": 99.1718
    },
    {
      "cityName": "Bander Maruhur",
      "lat": 3.2198,
      "lng": 98.899
    },
    {
      "cityName": "Bandiar",
      "lat": 3.783333,
      "lng": 98.283333
    },
    {
      "cityName": "Bandjar 1",
      "lat": 3.7835,
      "lng": 98.6557
    },
    {
      "cityName": "Bandjar 2",
      "lat": 3.7746,
      "lng": 98.6293
    },
    {
      "cityName": "Bandjar 3",
      "lat": 3.7678,
      "lng": 98.6329
    },
    {
      "cityName": "Bandjar",
      "lat": 3.488,
      "lng": 99.2097
    },
    {
      "cityName": "Bandjarbuahkaras",
      "lat": 0.433333,
      "lng": 99.266667
    },
    {
      "cityName": "Bandjargandjang 2",
      "lat": 2.4276,
      "lng": 99.2174
    },
    {
      "cityName": "Bandjarnahor 1",
      "lat": 2.931,
      "lng": 99.0757
    },
    {
      "cityName": "Bandjarnahor 2",
      "lat": 2.9207,
      "lng": 99.0438
    },
    {
      "cityName": "Bandjarnahor 3",
      "lat": 2.9183,
      "lng": 99.0479
    },
    {
      "cityName": "Bandjarparbulu",
      "lat": 1.9817,
      "lng": 98.9171
    },
    {
      "cityName": "Bandjartongatonga",
      "lat": 2.466667,
      "lng": 98.966667
    },
    {
      "cityName": "Bange",
      "lat": 1.75,
      "lng": 100.066667
    },
    {
      "cityName": "Bangguron",
      "lat": 3.0178,
      "lng": 98.8286
    },
    {
      "cityName": "Bangkel",
      "lat": 3.904,
      "lng": 98.3915
    },
    {
      "cityName": "Bangko",
      "lat": 0.566667,
      "lng": 99.366667
    },
    {
      "cityName": "Bangoensordang",
      "lat": 2.9292,
      "lng": 99.437
    },
    {
      "cityName": "Bangun 13",
      "lat": 2.9773,
      "lng": 99.1723
    },
    {
      "cityName": "Bangunan",
      "lat": 3.8762,
      "lng": 98.374
    },
    {
      "cityName": "Bangunbandar",
      "lat": 3.2721,
      "lng": 99.0447
    },
    {
      "cityName": "Bangun",
      "lat": 2.782,
      "lng": 99.309
    },
    {
      "cityName": "Bangun Baru",
      "lat": 3.4953,
      "lng": 98.4637
    },
    {
      "cityName": "Bangun Berneh",
      "lat": 3.3966,
      "lng": 98.4505
    },
    {
      "cityName": "Bangunbuluh",
      "lat": 3.1116,
      "lng": 98.9218
    },
    {
      "cityName": "Bangunjawa",
      "lat": 3.2139,
      "lng": 99.0665
    },
    {
      "cityName": "Bangun Kinalang",
      "lat": 3.3198,
      "lng": 98.8247
    },
    {
      "cityName": "Bangunkubuan",
      "lat": 3.0931,
      "lng": 99.431
    },
    {
      "cityName": "Bangun Mulia",
      "lat": 3.4287,
      "lng": 98.4549
    },
    {
      "cityName": "Bangunmulia",
      "lat": 3.5173,
      "lng": 98.3418
    },
    {
      "cityName": "Bangun Mulyo",
      "lat": 3.5803,
      "lng": 98.5775
    },
    {
      "cityName": "Bangunpurba Estate",
      "lat": 3.3536,
      "lng": 98.7964
    },
    {
      "cityName": "Bangun Putih",
      "lat": 2.9441,
      "lng": 99.2725
    },
    {
      "cityName": "Bangun Rakyat",
      "lat": 3.5037,
      "lng": 98.3894
    },
    {
      "cityName": "Bangunraya",
      "lat": 3.0287,
      "lng": 99.0145
    },
    {
      "cityName": "Bangun Raya Huluan",
      "lat": 3.1102,
      "lng": 98.9237
    },
    {
      "cityName": "Bangunrejo",
      "lat": 3.1658,
      "lng": 99.1301
    },
    {
      "cityName": "Bangun Sari",
      "lat": 3.53329,
      "lng": 98.75198
    },
    {
      "cityName": "Bangunsari",
      "lat": 3.6397,
      "lng": 98.3957
    },
    {
      "cityName": "Bangun Sinembah",
      "lat": 3.3202,
      "lng": 98.831
    },
    {
      "cityName": "Bangun Tobing",
      "lat": 3.385,
      "lng": 98.7509
    },
    {
      "cityName": "Bangunuruk",
      "lat": 3.3811,
      "lng": 98.4402
    },
    {
      "cityName": "Bangurpajung",
      "lat": 3.3249,
      "lng": 98.8031
    },
    {
      "cityName": "Baniara",
      "lat": 2.516667,
      "lng": 98.65
    },
    {
      "cityName": "Banjakkaum",
      "lat": 3.7532,
      "lng": 98.2545
    },
    {
      "cityName": "Banjaran",
      "lat": 3.1203,
      "lng": 98.9611
    },
    {
      "cityName": "Banjarangodang",
      "lat": 3.3397,
      "lng": 98.8686
    },
    {
      "cityName": "Banjarbariba",
      "lat": 2.0573,
      "lng": 99.2033
    },
    {
      "cityName": "Banjarbatu",
      "lat": 2.5519,
      "lng": 99.0855
    },
    {
      "cityName": "Banjardolok",
      "lat": 2.2075,
      "lng": 99.1316
    },
    {
      "cityName": "Banjargereja",
      "lat": 3.0761,
      "lng": 99.0354
    },
    {
      "cityName": "Banjar Sari",
      "lat": 3.0677,
      "lng": 99.7015
    },
    {
      "cityName": "Banoealoehoe",
      "lat": 2.3897,
      "lng": 99.1747
    },
    {
      "cityName": "Banrejo",
      "lat": 3.5432,
      "lng": 98.4845
    },
    {
      "cityName": "Bantahan",
      "lat": 0.4,
      "lng": 99.133333
    },
    {
      "cityName": "Bantam",
      "lat": 3.5963,
      "lng": 98.7197
    },
    {
      "cityName": "Bantanan",
      "lat": 3.7262,
      "lng": 98.5048
    },
    {
      "cityName": "Bantan",
      "lat": 3.3881,
      "lng": 98.7132
    },
    {
      "cityName": "Banten 1",
      "lat": 3.5744,
      "lng": 98.3495
    },
    {
      "cityName": "Banten 2",
      "lat": 3.5263,
      "lng": 98.3798
    },
    {
      "cityName": "Bantenan",
      "lat": 3.5405,
      "lng": 98.778
    },
    {
      "cityName": "Banten",
      "lat": 3.2683,
      "lng": 98.9974
    },
    {
      "cityName": "Banteng",
      "lat": 3.381,
      "lng": 99.2258
    },
    {
      "cityName": "Banuaadji",
      "lat": 1.936,
      "lng": 98.9666
    },
    {
      "cityName": "Banua",
      "lat": 2.9231,
      "lng": 99.2055
    },
    {
      "cityName": "Banua Huta",
      "lat": 2.3995,
      "lng": 99.1679
    },
    {
      "cityName": "Banuaji 1",
      "lat": 1.9436,
      "lng": 98.9651
    },
    {
      "cityName": "Banuaradjatongah",
      "lat": 3.1591,
      "lng": 98.9028
    },
    {
      "cityName": "Banuarea",
      "lat": 1.9798,
      "lng": 98.9963
    },
    {
      "cityName": "Banuhseribu",
      "lat": 3.1823,
      "lng": 98.897
    },
    {
      "cityName": "Banuraja",
      "lat": 3.3911,
      "lng": 98.2764
    },
    {
      "cityName": "Banuwasibahow",
      "lat": 1.227181,
      "lng": 97.465893
    },
    {
      "cityName": "Banyumas",
      "lat": 3.7133,
      "lng": 98.4294
    },
    {
      "cityName": "Banyuurip",
      "lat": 3.7913,
      "lng": 98.2683
    },
    {
      "cityName": "Baoengan",
      "lat": 3.5679,
      "lng": 98.956
    },
    {
      "cityName": "Bapangan",
      "lat": 3.4891,
      "lng": 98.3499
    },
    {
      "cityName": "Baqotpulauan",
      "lat": 2.8181,
      "lng": 99.0255
    },
    {
      "cityName": "Barangkersap",
      "lat": 3.0667,
      "lng": 98.414
    },
    {
      "cityName": "Barapakko",
      "lat": 2.3245,
      "lng": 99.1682
    },
    {
      "cityName": "Bari Batali",
      "lat": 2.4105,
      "lng": 99.1724
    },
    {
      "cityName": "Baribatell",
      "lat": 2.4053,
      "lng": 99.1727
    },
    {
      "cityName": "Baringbing",
      "lat": 2.3784,
      "lng": 99.2017
    },
    {
      "cityName": "Baringin",
      "lat": 1.9572,
      "lng": 98.6959
    },
    {
      "cityName": "Barisan 1 A",
      "lat": 3.0632,
      "lng": 99.6941
    },
    {
      "cityName": "Barisan 1",
      "lat": 3.0519,
      "lng": 99.6905
    },
    {
      "cityName": "Barisan 2",
      "lat": 3.0753,
      "lng": 99.6923
    },
    {
      "cityName": "Barisan Gereja",
      "lat": 2.8562,
      "lng": 98.1444
    },
    {
      "cityName": "Barisan Mahar",
      "lat": 2.8714,
      "lng": 98.0649
    },
    {
      "cityName": "Barisan Malim",
      "lat": 2.8626,
      "lng": 98.0815
    },
    {
      "cityName": "Barisan Mesin",
      "lat": 2.969,
      "lng": 98.1617
    },
    {
      "cityName": "Barisan Perdomuan",
      "lat": 2.883,
      "lng": 98.1916
    },
    {
      "cityName": "Barisan Selamat",
      "lat": 2.8813,
      "lng": 98.0479
    },
    {
      "cityName": "Barisan Siempung",
      "lat": 2.8664,
      "lng": 98.1965
    },
    {
      "cityName": "Barisan Sinaga",
      "lat": 2.8839,
      "lng": 98.1856
    },
    {
      "cityName": "Baris",
      "lat": 2.9273,
      "lng": 99.1071
    },
    {
      "cityName": "Barjohan",
      "lat": 3.337,
      "lng": 98.9302
    },
    {
      "cityName": "Baroes",
      "lat": 2,
      "lng": 98.4
    },
    {
      "cityName": "Baroh",
      "lat": 3.0031,
      "lng": 99.0562
    },
    {
      "cityName": "Barong Barong",
      "lat": 3.1414,
      "lng": 98.9881
    },
    {
      "cityName": "Bartong",
      "lat": 3.0441,
      "lng": 99.0489
    },
    {
      "cityName": "Baruangketang",
      "lat": 3.428,
      "lng": 98.6014
    },
    {
      "cityName": "Baruara",
      "lat": 2.3341,
      "lng": 99.1045
    },
    {
      "cityName": "Barubai",
      "lat": 3.0522,
      "lng": 98.7071
    },
    {
      "cityName": "Baru",
      "lat": 3.61259,
      "lng": 98.82672
    },
    {
      "cityName": "Baruju",
      "lat": -0.116667,
      "lng": 98.383333
    },
    {
      "cityName": "Barung-barung",
      "lat": 3.2371,
      "lng": 99.5201
    },
    {
      "cityName": "Barusdjahe",
      "lat": 3.1143,
      "lng": 98.5808
    },
    {
      "cityName": "Barusjulu",
      "lat": 3.1701,
      "lng": 98.5497
    },
    {
      "cityName": "Baru Titi Besi",
      "lat": 3.3855,
      "lng": 98.9214
    },
    {
      "cityName": "Basam",
      "lat": 3.1889,
      "lng": 98.5455
    },
    {
      "cityName": "Basarsorkam",
      "lat": 1.8812,
      "lng": 98.5646
    },
    {
      "cityName": "Basuki",
      "lat": 3.5492,
      "lng": 98.3872
    },
    {
      "cityName": "Batangberiang",
      "lat": 3.6525,
      "lng": 98.9726
    },
    {
      "cityName": "Batang Buluh",
      "lat": 3.9027,
      "lng": 98.5173
    },
    {
      "cityName": "Batang Bulun",
      "lat": 3.7141,
      "lng": 98.7221
    },
    {
      "cityName": "Batangdle",
      "lat": 3.8192,
      "lng": 98.5546
    },
    {
      "cityName": "Batangio",
      "lat": 2.9139,
      "lng": 99.2304
    },
    {
      "cityName": "Batang Kuis",
      "lat": 3.61299,
      "lng": 98.80129
    },
    {
      "cityName": "Batangrejo",
      "lat": 4.0063,
      "lng": 98.3256
    },
    {
      "cityName": "Batang Sarangan",
      "lat": 3.7583,
      "lng": 98.2575
    },
    {
      "cityName": "Batang Sengal",
      "lat": 3.9276,
      "lng": 98.4488
    },
    {
      "cityName": "Batangsentang",
      "lat": 3.9643,
      "lng": 98.4821
    },
    {
      "cityName": "Batangsere",
      "lat": 3.8242,
      "lng": 98.6462
    },
    {
      "cityName": "Batang Terap",
      "lat": 3.5738,
      "lng": 98.9447
    },
    {
      "cityName": "Batangtimu",
      "lat": 3.7831,
      "lng": 98.5788
    },
    {
      "cityName": "Batangtoroe",
      "lat": 1.483333,
      "lng": 99.05
    },
    {
      "cityName": "Batjang",
      "lat": 3.4394,
      "lng": 98.1973
    },
    {
      "cityName": "Batu 5",
      "lat": 2.9594,
      "lng": 99.1199
    },
    {
      "cityName": "Batu 8",
      "lat": 2.8934,
      "lng": 99.0213
    },
    {
      "cityName": "Batualah",
      "lat": 2.6644,
      "lng": 98.2387
    },
    {
      "cityName": "Batu Anam",
      "lat": 3.704,
      "lng": 98.339
    },
    {
      "cityName": "Batubara",
      "lat": 1.9821,
      "lng": 98.9294
    },
    {
      "cityName": "Batu Belin",
      "lat": 3.2644,
      "lng": 98.6654
    },
    {
      "cityName": "Batubelin",
      "lat": 3.4394,
      "lng": 98.6715
    },
    {
      "cityName": "Batublin",
      "lat": 3.3465,
      "lng": 98.5945
    },
    {
      "cityName": "Batubolun",
      "lat": 1.9909,
      "lng": 98.9397
    },
    {
      "cityName": "Batubualan",
      "lat": 2.7778,
      "lng": 98.188
    },
    {
      "cityName": "Batudjoreng",
      "lat": 2.7998,
      "lng": 99.0657
    },
    {
      "cityName": "Batu Dongkol",
      "lat": 2.8417,
      "lng": 98.1609
    },
    {
      "cityName": "Batu Erdan",
      "lat": 2.9291,
      "lng": 98.207
    },
    {
      "cityName": "Batugadjah",
      "lat": 2.6729,
      "lng": 99.4166
    },
    {
      "cityName": "Batugana",
      "lat": 2.3113,
      "lng": 99.1574
    },
    {
      "cityName": "Batuganjang",
      "lat": 3.4261,
      "lng": 98.566
    },
    {
      "cityName": "Batugemuk",
      "lat": 3.4527,
      "lng": 98.678
    },
    {
      "cityName": "Batuguru",
      "lat": 3.4557,
      "lng": 98.3324
    },
    {
      "cityName": "Batuhapit",
      "lat": 2.9752,
      "lng": 99.3015
    },
    {
      "cityName": "Batuhapur",
      "lat": 2.0469,
      "lng": 99.2036
    },
    {
      "cityName": "Batuhoda",
      "lat": 2.355,
      "lng": 99.2276
    },
    {
      "cityName": "Batu Holing",
      "lat": 3.1754,
      "lng": 98.7625
    },
    {
      "cityName": "Batu III",
      "lat": 3.3107,
      "lng": 99.1365
    },
    {
      "cityName": "Batujongjong",
      "lat": 3.4203,
      "lng": 98.1737
    },
    {
      "cityName": "Batukarang",
      "lat": 3.1145,
      "lng": 98.356
    },
    {
      "cityName": "Batu Karang",
      "lat": 3.4003,
      "lng": 98.7116
    },
    {
      "cityName": "Batukasihan",
      "lat": 3.3601,
      "lng": 98.2943
    },
    {
      "cityName": "Batukatak",
      "lat": 3.4426,
      "lng": 98.1567
    },
    {
      "cityName": "Batu Layang",
      "lat": 3.3038,
      "lng": 98.5743
    },
    {
      "cityName": "Batuleap",
      "lat": 1.9145,
      "lng": 98.7098
    },
    {
      "cityName": "Batulimapuluh",
      "lat": 3.4828,
      "lng": 98.9506
    },
    {
      "cityName": "Batu Lokong",
      "lat": 3.4466,
      "lng": 98.8157
    },
    {
      "cityName": "Batuloting",
      "lat": 2.7293,
      "lng": 99.2639
    },
    {
      "cityName": "Batumakmak",
      "lat": 3.1477,
      "lng": 98.165
    },
    {
      "cityName": "Batumalenggang",
      "lat": 3.857,
      "lng": 98.4284
    },
    {
      "cityName": "Batumamak",
      "lat": 3.035,
      "lng": 98.3086
    },
    {
      "cityName": "Batumandi",
      "lat": 3.6449,
      "lng": 98.3817
    },
    {
      "cityName": "Batumasagi",
      "lat": 3.3116,
      "lng": 98.8388
    },
    {
      "cityName": "Batumbulan",
      "lat": 2.9781,
      "lng": 98.135
    },
    {
      "cityName": "Batumeraja 1",
      "lat": 2.6654,
      "lng": 99.3959
    },
    {
      "cityName": "Batumeraja 2",
      "lat": 2.6589,
      "lng": 99.3875
    },
    {
      "cityName": "Batu Minja",
      "lat": 3.4762,
      "lng": 98.4691
    },
    {
      "cityName": "Batu Minjahilir",
      "lat": 3.4843,
      "lng": 98.4701
    },
    {
      "cityName": "Batuminja Hulu",
      "lat": 3.4799,
      "lng": 98.4747
    },
    {
      "cityName": "Batunabolon",
      "lat": 2.2557,
      "lng": 99.0527
    },
    {
      "cityName": "Batupalit",
      "lat": 3.0876,
      "lng": 98.7027
    },
    {
      "cityName": "Batuperlandaan",
      "lat": 3.1867,
      "lng": 98.6469
    },
    {
      "cityName": "Batupihik",
      "lat": 3.3714,
      "lng": 99.0204
    },
    {
      "cityName": "Batu Pikir 1",
      "lat": 3.0475,
      "lng": 99.698
    },
    {
      "cityName": "Batu Pikir 2",
      "lat": 3.045,
      "lng": 99.7017
    },
    {
      "cityName": "Batupinuh",
      "lat": 3.1643,
      "lng": 98.6604
    },
    {
      "cityName": "Batuprawis",
      "lat": 2.4632,
      "lng": 98.0799
    },
    {
      "cityName": "Batupulu",
      "lat": 1.333333,
      "lng": 99.466667
    },
    {
      "cityName": "Batu Purba",
      "lat": 3.4523,
      "lng": 98.4992
    },
    {
      "cityName": "Baturangin",
      "lat": 2.3436,
      "lng": 98.1333
    },
    {
      "cityName": "Baturata",
      "lat": 3.4198,
      "lng": 98.8283
    },
    {
      "cityName": "Baturejo",
      "lat": 3.0489,
      "lng": 99.1265
    },
    {
      "cityName": "Baturonggang",
      "lat": 1.9507,
      "lng": 98.6089
    },
    {
      "cityName": "Baturongkam",
      "lat": 3.1722,
      "lng": 98.0126
    },
    {
      "cityName": "Baturoto",
      "lat": 2.8243,
      "lng": 99.0283
    },
    {
      "cityName": "Batusanggehen",
      "lat": 3.2737,
      "lng": 98.5948
    },
    {
      "cityName": "Batu Sembilan",
      "lat": 3.0161,
      "lng": 99.7938
    },
    {
      "cityName": "Batuseratus",
      "lat": 4.0886,
      "lng": 98.2433
    },
    {
      "cityName": "Batusigurut",
      "lat": 3.3079,
      "lng": 98.7697
    },
    {
      "cityName": "Batu Silangit",
      "lat": 3.0718,
      "lng": 99.0724
    },
    {
      "cityName": "Batutahapbaru",
      "lat": 3.2637,
      "lng": 99.2401
    },
    {
      "cityName": "Batutahaplama",
      "lat": 3.26,
      "lng": 99.2412
    },
    {
      "cityName": "Batu Tiga",
      "lat": 3.0204,
      "lng": 99.1532
    },
    {
      "cityName": "Batu Tiga Belas",
      "lat": 3.3461,
      "lng": 99.0696
    },
    {
      "cityName": "Batutigapuluh",
      "lat": 4.2397,
      "lng": 98.1019
    },
    {
      "cityName": "Batu V",
      "lat": 3.3002,
      "lng": 99.1194
    },
    {
      "cityName": "Bawalahusa",
      "lat": 0.6717,
      "lng": 97.864
    },
    {
      "cityName": "Bawalia",
      "lat": 1.0095,
      "lng": 97.8823
    },
    {
      "cityName": "Bawang",
      "lat": 3.0767,
      "lng": 98.5919
    },
    {
      "cityName": "Bawang Panu",
      "lat": 2.8128,
      "lng": 99.0375
    },
    {
      "cityName": "Bawasaloo",
      "lat": 0.9342,
      "lng": 97.7995
    },
    {
      "cityName": "Bawasawa",
      "lat": 0.8554,
      "lng": 97.3143
    },
    {
      "cityName": "Bawelowalani",
      "lat": 0.7986,
      "lng": 97.6415
    },
    {
      "cityName": "Bawodabara",
      "lat": 0.6004,
      "lng": 97.8477
    },
    {
      "cityName": "Bawomataluo",
      "lat": 0.6408,
      "lng": 97.7414
    },
    {
      "cityName": "Bawo Ofuloa",
      "lat": -0.15,
      "lng": 98.4
    },
    {
      "cityName": "Bawozitora",
      "lat": -0.1,
      "lng": 98.2
    },
    {
      "cityName": "Bawusaloo",
      "lat": 0.833,
      "lng": 97.3367
    },
    {
      "cityName": "Bebiru",
      "lat": 3.3759,
      "lng": 98.669
    },
    {
      "cityName": "Becamat",
      "lat": 3.3479,
      "lng": 98.7276
    },
    {
      "cityName": "Bedagai",
      "lat": 3.483,
      "lng": 99.1787
    },
    {
      "cityName": "Bederan",
      "lat": 3.4078,
      "lng": 98.2946
    },
    {
      "cityName": "Beganding",
      "lat": 3.112,
      "lng": 99.0562
    },
    {
      "cityName": "Begerpang",
      "lat": 3.412,
      "lng": 98.8261
    },
    {
      "cityName": "Bekala",
      "lat": 3.5052,
      "lng": 98.6322
    },
    {
      "cityName": "Bekancan",
      "lat": 3.3127,
      "lng": 98.3981
    },
    {
      "cityName": "Bekawar",
      "lat": 3.4112,
      "lng": 98.2109
    },
    {
      "cityName": "Bekerah",
      "lat": 3.1641,
      "lng": 98.4188
    },
    {
      "cityName": "Bekeri",
      "lat": 3.471,
      "lng": 98.5226
    },
    {
      "cityName": "Bekilang",
      "lat": 3.0218,
      "lng": 98.3167
    },
    {
      "cityName": "Bekosah",
      "lat": 3.4013,
      "lng": 98.7773
    },
    {
      "cityName": "Bekukul",
      "lat": 3.3801,
      "lng": 98.6153
    },
    {
      "cityName": "Bekusahkendjulu",
      "lat": 3.2857,
      "lng": 98.6056
    },
    {
      "cityName": "Bekusah Kenjahe",
      "lat": 3.2924,
      "lng": 98.6072
    },
    {
      "cityName": "Bekuyung",
      "lat": 3.3547,
      "lng": 98.6711
    },
    {
      "cityName": "Belaikasiti",
      "lat": 3.5268,
      "lng": 98.4275
    },
    {
      "cityName": "Belarang",
      "lat": 3.6025,
      "lng": 98.4493
    },
    {
      "cityName": "Belatik",
      "lat": 3.2331,
      "lng": 98.7831
    },
    {
      "cityName": "Belawan",
      "lat": 3.7755,
      "lng": 98.6832
    },
    {
      "cityName": "Belawan Dua",
      "lat": 3.7794,
      "lng": 98.6887
    },
    {
      "cityName": "Belawan I",
      "lat": 3.7834,
      "lng": 98.682
    },
    {
      "cityName": "Belawan III",
      "lat": 3.784,
      "lng": 98.6982
    },
    {
      "cityName": "Belidahan",
      "lat": 3.4641,
      "lng": 99.0976
    },
    {
      "cityName": "Belilir",
      "lat": 3.525,
      "lng": 98.431
    },
    {
      "cityName": "Belinge",
      "lat": 3.0847,
      "lng": 99.0324
    },
    {
      "cityName": "Belingking",
      "lat": 3.2556,
      "lng": 98.218
    },
    {
      "cityName": "Belingru",
      "lat": 3.9187,
      "lng": 98.635
    },
    {
      "cityName": "Belintang",
      "lat": 3.4484,
      "lng": 98.4808
    },
    {
      "cityName": "Belubon",
      "lat": 3.4403,
      "lng": 98.6052
    },
    {
      "cityName": "Beluwe-kanan",
      "lat": 3.8003,
      "lng": 98.6283
    },
    {
      "cityName": "Bendungan",
      "lat": 3.1518,
      "lng": 99.1937
    },
    {
      "cityName": "Bengabing",
      "lat": 3.5166,
      "lng": 98.99429
    },
    {
      "cityName": "Bengirum",
      "lat": 3.4441,
      "lng": 98.4994
    },
    {
      "cityName": "Bengkel",
      "lat": 3.7781,
      "lng": 98.5059
    },
    {
      "cityName": "Bengkil",
      "lat": 4.007,
      "lng": 98.167
    },
    {
      "cityName": "Bengkulap",
      "lat": 3.6009,
      "lng": 98.3826
    },
    {
      "cityName": "Bengkurung",
      "lat": 3.3399,
      "lng": 98.6072
    },
    {
      "cityName": "Bengunsari",
      "lat": 3.5269,
      "lng": 98.4053
    },
    {
      "cityName": "Benteng",
      "lat": 3.0896,
      "lng": 99.7828
    },
    {
      "cityName": "Berai Pelawi",
      "lat": 3.3024,
      "lng": 98.4217
    },
    {
      "cityName": "Berakai",
      "lat": 3.055,
      "lng": 99.0037
    },
    {
      "cityName": "Berambang",
      "lat": 3.6724,
      "lng": 98.8411
    },
    {
      "cityName": "Beranti",
      "lat": 3.2886,
      "lng": 98.5533
    },
    {
      "cityName": "Berasbasah",
      "lat": 4.1099,
      "lng": 98.2302
    },
    {
      "cityName": "Berasbulan",
      "lat": 3.391,
      "lng": 98.7271
    },
    {
      "cityName": "Berastagi",
      "lat": 3.1904,
      "lng": 98.5095
    },
    {
      "cityName": "Beras Tepu",
      "lat": 3.1411,
      "lng": 98.4218
    },
    {
      "cityName": "Berdikari",
      "lat": 3.2985,
      "lng": 99.3946
    },
    {
      "cityName": "Bergajahan Hulu",
      "lat": 3.2894,
      "lng": 98.9192
    },
    {
      "cityName": "Bergajahan Ilir",
      "lat": 3.295,
      "lng": 98.9312
    },
    {
      "cityName": "Berhala",
      "lat": 3.127,
      "lng": 98.5097
    },
    {
      "cityName": "Beringin 10",
      "lat": 3.6365,
      "lng": 98.86272
    },
    {
      "cityName": "Beringin 11",
      "lat": 3.63009,
      "lng": 98.8681
    },
    {
      "cityName": "Beringin 1",
      "lat": 3.61418,
      "lng": 98.89171
    },
    {
      "cityName": "Beringin 2",
      "lat": 3.61559,
      "lng": 98.87719
    },
    {
      "cityName": "Beringin 3",
      "lat": 3.617,
      "lng": 98.89391
    },
    {
      "cityName": "Beringin 4",
      "lat": 3.6182,
      "lng": 98.87732
    },
    {
      "cityName": "Beringin 6",
      "lat": 3.62011,
      "lng": 98.88869
    },
    {
      "cityName": "Beringin 7",
      "lat": 3.62049,
      "lng": 98.89781
    },
    {
      "cityName": "Beringin 8",
      "lat": 3.62529,
      "lng": 98.88729
    },
    {
      "cityName": "Beringin 9",
      "lat": 3.63161,
      "lng": 98.88921
    },
    {
      "cityName": "Beringin",
      "lat": 3.0299,
      "lng": 99.0827
    },
    {
      "cityName": "Bertah",
      "lat": 3.1223,
      "lng": 98.5447
    },
    {
      "cityName": "Bertungan Jahe",
      "lat": 2.9006,
      "lng": 98.1831
    },
    {
      "cityName": "Bertungan Julu",
      "lat": 2.876,
      "lng": 98.2175
    },
    {
      "cityName": "Bertungan Sukandebi",
      "lat": 2.9015,
      "lng": 98.198
    },
    {
      "cityName": "Beruai",
      "lat": 3.3914,
      "lng": 98.6778
    },
    {
      "cityName": "Beruam",
      "lat": 3.4868,
      "lng": 98.3656
    },
    {
      "cityName": "Berumbung",
      "lat": 2.7762,
      "lng": 99.4752
    },
    {
      "cityName": "Besad",
      "lat": 3.4825,
      "lng": 98.3499
    },
    {
      "cityName": "Besadilama",
      "lat": 3.4749,
      "lng": 98.3507
    },
    {
      "cityName": "Besar 1",
      "lat": 3.63119,
      "lng": 98.97221
    },
    {
      "cityName": "Besar 2",
      "lat": 3.62021,
      "lng": 98.97111
    },
    {
      "cityName": "Besar",
      "lat": 3.4003,
      "lng": 99.3491
    },
    {
      "cityName": "Besarhai",
      "lat": 3.1691,
      "lng": 98.9659
    },
    {
      "cityName": "Besarmaligas",
      "lat": 3.0971,
      "lng": 99.4096
    },
    {
      "cityName": "Besarmedolok",
      "lat": 2.8163,
      "lng": 99.0464
    },
    {
      "cityName": "Besibesi",
      "lat": 3.3137,
      "lng": 98.0894
    },
    {
      "cityName": "Besilam Bukit lembaso",
      "lat": 3.6731,
      "lng": 98.3014
    },
    {
      "cityName": "Besilamdarat",
      "lat": 3.8645,
      "lng": 98.3956
    },
    {
      "cityName": "Besilamhulu",
      "lat": 3.6675,
      "lng": 98.3007
    },
    {
      "cityName": "Besitang",
      "lat": 4.037,
      "lng": 98.1789
    },
    {
      "cityName": "Besitang Setasiun",
      "lat": 4.0431,
      "lng": 98.1867
    },
    {
      "cityName": "Besukum",
      "lat": 3.2632,
      "lng": 98.6088
    },
    {
      "cityName": "Besulah",
      "lat": 3.2237,
      "lng": 98.6958
    },
    {
      "cityName": "Betala",
      "lat": 3.3456,
      "lng": 98.6661
    },
    {
      "cityName": "Betala Kenjulu",
      "lat": 3.341,
      "lng": 98.677
    },
    {
      "cityName": "Betengan",
      "lat": 3.7951,
      "lng": 98.547
    },
    {
      "cityName": "Betengar Pasar",
      "lat": 3.5615,
      "lng": 98.391
    },
    {
      "cityName": "Betengorsawah",
      "lat": 3.5725,
      "lng": 98.4082
    },
    {
      "cityName": "Betengraja",
      "lat": 3.7637,
      "lng": 98.2705
    },
    {
      "cityName": "Betengsari",
      "lat": 3.7764,
      "lng": 98.2838
    },
    {
      "cityName": "Beterpuh",
      "lat": 3.3432,
      "lng": 98.462
    },
    {
      "cityName": "Betimusbaru",
      "lat": 3.3019,
      "lng": 98.5605
    },
    {
      "cityName": "Betimus Dekah",
      "lat": 3.3036,
      "lng": 98.5588
    },
    {
      "cityName": "Betinga",
      "lat": 3.577,
      "lng": 98.398
    },
    {
      "cityName": "Betingtoentoeng",
      "lat": 3.9029,
      "lng": 98.6793
    },
    {
      "cityName": "Betoektak",
      "lat": 3.4461,
      "lng": 98.7693
    },
    {
      "cityName": "Betung",
      "lat": 3.0398,
      "lng": 98.2631
    },
    {
      "cityName": "Betungunggung",
      "lat": 2.9442,
      "lng": 98.1663
    },
    {
      "cityName": "Biagom",
      "lat": 3.2603,
      "lng": 98.8242
    },
    {
      "cityName": "Biak Namue",
      "lat": 3.0682,
      "lng": 98.3946
    },
    {
      "cityName": "Bicara",
      "lat": 3.3232,
      "lng": 99.1458
    },
    {
      "cityName": "Bina Karya",
      "lat": 3.4315,
      "lng": 98.7832
    },
    {
      "cityName": "Binalun",
      "lat": 2.6815,
      "lng": 98.1751
    },
    {
      "cityName": "Binanga",
      "lat": 1.4,
      "lng": 99.766667
    },
    {
      "cityName": "Binangalom",
      "lat": 2.5224,
      "lng": 99.0344
    },
    {
      "cityName": "Bindjai",
      "lat": 3.3348,
      "lng": 99.2123
    },
    {
      "cityName": "Bindjei",
      "lat": 3.6001,
      "lng": 98.4854
    },
    {
      "cityName": "Bindjohara",
      "lat": 2.2114,
      "lng": 98.2256
    },
    {
      "cityName": "Bingai",
      "lat": 3.7284,
      "lng": 98.3844
    },
    {
      "cityName": "Bingkat",
      "lat": 3.4834,
      "lng": 98.9625
    },
    {
      "cityName": "Bingkawang",
      "lat": 3.3598,
      "lng": 98.584
    },
    {
      "cityName": "Binjai Bakung",
      "lat": 3.6454,
      "lng": 98.9387
    },
    {
      "cityName": "Binjai",
      "lat": 3.564,
      "lng": 98.724
    },
    {
      "cityName": "Binjai Estate",
      "lat": 3.5881,
      "lng": 98.4692
    },
    {
      "cityName": "Binjaisawah",
      "lat": 3.3445,
      "lng": 99.2127
    },
    {
      "cityName": "Binole",
      "lat": 0.8529,
      "lng": 97.3655
    },
    {
      "cityName": "Bintang Bayu",
      "lat": 3.3008,
      "lng": 98.9299
    },
    {
      "cityName": "Bintang",
      "lat": 2.933333,
      "lng": 98.783333
    },
    {
      "cityName": "Bintang Bulan",
      "lat": 3.411,
      "lng": 98.7816
    },
    {
      "cityName": "Bintang Meriah",
      "lat": 3.1158,
      "lng": 98.7048
    },
    {
      "cityName": "Bintangmeriah",
      "lat": 3.663,
      "lng": 98.2915
    },
    {
      "cityName": "Bintang Terang",
      "lat": 3.6141,
      "lng": 98.5641
    },
    {
      "cityName": "Bintang Timur",
      "lat": 3.376,
      "lng": 98.9896
    },
    {
      "cityName": "Biru",
      "lat": 2.0601,
      "lng": 99.1165
    },
    {
      "cityName": "Birubiru",
      "lat": 3.3707,
      "lng": 98.6666
    },
    {
      "cityName": "Biskang",
      "lat": 2.3154,
      "lng": 98.1124
    },
    {
      "cityName": "Blimbingan",
      "lat": 3.4304,
      "lng": 98.5197
    },
    {
      "cityName": "Blok 10",
      "lat": 2.8205,
      "lng": 99.0778
    },
    {
      "cityName": "Blok 11",
      "lat": 2.9527,
      "lng": 99.004
    },
    {
      "cityName": "Blok-15",
      "lat": 2.3999,
      "lng": 97.9867
    },
    {
      "cityName": "Blok-18",
      "lat": 2.3783,
      "lng": 97.9712
    },
    {
      "cityName": "Blok 20",
      "lat": 3.2959,
      "lng": 99.4392
    },
    {
      "cityName": "Blok 2",
      "lat": 2.9684,
      "lng": 99.043
    },
    {
      "cityName": "Blok-6 Baru",
      "lat": 2.391,
      "lng": 97.9706
    },
    {
      "cityName": "Blok-6",
      "lat": 2.3948,
      "lng": 97.9711
    },
    {
      "cityName": "Blok-6 Kampung",
      "lat": 2.3828,
      "lng": 97.9675
    },
    {
      "cityName": "Blok 6 Tanjung Muda",
      "lat": 3.2287,
      "lng": 99.3541
    },
    {
      "cityName": "Blok 8",
      "lat": 2.9806,
      "lng": 99.0377
    },
    {
      "cityName": "Blok 9",
      "lat": 2.933,
      "lng": 99.1077
    },
    {
      "cityName": "Blok Empat",
      "lat": 3.3928,
      "lng": 99.2929
    },
    {
      "cityName": "Blok M",
      "lat": 3.8329,
      "lng": 98.5288
    },
    {
      "cityName": "Blok N",
      "lat": 3.8348,
      "lng": 98.5339
    },
    {
      "cityName": "Blokpasar 3",
      "lat": 3.4715,
      "lng": 98.7138
    },
    {
      "cityName": "Blokpasar 4",
      "lat": 3.4674,
      "lng": 98.7147
    },
    {
      "cityName": "Blokpasar 5",
      "lat": 3.4624,
      "lng": 98.7151
    },
    {
      "cityName": "Blok Sepuluh Ujung",
      "lat": 4.2097,
      "lng": 98.0856
    },
    {
      "cityName": "Blora",
      "lat": 3.596,
      "lng": 98.8883
    },
    {
      "cityName": "Bodsihona",
      "lat": 1.0959,
      "lng": 97.8282
    },
    {
      "cityName": "Boekitkoeboe",
      "lat": 4.0358,
      "lng": 98.1743
    },
    {
      "cityName": "Boeloedoekoe",
      "lat": 2.3564,
      "lng": 98.2326
    },
    {
      "cityName": "Boeloehaoertjina",
      "lat": 2.033333,
      "lng": 99.9
    },
    {
      "cityName": "Boeloehpajoeng",
      "lat": 1.633333,
      "lng": 99.183333
    },
    {
      "cityName": "Boelohsama",
      "lat": 2.5547,
      "lng": 97.6603
    },
    {
      "cityName": "Boentoesialtong",
      "lat": 2.8221,
      "lng": 99.1638
    },
    {
      "cityName": "Boetar",
      "lat": 2.166667,
      "lng": 98.933333
    },
    {
      "cityName": "Bogabaru",
      "lat": 3.3537,
      "lng": 98.301
    },
    {
      "cityName": "Boga",
      "lat": 3.2253,
      "lng": 99.5814
    },
    {
      "cityName": "Boga-lama",
      "lat": 3.3495,
      "lng": 98.2983
    },
    {
      "cityName": "Bogarawi",
      "lat": 1.0411,
      "lng": 97.5022
    },
    {
      "cityName": "Bogerse",
      "lat": 3.5463,
      "lng": 98.276
    },
    {
      "cityName": "Bohorok 1",
      "lat": 3.4923,
      "lng": 98.1843
    },
    {
      "cityName": "Boila",
      "lat": 1.3835,
      "lng": 97.1867
    },
    {
      "cityName": "Boirosi",
      "lat": 1.256836,
      "lng": 97.251306
    },
    {
      "cityName": "Bojan Lama",
      "lat": 3.7668,
      "lng": 98.2833
    },
    {
      "cityName": "Boli",
      "lat": -0.133333,
      "lng": 98.183333
    },
    {
      "cityName": "Boltok Nihuta",
      "lat": 2.5119,
      "lng": 99.1415
    },
    {
      "cityName": "Boluk",
      "lat": 3.0793,
      "lng": 99.3418
    },
    {
      "cityName": "Bomboito",
      "lat": 1.1179,
      "lng": 97.7228
    },
    {
      "cityName": "Bombongan",
      "lat": 2.9114,
      "lng": 99.0031
    },
    {
      "cityName": "Bonaa",
      "lat": 1.2401,
      "lng": 97.5913
    },
    {
      "cityName": "Bona-bona",
      "lat": 1.9837,
      "lng": 98.9812
    },
    {
      "cityName": "Bonabondar",
      "lat": 2.7176,
      "lng": 99.0892
    },
    {
      "cityName": "Bonan Dolok",
      "lat": 1.7695,
      "lng": 98.8076
    },
    {
      "cityName": "Bonandolok",
      "lat": 2.1151,
      "lng": 99.1505
    },
    {
      "cityName": "Bonbongan",
      "lat": 3.099,
      "lng": 98.8298
    },
    {
      "cityName": "Bondar",
      "lat": 2.9083,
      "lng": 99.0323
    },
    {
      "cityName": "Bongbongannabolon",
      "lat": 2.9972,
      "lng": 99.0891
    },
    {
      "cityName": "Bongbonganurat",
      "lat": 2.9566,
      "lng": 99.0519
    },
    {
      "cityName": "Bonggung",
      "lat": 2.5399,
      "lng": 99.114
    },
    {
      "cityName": "Bongkaran",
      "lat": 2.8818,
      "lng": 99.0613
    },
    {
      "cityName": "Bongkaras 1",
      "lat": 2.8035,
      "lng": 98.1274
    },
    {
      "cityName": "Bongkaras 2",
      "lat": 2.7984,
      "lng": 98.126
    },
    {
      "cityName": "Bongkaras",
      "lat": 2.416667,
      "lng": 98.3
    },
    {
      "cityName": "Borna",
      "lat": 3.0459,
      "lng": 98.886
    },
    {
      "cityName": "Borotan",
      "lat": 1.6952,
      "lng": 98.8637
    },
    {
      "cityName": "Bosar",
      "lat": 2.8922,
      "lng": 99.02
    },
    {
      "cityName": "Bosargalugur",
      "lat": 2.8985,
      "lng": 99.2212
    },
    {
      "cityName": "Bosarmadjawa",
      "lat": 2.9872,
      "lng": 99.2787
    },
    {
      "cityName": "Bosar Sipinggan",
      "lat": 2.7824,
      "lng": 99.2846
    },
    {
      "cityName": "Bosarsipoldas",
      "lat": 3.0788,
      "lng": 99.4914
    },
    {
      "cityName": "Botohili",
      "lat": 0.8852,
      "lng": 97.5826
    },
    {
      "cityName": "Botot",
      "lat": 1.8836,
      "lng": 98.5798
    },
    {
      "cityName": "Boyan Baru",
      "lat": 3.7735,
      "lng": 98.2885
    },
    {
      "cityName": "Boyan",
      "lat": 3.6885,
      "lng": 98.4566
    },
    {
      "cityName": "Boyolali",
      "lat": 3.5339,
      "lng": 98.3536
    },
    {
      "cityName": "Brahala",
      "lat": 1.966667,
      "lng": 99.75
    },
    {
      "cityName": "Branti",
      "lat": 3.3442,
      "lng": 98.7158
    },
    {
      "cityName": "Brohol",
      "lat": 3.342,
      "lng": 99.1446
    },
    {
      "cityName": "Buah-keras",
      "lat": 3.4025,
      "lng": 99.3187
    },
    {
      "cityName": "Buahradja",
      "lat": 3.1456,
      "lng": 98.249
    },
    {
      "cityName": "Buah Raja",
      "lat": 3.3839,
      "lng": 98.4734
    },
    {
      "cityName": "Buantan",
      "lat": 3.4927,
      "lng": 99.1847
    },
    {
      "cityName": "Bubun",
      "lat": 3.9924,
      "lng": 98.4985
    },
    {
      "cityName": "Budan",
      "lat": 3.2108,
      "lng": 97.9936
    },
    {
      "cityName": "Budiman",
      "lat": 3.4771,
      "lng": 99.1417
    },
    {
      "cityName": "Budisetia",
      "lat": 3.5232,
      "lng": 98.3454
    },
    {
      "cityName": "Buhitbaju",
      "lat": 2.9759,
      "lng": 99.226
    },
    {
      "cityName": "Buhitkataran",
      "lat": 3.0917,
      "lng": 99.1654
    },
    {
      "cityName": "Buitnangge",
      "lat": 2.1815,
      "lng": 99.0614
    },
    {
      "cityName": "Bukicerminulu",
      "lat": 3.2652,
      "lng": 99.04
    },
    {
      "cityName": "Bukit 1",
      "lat": 3.3396,
      "lng": 98.9192
    },
    {
      "cityName": "Bukit 2",
      "lat": 3.3467,
      "lng": 98.9065
    },
    {
      "cityName": "Bukit 8",
      "lat": 3.9038,
      "lng": 98.3951
    },
    {
      "cityName": "Bukit Arjuna",
      "lat": 4.0532,
      "lng": 98.1287
    },
    {
      "cityName": "Bukit Bagasan",
      "lat": 2.971,
      "lng": 99.2292
    },
    {
      "cityName": "Bukit Baru",
      "lat": 2.9024,
      "lng": 98.159
    },
    {
      "cityName": "Bukit Batu",
      "lat": 3.7861,
      "lng": 98.3791
    },
    {
      "cityName": "Bukitbegantung",
      "lat": 3.5778,
      "lng": 98.3005
    },
    {
      "cityName": "Bukit Belah",
      "lat": 3.78,
      "lng": 98.3739
    },
    {
      "cityName": "Bukit Beringin",
      "lat": 2.8431,
      "lng": 98.1393
    },
    {
      "cityName": "Bukit",
      "lat": 2.8669,
      "lng": 99.1269
    },
    {
      "cityName": "Bukitcerminilir",
      "lat": 3.2856,
      "lng": 99.0694
    },
    {
      "cityName": "Bukit Gading",
      "lat": 2.8017,
      "lng": 99.1229
    },
    {
      "cityName": "Bukit Gantung",
      "lat": 3.7666,
      "lng": 98.3717
    },
    {
      "cityName": "Bukit Jengkol",
      "lat": 4.1184,
      "lng": 98.2172
    },
    {
      "cityName": "Bukitkapal",
      "lat": 4.223,
      "lng": 98.1405
    },
    {
      "cityName": "Bukitkeliling",
      "lat": 4.0271,
      "lng": 98.1519
    },
    {
      "cityName": "Bukit Kunci",
      "lat": 4.1004,
      "lng": 98.2225
    },
    {
      "cityName": "Bukit Maninjau",
      "lat": 3.5308,
      "lng": 98.3543
    },
    {
      "cityName": "Bukit Maraja",
      "lat": 2.9999,
      "lng": 99.2158
    },
    {
      "cityName": "Bukitmaraja",
      "lat": 3.0029,
      "lng": 99.2235
    },
    {
      "cityName": "Bukit Martoba",
      "lat": 2.9968,
      "lng": 99.0816
    },
    {
      "cityName": "Bukitmas",
      "lat": 3.7476,
      "lng": 98.4828
    },
    {
      "cityName": "Bukit Mas",
      "lat": 3.7525,
      "lng": 98.4827
    },
    {
      "cityName": "Bukitmelintang",
      "lat": 3.7121,
      "lng": 98.3818
    },
    {
      "cityName": "Bukitmerbau",
      "lat": 4.2403,
      "lng": 98.1861
    },
    {
      "cityName": "Bukitpayung",
      "lat": 3.891,
      "lng": 98.3666
    },
    {
      "cityName": "Bukitperdamuan Nauli",
      "lat": 3.6648,
      "lng": 98.3989
    },
    {
      "cityName": "Bukit Plawi",
      "lat": 4.099,
      "lng": 98.2145
    },
    {
      "cityName": "Bukitrata",
      "lat": 4.0932,
      "lng": 98.2441
    },
    {
      "cityName": "Bukitrejo",
      "lat": 3.8608,
      "lng": 98.3527
    },
    {
      "cityName": "Bukit Sari",
      "lat": 3.8587,
      "lng": 98.3004
    },
    {
      "cityName": "Bukit Sentang",
      "lat": 3.981,
      "lng": 98.3215
    },
    {
      "cityName": "Bukit Sepuluh",
      "lat": 4.2407,
      "lng": 98.1406
    },
    {
      "cityName": "Bukit Serati",
      "lat": 3.9479,
      "lng": 98.3735
    },
    {
      "cityName": "Bukit Slamet",
      "lat": 4.0718,
      "lng": 98.1217
    },
    {
      "cityName": "Bukit Tinggi",
      "lat": 3.9203,
      "lng": 98.2971
    },
    {
      "cityName": "Bukittiram",
      "lat": 4.2224,
      "lng": 98.1261
    },
    {
      "cityName": "Bukittua",
      "lat": 3.8695,
      "lng": 98.3567
    },
    {
      "cityName": "Bukoan",
      "lat": 3.2417,
      "lng": 98.5647
    },
    {
      "cityName": "Bukum 1",
      "lat": 3.2394,
      "lng": 98.5773
    },
    {
      "cityName": "Bulan Baru",
      "lat": 3.1603,
      "lng": 98.489
    },
    {
      "cityName": "Bulanjaha",
      "lat": 3.086,
      "lng": 98.566
    },
    {
      "cityName": "Bulanjulu",
      "lat": 3.0889,
      "lng": 98.5787
    },
    {
      "cityName": "Bulara",
      "lat": 2.4898,
      "lng": 98.0114
    },
    {
      "cityName": "Bulian",
      "lat": 3.3341,
      "lng": 99.1418
    },
    {
      "cityName": "Bulkit-raja",
      "lat": 2.8147,
      "lng": 99.4978
    },
    {
      "cityName": "Bulo Hanopan",
      "lat": 3.1455,
      "lng": 98.8388
    },
    {
      "cityName": "Bulubadak",
      "lat": 1.8004,
      "lng": 98.8462
    },
    {
      "cityName": "Bulucinapasar 7",
      "lat": 3.7274,
      "lng": 98.5439
    },
    {
      "cityName": "Bulu Cirra",
      "lat": 2.9513,
      "lng": 99.4872
    },
    {
      "cityName": "Buluduri",
      "lat": 1.8645,
      "lng": 98.859
    },
    {
      "cityName": "Bulu Gundur",
      "lat": 3.3263,
      "lng": 98.6902
    },
    {
      "cityName": "Bulu Hawar",
      "lat": 3.2974,
      "lng": 98.5952
    },
    {
      "cityName": "Buluhbelin",
      "lat": 3.2661,
      "lng": 98.6614
    },
    {
      "cityName": "Buluhcina",
      "lat": 3.1706,
      "lng": 99.5274
    },
    {
      "cityName": "Buluhduri",
      "lat": 2.7967,
      "lng": 98.2054
    },
    {
      "cityName": "Buluhkumpal",
      "lat": 3.3601,
      "lng": 98.3052
    },
    {
      "cityName": "Buluhlaga",
      "lat": 3.2536,
      "lng": 98.6676
    },
    {
      "cityName": "Buluhmengkal",
      "lat": 2.9818,
      "lng": 98.1352
    },
    {
      "cityName": "Buluh Naman",
      "lat": 3.0814,
      "lng": 98.3753
    },
    {
      "cityName": "Buluhnipis",
      "lat": 3.201,
      "lng": 98.714
    },
    {
      "cityName": "Buluh Pancur",
      "lat": 3.1576,
      "lng": 98.0635
    },
    {
      "cityName": "Buluhpering",
      "lat": 3.3533,
      "lng": 98.3927
    },
    {
      "cityName": "Buluh-raja",
      "lat": 3.0114,
      "lng": 98.8539
    },
    {
      "cityName": "Buluhregen",
      "lat": 3.0658,
      "lng": 98.1526
    },
    {
      "cityName": "Buluhsemma",
      "lat": 2.9185,
      "lng": 98.2187
    },
    {
      "cityName": "Buluhtunong",
      "lat": 4.1961,
      "lng": 98.176
    },
    {
      "cityName": "Bululaga",
      "lat": 2.4346,
      "lng": 98.155
    },
    {
      "cityName": "Bulunipis",
      "lat": 3.3681,
      "lng": 98.6734
    },
    {
      "cityName": "Bulupring",
      "lat": 3.3196,
      "lng": 98.7052
    },
    {
      "cityName": "Bulu Telang",
      "lat": 3.8627,
      "lng": 98.3241
    },
    {
      "cityName": "Bungabaru",
      "lat": 3.082,
      "lng": 98.2998
    },
    {
      "cityName": "Bungadjulu",
      "lat": 2.58,
      "lng": 98.2139
    },
    {
      "cityName": "Bungahuta",
      "lat": 2.9327,
      "lng": 99.2527
    },
    {
      "cityName": "Bunga Melur",
      "lat": 3.5026,
      "lng": 97.8315
    },
    {
      "cityName": "Bunga Rintai",
      "lat": 3.347,
      "lng": 98.3841
    },
    {
      "cityName": "Bungarinte",
      "lat": 3.3473,
      "lng": 98.2889
    },
    {
      "cityName": "Bungaserundi",
      "lat": 3.2248,
      "lng": 99.0815
    },
    {
      "cityName": "Bungateran",
      "lat": 3.3227,
      "lng": 98.4787
    },
    {
      "cityName": "Bunga Tunjung",
      "lat": 3.4006,
      "lng": 98.4695
    },
    {
      "cityName": "Bungus",
      "lat": 1.7113,
      "lng": 98.8497
    },
    {
      "cityName": "Bunian",
      "lat": 2.8121,
      "lng": 98.1213
    },
    {
      "cityName": "Buntubedimbar 1",
      "lat": 3.56741,
      "lng": 98.79611
    },
    {
      "cityName": "Buntubedimbar 2",
      "lat": 3.5562,
      "lng": 98.7858
    },
    {
      "cityName": "Buntubedimbar 5",
      "lat": 3.5467,
      "lng": 98.7816
    },
    {
      "cityName": "Buntubedimbar 6",
      "lat": 3.5361,
      "lng": 98.788
    },
    {
      "cityName": "Buntubedimbar",
      "lat": 3.5273,
      "lng": 98.7886
    },
    {
      "cityName": "Buntu",
      "lat": 3.0785,
      "lng": 99.2215
    },
    {
      "cityName": "Buntudipar",
      "lat": 2.8409,
      "lng": 99.2054
    },
    {
      "cityName": "Buntudjawa",
      "lat": 2.8371,
      "lng": 99.1834
    },
    {
      "cityName": "Buntugandjang",
      "lat": 3.0669,
      "lng": 98.8724
    },
    {
      "cityName": "Buntugunung",
      "lat": 2.8485,
      "lng": 99.0756
    },
    {
      "cityName": "Buntuhuluandua",
      "lat": 2.7719,
      "lng": 99.0985
    },
    {
      "cityName": "Buntuhuluantiga",
      "lat": 2.7768,
      "lng": 99.0952
    },
    {
      "cityName": "Buntujarangan",
      "lat": 3.3481,
      "lng": 99.0005
    },
    {
      "cityName": "Buntukriahan",
      "lat": 3.2313,
      "lng": 98.7633
    },
    {
      "cityName": "Buntumahoras",
      "lat": 2.8291,
      "lng": 99.1671
    },
    {
      "cityName": "Buntu Maria",
      "lat": 2.729,
      "lng": 99.0916
    },
    {
      "cityName": "Buntumartimbalan",
      "lat": 3.2442,
      "lng": 99.3073
    },
    {
      "cityName": "Buntumeradja",
      "lat": 2.7759,
      "lng": 99.3405
    },
    {
      "cityName": "Buntu Pane",
      "lat": 2.8704,
      "lng": 99.496
    },
    {
      "cityName": "Buntu Raja",
      "lat": 2.822,
      "lng": 98.1981
    },
    {
      "cityName": "Buntusiantar 1",
      "lat": 2.7805,
      "lng": 99.1456
    },
    {
      "cityName": "Buntusiantar 2",
      "lat": 2.775,
      "lng": 99.1455
    },
    {
      "cityName": "Buntu Siantar",
      "lat": 3.1309,
      "lng": 98.7994
    },
    {
      "cityName": "Buntuturunan Baru",
      "lat": 2.8144,
      "lng": 99.1868
    },
    {
      "cityName": "Buntuturunan",
      "lat": 2.81,
      "lng": 99.1785
    },
    {
      "cityName": "Bunubaru",
      "lat": 3.0858,
      "lng": 98.5101
    },
    {
      "cityName": "Bunu-raja",
      "lat": 3.085,
      "lng": 98.4945
    },
    {
      "cityName": "Bunuraya",
      "lat": 3.0603,
      "lng": 98.5162
    },
    {
      "cityName": "Bunut Barat 1",
      "lat": 3.0149,
      "lng": 99.6022
    },
    {
      "cityName": "Bunut Barat 2",
      "lat": 3.0182,
      "lng": 99.5958
    },
    {
      "cityName": "Bunut Barat 3",
      "lat": 3.0129,
      "lng": 99.5918
    },
    {
      "cityName": "Bunut Barat 4",
      "lat": 3.0187,
      "lng": 99.5826
    },
    {
      "cityName": "Bunut Barat 5",
      "lat": 3.0158,
      "lng": 99.5862
    },
    {
      "cityName": "Bunut Barat 6",
      "lat": 3.0155,
      "lng": 99.5786
    },
    {
      "cityName": "Bunut",
      "lat": 2.9112,
      "lng": 99.4364
    },
    {
      "cityName": "Bunut Seberang",
      "lat": 3.025,
      "lng": 99.6227
    },
    {
      "cityName": "Bunut-selatan",
      "lat": 3.0079,
      "lng": 99.6029
    },
    {
      "cityName": "Busungbatu",
      "lat": 3.5077,
      "lng": 97.819
    },
    {
      "cityName": "Butturaja",
      "lat": 3.2563,
      "lng": 99.0143
    },
    {
      "cityName": "Cabangkanan",
      "lat": 3.8018,
      "lng": 98.5112
    },
    {
      "cityName": "Cabangkiri",
      "lat": 3.79,
      "lng": 98.5183
    },
    {
      "cityName": "Cahaya Pardomuan",
      "lat": 3.184,
      "lng": 99.5123
    },
    {
      "cityName": "Candirejo",
      "lat": 3.4571,
      "lng": 98.6895
    },
    {
      "cityName": "Cebahen",
      "lat": 3.1829,
      "lng": 98.3333
    },
    {
      "cityName": "Celawan",
      "lat": 3.6268,
      "lng": 98.9623
    },
    {
      "cityName": "Cemara",
      "lat": 3.4013,
      "lng": 98.8964
    },
    {
      "cityName": "Cempa",
      "lat": 3.8824,
      "lng": 98.4211
    },
    {
      "cityName": "Cempedakbejokan",
      "lat": 3.3517,
      "lng": 99.0142
    },
    {
      "cityName": "Cempedak",
      "lat": 3.4106,
      "lng": 99.313
    },
    {
      "cityName": "Cempedaklobang",
      "lat": 3.4811,
      "lng": 99.1017
    },
    {
      "cityName": "Cerumbu",
      "lat": 3.2003,
      "lng": 98.1006
    },
    {
      "cityName": "Chinakasih",
      "lat": 3.4089,
      "lng": 99.0682
    },
    {
      "cityName": "Christen",
      "lat": 2.9475,
      "lng": 99.0546
    },
    {
      "cityName": "Cibubukan",
      "lat": 2.4455,
      "lng": 97.9633
    },
    {
      "cityName": "Cilacap",
      "lat": 3.60397,
      "lng": 98.88431
    },
    {
      "cityName": "Cimahi",
      "lat": 3.3849,
      "lng": 98.7889
    },
    {
      "cityName": "Cimbang",
      "lat": 3.1084,
      "lng": 98.3954
    },
    {
      "cityName": "Cina",
      "lat": 3.781,
      "lng": 98.6717
    },
    {
      "cityName": "Cingkam",
      "lat": 2.4101,
      "lng": 97.9467
    },
    {
      "cityName": "Cingkes",
      "lat": 3.0407,
      "lng": 98.5839
    },
    {
      "cityName": "Cintadamai 1/2",
      "lat": 2.903,
      "lng": 99.1587
    },
    {
      "cityName": "Cintadamai 3",
      "lat": 2.9045,
      "lng": 99.1587
    },
    {
      "cityName": "Cintadamai 4",
      "lat": 2.9018,
      "lng": 99.1539
    },
    {
      "cityName": "Cintadamai",
      "lat": 3.262,
      "lng": 99.4041
    },
    {
      "cityName": "Cinta Damai",
      "lat": 3.5992,
      "lng": 98.6106
    },
    {
      "cityName": "Cintadapat",
      "lat": 3.5932,
      "lng": 98.428
    },
    {
      "cityName": "Cintajadi",
      "lat": 3.0731,
      "lng": 99.5393
    },
    {
      "cityName": "Cinta Raja",
      "lat": 3.8281,
      "lng": 98.4834
    },
    {
      "cityName": "Cinta Rakyat",
      "lat": 2.8799,
      "lng": 99.1881
    },
    {
      "cityName": "Cintarakyat",
      "lat": 3.1922,
      "lng": 98.479
    },
    {
      "cityName": "Ciptadarma",
      "lat": 3.6353,
      "lng": 98.2552
    },
    {
      "cityName": "Citaman Jernih",
      "lat": 3.5655,
      "lng": 98.9483
    },
    {
      "cityName": "Cuidrao",
      "lat": 0.7892,
      "lng": 97.6941
    },
    {
      "cityName": "Dabuantintin",
      "lat": 2.9134,
      "lng": 99.3957
    },
    {
      "cityName": "Dadap",
      "lat": 3.63089,
      "lng": 98.98
    },
    {
      "cityName": "Dagang Batu",
      "lat": 3.3696,
      "lng": 98.3104
    },
    {
      "cityName": "Dagang Buluh",
      "lat": 3.2835,
      "lng": 98.7909
    },
    {
      "cityName": "Dagang",
      "lat": 3.3386,
      "lng": 98.3953
    },
    {
      "cityName": "Dagang Dokah",
      "lat": 3.2428,
      "lng": 98.9996
    },
    {
      "cityName": "Daganghadji",
      "lat": 3.3261,
      "lng": 98.5081
    },
    {
      "cityName": "Dagangkahwa 1",
      "lat": 3.6941,
      "lng": 98.5972
    },
    {
      "cityName": "Dagangkahwa 2",
      "lat": 3.684,
      "lng": 98.6157
    },
    {
      "cityName": "Dagang Kerawan",
      "lat": 3.50169,
      "lng": 98.78961
    },
    {
      "cityName": "Dagang Klambir",
      "lat": 3.5502,
      "lng": 98.7974
    },
    {
      "cityName": "Dagang Kumbar",
      "lat": 3.5138,
      "lng": 98.5417
    },
    {
      "cityName": "Dagang Pergihan",
      "lat": 3.3506,
      "lng": 98.4899
    },
    {
      "cityName": "Dagangsukadjulu",
      "lat": 3.3533,
      "lng": 98.4967
    },
    {
      "cityName": "Dagangtelun",
      "lat": 3.3644,
      "lng": 98.3615
    },
    {
      "cityName": "Daharisilebar",
      "lat": 3.2345,
      "lng": 99.5435
    },
    {
      "cityName": "Dairipangasean",
      "lat": 2.4094,
      "lng": 99.1889
    },
    {
      "cityName": "Dalam",
      "lat": 3.4008,
      "lng": 98.7264
    },
    {
      "cityName": "Dalam Rimbun",
      "lat": 3.4717,
      "lng": 98.5382
    },
    {
      "cityName": "Dalam Seribu",
      "lat": 3.2912,
      "lng": 98.8309
    },
    {
      "cityName": "Dalam Suka",
      "lat": 3.4746,
      "lng": 98.5386
    },
    {
      "cityName": "Dalanbajukahean",
      "lat": 3.23,
      "lng": 98.939
    },
    {
      "cityName": "Dalandolok",
      "lat": 3.05,
      "lng": 98.816667
    },
    {
      "cityName": "Dalan Naman",
      "lat": 3.5251,
      "lng": 98.4072
    },
    {
      "cityName": "Daledale",
      "lat": 0,
      "lng": 98.383333
    },
    {
      "cityName": "Daludalu",
      "lat": 3.3726,
      "lng": 99.3464
    },
    {
      "cityName": "Dalu Sepuluh A 5",
      "lat": 3.563,
      "lng": 98.8083
    },
    {
      "cityName": "Dalu Sepuluh B 1",
      "lat": 3.5687,
      "lng": 98.82111
    },
    {
      "cityName": "Dalu Sepuluh B 2",
      "lat": 3.5652,
      "lng": 98.8186
    },
    {
      "cityName": "Dalu Sepuluh B 4",
      "lat": 3.56761,
      "lng": 98.807
    },
    {
      "cityName": "Dalu Sepuluh B 5",
      "lat": 3.5693,
      "lng": 98.8123
    },
    {
      "cityName": "Dalu Sepuluh B 7",
      "lat": 3.5737,
      "lng": 98.82361
    },
    {
      "cityName": "Damai",
      "lat": 3.6355,
      "lng": 98.491
    },
    {
      "cityName": "Damaitoba",
      "lat": 3.4,
      "lng": 99.2408
    },
    {
      "cityName": "Damak",
      "lat": 2.9562,
      "lng": 99.2677
    },
    {
      "cityName": "Damakdjambu",
      "lat": 3.2649,
      "lng": 98.7899
    },
    {
      "cityName": "Damak Galugur",
      "lat": 3.2835,
      "lng": 98.8162
    },
    {
      "cityName": "Damakgelugur",
      "lat": 3.3866,
      "lng": 99.0018
    },
    {
      "cityName": "Damak Gundar",
      "lat": 2.9509,
      "lng": 99.2691
    },
    {
      "cityName": "Damakitang",
      "lat": 3.2081,
      "lng": 98.8888
    },
    {
      "cityName": "Damak Matio",
      "lat": 2.8791,
      "lng": 99.2186
    },
    {
      "cityName": "Damak Puli",
      "lat": 2.9595,
      "lng": 99.2625
    },
    {
      "cityName": "Damak Rambe",
      "lat": 3.3881,
      "lng": 98.85
    },
    {
      "cityName": "Damak Talang",
      "lat": 3.3106,
      "lng": 98.9096
    },
    {
      "cityName": "Damakurat Bewah",
      "lat": 3.2187,
      "lng": 98.9838
    },
    {
      "cityName": "Damakurat Pekan",
      "lat": 3.216,
      "lng": 98.9937
    },
    {
      "cityName": "Damarseratus",
      "lat": 4.2227,
      "lng": 98.2348
    },
    {
      "cityName": "Dangagari",
      "lat": 1.0797,
      "lng": 97.3975
    },
    {
      "cityName": "Dangguran",
      "lat": 2.4055,
      "lng": 97.972
    },
    {
      "cityName": "Danoganjang",
      "lat": 2.104,
      "lng": 99.078
    },
    {
      "cityName": "Darat",
      "lat": 3.883333,
      "lng": 98.316667
    },
    {
      "cityName": "Dari Pane",
      "lat": 2.9523,
      "lng": 99.4829
    },
    {
      "cityName": "Datukramat",
      "lat": 3.7965,
      "lng": 98.4616
    },
    {
      "cityName": "Dau",
      "lat": 1.377,
      "lng": 97.2044
    },
    {
      "cityName": "Daulu 1",
      "lat": 3.2356,
      "lng": 98.5388
    },
    {
      "cityName": "Daulu 2",
      "lat": 3.2234,
      "lng": 98.5304
    },
    {
      "cityName": "Degha",
      "lat": 1.0813,
      "lng": 97.6628
    },
    {
      "cityName": "Delenggerat",
      "lat": 3.1947,
      "lng": 98.6643
    },
    {
      "cityName": "Delengputjuk",
      "lat": 3.3846,
      "lng": 98.4308
    },
    {
      "cityName": "Deli",
      "lat": 3.7278,
      "lng": 98.6738
    },
    {
      "cityName": "Delitoea",
      "lat": 3.5078,
      "lng": 98.6839
    },
    {
      "cityName": "Delitua 1",
      "lat": 3.498,
      "lng": 98.6828
    },
    {
      "cityName": "Delitua 2",
      "lat": 3.489,
      "lng": 98.6773
    },
    {
      "cityName": "Delitua",
      "lat": 3.4815,
      "lng": 98.5879
    },
    {
      "cityName": "Deli Tua Kampung",
      "lat": 3.5072,
      "lng": 98.6804
    },
    {
      "cityName": "Delongdjumasuhl",
      "lat": 3.3801,
      "lng": 98.3668
    },
    {
      "cityName": "Delong Payung",
      "lat": 3.336,
      "lng": 98.3432
    },
    {
      "cityName": "Denai",
      "lat": 3.573,
      "lng": 98.7312
    },
    {
      "cityName": "Denai Kwala",
      "lat": 3.6555,
      "lng": 98.9393
    },
    {
      "cityName": "Denailama 1",
      "lat": 3.6386,
      "lng": 98.93
    },
    {
      "cityName": "Denailama 4",
      "lat": 3.6418,
      "lng": 98.9273
    },
    {
      "cityName": "Denai Lama",
      "lat": 3.63479,
      "lng": 98.93349
    },
    {
      "cityName": "Denaisarangburung 2",
      "lat": 3.6609,
      "lng": 98.9177
    },
    {
      "cityName": "Denaisarangburung 3",
      "lat": 3.65059,
      "lng": 98.92191
    },
    {
      "cityName": "Denaisarangburung 4",
      "lat": 3.6507,
      "lng": 98.9306
    },
    {
      "cityName": "Deram",
      "lat": 3.1827,
      "lng": 98.453
    },
    {
      "cityName": "Deras",
      "lat": 3.3374,
      "lng": 99.3288
    },
    {
      "cityName": "Derek",
      "lat": 3.2198,
      "lng": 99.0899
    },
    {
      "cityName": "Desa Gajah",
      "lat": 3.1133,
      "lng": 99.6207
    },
    {
      "cityName": "Desa Pancaarga",
      "lat": 3.1132,
      "lng": 99.6556
    },
    {
      "cityName": "Desa Slikur",
      "lat": 3.5941,
      "lng": 98.5632
    },
    {
      "cityName": "Detna",
      "lat": 1.216667,
      "lng": 97.3
    },
    {
      "cityName": "Dewan Pimpinan Tingkat Daerah",
      "lat": 3.622,
      "lng": 98.7148
    },
    {
      "cityName": "Dewisri",
      "lat": 3.3018,
      "lng": 99.2897
    },
    {
      "cityName": "Dima",
      "lat": 1.333333,
      "lng": 97.333333
    },
    {
      "cityName": "Diparmadjawa",
      "lat": 2.8522,
      "lng": 99.2367
    },
    {
      "cityName": "Diski",
      "lat": 3.6001,
      "lng": 98.5669
    },
    {
      "cityName": "Djabidjabi",
      "lat": 3.8181,
      "lng": 98.5639
    },
    {
      "cityName": "Djabo",
      "lat": 3.8241,
      "lng": 97.5466
    },
    {
      "cityName": "Djadohon",
      "lat": 3.4146,
      "lng": 99.0427
    },
    {
      "cityName": "Djagadjaga",
      "lat": 1.6065,
      "lng": 98.8247
    },
    {
      "cityName": "Djake",
      "lat": -0.55,
      "lng": 98.5
    },
    {
      "cityName": "Djamadolok",
      "lat": 3.0492,
      "lng": 99.0581
    },
    {
      "cityName": "Djambaktoba",
      "lat": 1.5426,
      "lng": 98.7841
    },
    {
      "cityName": "Djambikahean",
      "lat": 2.9677,
      "lng": 99.1865
    },
    {
      "cityName": "Djamboatupempang",
      "lat": 3.7558,
      "lng": 97.6271
    },
    {
      "cityName": "Djamboempan",
      "lat": 3.9209,
      "lng": 97.5688
    },
    {
      "cityName": "Djamboertorop",
      "lat": 1.15,
      "lng": 99.083333
    },