{
  "name": "Assaba",
  "cities": [
    {
      "cityName": "Afraré",
      "lat": 15.2166667,
      "lng": -10.95
    },
    {
      "cityName": "Agmâmîne",
      "lat": 15.8666667,
      "lng": -11.55
    },
    {
      "cityName": "Agouanit",
      "lat": 15.6333333,
      "lng": -11.6833333
    },
    {
      "cityName": "Ahel Aïmar",
      "lat": 15.65,
      "lng": -11.3
    },
    {
      "cityName": "Ahel Aoubak",
      "lat": 15.5333333,
      "lng": -11.3166667
    },
    {
      "cityName": "Ahel Cheïheb",
      "lat": 15.9166667,
      "lng": -11.4333333
    },
    {
      "cityName": "Ahel el Jeïlani",
      "lat": 15.9833333,
      "lng": -11.75
    },
    {
      "cityName": "Aïn Taiss",
      "lat": 15.6333333,
      "lng": -11.1666667
    },
    {
      "cityName": "Alanguidé",
      "lat": 15.2,
      "lng": -10.9166667
    },
    {
      "cityName": "Amchola",
      "lat": 15.9833333,
      "lng": -12.0333333
    },
    {
      "cityName": "Aroueïji",
      "lat": 16.0166667,
      "lng": -12.0333333
    },
    {
      "cityName": "Atîla",
      "lat": 15.85,
      "lng": -11.1333333
    },
    {
      "cityName": "Bara",
      "lat": 15.95,
      "lng": -11.5166667
    },
    {
      "cityName": "Binndiamou",
      "lat": 15.15,
      "lng": -10.9
    },
    {
      "cityName": "Blajemile",
      "lat": 15.9166667,
      "lng": -11.1833333
    },
    {
      "cityName": "Borié",
      "lat": 15.5333333,
      "lng": -11.1166667
    },
    {
      "cityName": "Bouda",
      "lat": 15.9,
      "lng": -11.6333333
    },
    {
      "cityName": "Boudiébaya",
      "lat": 15.5833333,
      "lng": -11.7
    },
    {
      "cityName": "Boukéréya",
      "lat": 15.6,
      "lng": -10.8
    },
    {
      "cityName": "Chelka Ould Bannahi",
      "lat": 15.9666667,
      "lng": -11.3
    },
    {
      "cityName": "Chig el Outeïdat",
      "lat": 15.9833333,
      "lng": -11.35
    },
    {
      "cityName": "Chkata",
      "lat": 15.2833333,
      "lng": -11.0166667
    },
    {
      "cityName": "Dahakélé",
      "lat": 15.4166667,
      "lng": -11
    },
    {
      "cityName": "Dérik Guirfafé",
      "lat": 15.5166667,
      "lng": -11.3
    },
    {
      "cityName": "Dérik Kélilaé",
      "lat": 15.5166667,
      "lng": -11.3166667
    },
    {
      "cityName": "Dernié",
      "lat": 15.5166667,
      "lng": -11.15
    },
    {
      "cityName": "Diandiourou",
      "lat": 15.9833333,
      "lng": -11.8333333
    },
    {
      "cityName": "Dianguina",
      "lat": 15.3166667,
      "lng": -10.95
    },
    {
      "cityName": "Dougoulgui",
      "lat": 15.9333333,
      "lng": -11.8166667
    },
    {
      "cityName": "El Aïoun",
      "lat": 15.55,
      "lng": -11.1833333
    },
    {
      "cityName": "Ela Mouinessé",
      "lat": 15.5,
      "lng": -11.2666667
    },
    {
      "cityName": "El 'Aoueïnât",
      "lat": 15.75,
      "lng": -11.65
    },
    {
      "cityName": "El Atchane",
      "lat": 15.5333333,
      "lng": -11.2833333
    },
    {
      "cityName": "El Baghoui",
      "lat": 15.9666667,
      "lng": -11.0333333
    },
    {
      "cityName": "El Erg",
      "lat": 15.7,
      "lng": -11.1
    },
    {
      "cityName": "El Faraa",
      "lat": 15.7166667,
      "lng": -11.65
    },
    {
      "cityName": "El Izabè",
      "lat": 15.5333333,
      "lng": -11.35
    },
    {
      "cityName": "El Joumaa",
      "lat": 15.9333333,
      "lng": -11.6666667
    },
    {
      "cityName": "El Maha",
      "lat": 15.55,
      "lng": -11.7
    },
    {
      "cityName": "El Méssiel",
      "lat": 15.5,
      "lng": -11.1833333
    },
    {
      "cityName": "Elminetafra",
      "lat": 15.6666667,
      "lng": -10.8333333
    },
    {
      "cityName": "El Moudéré",
      "lat": 15.95,
      "lng": -11.6833333
    },
    {
      "cityName": "Foïlé",
      "lat": 15.6666667,
      "lng": -10.75
    },
    {
      "cityName": "Gaouyéré",
      "lat": 15.8,
      "lng": -11.3
    },
    {
      "cityName": "Garalla",
      "lat": 15.7666667,
      "lng": -11.5
    },
    {
      "cityName": "Garé",
      "lat": 15.1666667,
      "lng": -10.8833333
    },
    {
      "cityName": "Goouatt",
      "lat": 15.7166667,
      "lng": -11.6666667
    },
    {
      "cityName": "Guéleïbé",
      "lat": 16,
      "lng": -12.0333333
    },
    {
      "cityName": "Guéléoil",
      "lat": 15.5666667,
      "lng": -11.7833333
    },
    {
      "cityName": "Hamoud",
      "lat": 15.6166667,
      "lng": -11.5
    },
    {
      "cityName": "Hartane",
      "lat": 15.9166667,
      "lng": -11.15
    },
    {
      "cityName": "Hassi Bagra",
      "lat": 15.8333333,
      "lng": -11.6166667
    },
    {
      "cityName": "Ibacheléne",
      "lat": 15.85,
      "lng": -11.0833333
    },
    {
      "cityName": "Idaouach",
      "lat": 15.8833333,
      "lng": -11.9666667
    },
    {
      "cityName": "Kaléourou",
      "lat": 15.2,
      "lng": -10.8666667
    },
    {
      "cityName": "Kamor",
      "lat": 17.0833333,
      "lng": -12.05
    },
    {
      "cityName": "Kankossa",
      "lat": 15.9333333,
      "lng": -11.5166667
    },
    {
      "cityName": "Kayoutt",
      "lat": 15.45,
      "lng": -11.0166667
    },
    {
      "cityName": "Kîfa",
      "lat": 16.6166667,
      "lng": -11.4
    },
    {
      "cityName": "Kilioua",
      "lat": 15.4,
      "lng": -10.9666667
    },
    {
      "cityName": "Koro",
      "lat": 15.7,
      "lng": -11.7833333
    },
    {
      "cityName": "Koté",
      "lat": 15.6833333,
      "lng": -11.9
    },
    {
      "cityName": "Léhoueïdni",
      "lat": 15.6666667,
      "lng": -11.2833333
    },
    {
      "cityName": "Lemjajta",
      "lat": 15.9666667,
      "lng": -11.7333333
    },
    {
      "cityName": "L'Oudeye",
      "lat": 15.9,
      "lng": -11.45
    },
    {
      "cityName": "Maoudass",
      "lat": 15.55,
      "lng": -10.9166667
    },
    {
      "cityName": "Marandébé",
      "lat": 15.15,
      "lng": -10.8833333
    },
    {
      "cityName": "Marané",
      "lat": 15.2166667,
      "lng": -10.8333333
    },
    {
      "cityName": "Mkhaïzine",
      "lat": 15.9666667,
      "lng": -11.25
    },
    {
      "cityName": "Mohili",
      "lat": 15.2,
      "lng": -10.9333333
    },
    {
      "cityName": "Nbaré",
      "lat": 15.2333333,
      "lng": -10.95
    },
    {
      "cityName": "Ndiéo",
      "lat": 15.8666667,
      "lng": -12.0333333
    },
    {
      "cityName": "Ndoumelli Débé",
      "lat": 15.65,
      "lng": -11.8
    },
    {
      "cityName": "Ndoumelli",
      "lat": 15.6166667,
      "lng": -11.8166667
    },
    {
      "cityName": "Ntabane",
      "lat": 15.4833333,
      "lng": -10.8666667
    },
    {
      "cityName": "N-Tîlimît",
      "lat": 15.6,
      "lng": -11.2666667
    },
    {
      "cityName": "Oûdeï Lebhanis",
      "lat": 15.6,
      "lng": -11.6333333
    },
    {
      "cityName": "Oûdeï Talaba",
      "lat": 15.6166667,
      "lng": -11.6166667
    },
    {
      "cityName": "Ouéringuel",
      "lat": 15.8333333,
      "lng": -11.5333333
    },
    {
      "cityName": "Oulamantess",
      "lat": 15.25,
      "lng": -10.95
    },
    {
      "cityName": "Ould Jiddou",
      "lat": 15.5833333,
      "lng": -11.8
    },
    {
      "cityName": "Ould Yanja",
      "lat": 15.5333333,
      "lng": -11.7166667
    },
    {
      "cityName": "Oumkchéra",
      "lat": 15.6333333,
      "lng": -11.1333333
    },
    {
      "cityName": "Oumm el Barka",
      "lat": 15.5833333,
      "lng": -10.85
    },
    {
      "cityName": "Oumm el Bohoro",
      "lat": 15.35,
      "lng": -10.75
    },
    {
      "cityName": "Ouolé",
      "lat": 15.2833333,
      "lng": -10.8666667
    },
    {
      "cityName": "Rachbé",
      "lat": 15.3666667,
      "lng": -11.0833333
    },
    {
      "cityName": "Raïchakh",
      "lat": 15.8666667,
      "lng": -11.7
    },
    {
      "cityName": "Raïféra",
      "lat": 15.45,
      "lng": -11.2
    },
    {
      "cityName": "Roumdé",
      "lat": 15.5333333,
      "lng": -11.1666667
    },
    {
      "cityName": "Samba",
      "lat": 15.9166667,
      "lng": -11.65
    },
    {
      "cityName": "Saralébéda",
      "lat": 15.4,
      "lng": -11
    },
    {
      "cityName": "Sellam",
      "lat": 15.9166667,
      "lng": -11.1
    },
    {
      "cityName": "Sibar",
      "lat": 15.5666667,
      "lng": -10.95
    },
    {
      "cityName": "Téguel Wézé",
      "lat": 15.55,
      "lng": -11.25
    },
    {
      "cityName": "Teïzir",
      "lat": 15.5666667,
      "lng": -11.05
    },
    {
      "cityName": "Tîchilît Aganataya",
      "lat": 15.9166667,
      "lng": -11.6166667
    },
    {
      "cityName": "Tîchilît Ahel Baba",
      "lat": 15.9666667,
      "lng": -11.1833333
    },
    {
      "cityName": "Tîchilît el Kountaoui",
      "lat": 16.7333333,
      "lng": -11.9333333
    },
    {
      "cityName": "Tingal",
      "lat": 15.5333333,
      "lng": -11.2166667
    },
    {
      "cityName": "Tinteïna",
      "lat": 16.1833333,
      "lng": -11.6166667
    },
    {
      "cityName": "Touimrat",
      "lat": 15.6666667,
      "lng": -11.6166667
    }
  ]
}