{
  "name": "Pemba South",
  "cities": [
    {
      "cityName": "Amani",
      "lat": -5.3666667,
      "lng": 39.7166667
    },
    {
      "cityName": "Bagamoyo",
      "lat": -5.3666667,
      "lng": 39.7
    },
    {
      "cityName": "Bageza",
      "lat": -5.4166667,
      "lng": 39.75
    },
    {
      "cityName": "Banani",
      "lat": -5.25,
      "lng": 39.7333333
    },
    {
      "cityName": "Bandani",
      "lat": -5.4166667,
      "lng": 39.6833333
    },
    {
      "cityName": "Barawa",
      "lat": -5.1666667,
      "lng": 39.7666667
    },
    {
      "cityName": "Bevohoye",
      "lat": -5.4,
      "lng": 39.7166667
    },
    {
      "cityName": "Birikau",
      "lat": -5.2166667,
      "lng": 39.75
    },
    {
      "cityName": "Bogoa",
      "lat": -5.3833333,
      "lng": 39.6833333
    },
    {
      "cityName": "Boma",
      "lat": -5.25,
      "lng": 39.7666667
    },
    {
      "cityName": "Buyuni",
      "lat": -5.15,
      "lng": 39.8
    },
    {
      "cityName": "Chabure",
      "lat": -5.4333333,
      "lng": 39.7333333
    },
    {
      "cityName": "Chandani",
      "lat": -5.2666667,
      "lng": 39.8166667
    },
    {
      "cityName": "Changani",
      "lat": -5.2,
      "lng": 39.8166667
    },
    {
      "cityName": "Changaweni",
      "lat": -5.3666667,
      "lng": 39.6666667
    },
    {
      "cityName": "Changowi",
      "lat": -5.3833333,
      "lng": 39.6666667
    },
    {
      "cityName": "Chanjaani",
      "lat": -5.2833333,
      "lng": 39.75
    },
    {
      "cityName": "Chanjani",
      "lat": -5.25,
      "lng": 39.7833333
    },
    {
      "cityName": "Chanoni",
      "lat": -5.2833333,
      "lng": 39.7333333
    },
    {
      "cityName": "Chaoni",
      "lat": -5.2333333,
      "lng": 39.7333333
    },
    {
      "cityName": "Chikaraku",
      "lat": -5.3833333,
      "lng": 39.75
    },
    {
      "cityName": "Chokocho",
      "lat": -5.4333333,
      "lng": 39.65
    },
    {
      "cityName": "Cholcocho",
      "lat": -5.35,
      "lng": 39.6666667
    },
    {
      "cityName": "Chombeo",
      "lat": -5.3,
      "lng": 39.75
    },
    {
      "cityName": "Chuaka",
      "lat": -5.3833333,
      "lng": 39.7833333
    },
    {
      "cityName": "Chuini",
      "lat": -5.4,
      "lng": 39.6333333
    },
    {
      "cityName": "Chumbuni",
      "lat": -5.1833333,
      "lng": 39.7666667
    },
    {
      "cityName": "Chumvini",
      "lat": -5.3,
      "lng": 39.8
    },
    {
      "cityName": "Chununi",
      "lat": -5.2666667,
      "lng": 39.7666667
    },
    {
      "cityName": "Chwale",
      "lat": -5.35,
      "lng": 39.7833333
    },
    {
      "cityName": "Combeni",
      "lat": -5.4,
      "lng": 39.7333333
    },
    {
      "cityName": "Dodo",
      "lat": -5.1833333,
      "lng": 39.8
    },
    {
      "cityName": "Dongoni",
      "lat": -5.2166667,
      "lng": 39.6833333
    },
    {
      "cityName": "Fafuni",
      "lat": -5.4333333,
      "lng": 39.6833333
    },
    {
      "cityName": "Foraha",
      "lat": -5.25,
      "lng": 39.8166667
    },
    {
      "cityName": "Fueni",
      "lat": -5.4166667,
      "lng": 39.65
    },
    {
      "cityName": "Fumbani",
      "lat": -5.35,
      "lng": 39.6833333
    },
    {
      "cityName": "Fungatumbo",
      "lat": -5.1666667,
      "lng": 39.7833333
    },
    {
      "cityName": "Gailamtungi",
      "lat": -5.3833333,
      "lng": 39.7
    },
    {
      "cityName": "Gawani",
      "lat": -5.2,
      "lng": 39.8
    },
    {
      "cityName": "Giriama",
      "lat": -5.3666667,
      "lng": 39.6833333
    },
    {
      "cityName": "Gongoni",
      "lat": -5.1666667,
      "lng": 39.8
    },
    {
      "cityName": "Govazani",
      "lat": -5.3833333,
      "lng": 39.7166667
    },
    {
      "cityName": "Hawana",
      "lat": -5.4333333,
      "lng": 39.7
    },
    {
      "cityName": "Hurmozi",
      "lat": -5.3833333,
      "lng": 39.6333333
    },
    {
      "cityName": "Hurumuzi",
      "lat": -5.25,
      "lng": 39.8333333
    },
    {
      "cityName": "Jafarini",
      "lat": -5.4166667,
      "lng": 39.7333333
    },
    {
      "cityName": "Jambangome",
      "lat": -5.35,
      "lng": 39.7
    },
    {
      "cityName": "Jamvini",
      "lat": -5.2166667,
      "lng": 39.8166667
    },
    {
      "cityName": "Jeni",
      "lat": -5.4666667,
      "lng": 39.65
    },
    {
      "cityName": "Jitenge",
      "lat": -5.1833333,
      "lng": 39.7833333
    },
    {
      "cityName": "Jojo",
      "lat": -5.3,
      "lng": 39.7833333
    },
    {
      "cityName": "Jondeni",
      "lat": -5.35,
      "lng": 39.65
    },
    {
      "cityName": "Junga",
      "lat": -5.3666667,
      "lng": 39.7833333
    },
    {
      "cityName": "Jungani",
      "lat": -5.35,
      "lng": 39.7166667
    },
    {
      "cityName": "Kaani",
      "lat": -5.3833333,
      "lng": 39.7333333
    },
    {
      "cityName": "Kangagani",
      "lat": -5.1666667,
      "lng": 39.8333333
    },
    {
      "cityName": "Kangani",
      "lat": -5.4166667,
      "lng": 39.7
    },
    {
      "cityName": "Kango",
      "lat": -5.15,
      "lng": 39.8166667
    },
    {
      "cityName": "Kaole",
      "lat": -5.2333333,
      "lng": 39.75
    },
    {
      "cityName": "Kendwa",
      "lat": -5.2666667,
      "lng": 39.8
    },
    {
      "cityName": "Kibokonge",
      "lat": -5.15,
      "lng": 39.7833333
    },
    {
      "cityName": "Kiburunzi",
      "lat": -5.2333333,
      "lng": 39.7666667
    },
    {
      "cityName": "Kibuyuni",
      "lat": -5.2,
      "lng": 39.7666667
    },
    {
      "cityName": "Kichaka",
      "lat": -5.3666667,
      "lng": 39.7666667
    },
    {
      "cityName": "Kichenge",
      "lat": -5.4166667,
      "lng": 39.6666667
    },
    {
      "cityName": "Kichiwana",
      "lat": -5.2333333,
      "lng": 39.8166667
    },
    {
      "cityName": "Kichungwani",
      "lat": -5.2,
      "lng": 39.75
    },
    {
      "cityName": "Kidunguli",
      "lat": -5.4166667,
      "lng": 39.6333333
    },
    {
      "cityName": "Kigomasha",
      "lat": -5.2666667,
      "lng": 39.75
    },
    {
      "cityName": "Kigongo",
      "lat": -5.3166667,
      "lng": 39.6833333
    },
    {
      "cityName": "Kigongoni",
      "lat": -5.1833333,
      "lng": 39.75
    },
    {
      "cityName": "Kigope",
      "lat": -5.2166667,
      "lng": 39.7666667
    },
    {
      "cityName": "Kihangoni",
      "lat": -5.25,
      "lng": 39.75
    },
    {
      "cityName": "Kihanunini",
      "lat": -5.3333333,
      "lng": 39.7166667
    },
    {
      "cityName": "Kijangani",
      "lat": -5.2833333,
      "lng": 39.7666667
    },
    {
      "cityName": "Kijogooni",
      "lat": -5.35,
      "lng": 39.75
    },
    {
      "cityName": "Kikokoni",
      "lat": -5.4166667,
      "lng": 39.7166667
    },
    {
      "cityName": "Kilimani",
      "lat": -5.2833333,
      "lng": 39.7166667
    },
    {
      "cityName": "Kilimni",
      "lat": -5.2666667,
      "lng": 39.7833333
    },
    {
      "cityName": "Kilindi",
      "lat": -5.2666667,
      "lng": 39.7166667
    },
    {
      "cityName": "Kilundooni",
      "lat": -5.3833333,
      "lng": 39.6166667
    },
    {
      "cityName": "Kingoje",
      "lat": -5.2833333,
      "lng": 39.6666667
    },
    {
      "cityName": "Kionwa",
      "lat": -5.3333333,
      "lng": 39.6666667
    },
    {
      "cityName": "Kipange",
      "lat": -5.1833333,
      "lng": 39.8166667
    },
    {
      "cityName": "Kipigini",
      "lat": -5.4,
      "lng": 39.6833333
    },
    {
      "cityName": "Kitambuni",
      "lat": -5.3,
      "lng": 39.7333333
    },
    {
      "cityName": "Kitwea",
      "lat": -5.35,
      "lng": 39.8
    },
    {
      "cityName": "Kiuli",
      "lat": -5.2,
      "lng": 39.7333333
    },
    {
      "cityName": "Kiuyu",
      "lat": -5.15,
      "lng": 39.8333333
    },
    {
      "cityName": "Kivomoni",
      "lat": -5.4,
      "lng": 39.6666667
    },
    {
      "cityName": "Kivoruga",
      "lat": -5.4166667,
      "lng": 39.7666667
    },
    {
      "cityName": "Kivumoni",
      "lat": -5.3666667,
      "lng": 39.7333333
    },
    {
      "cityName": "Kiwani",
      "lat": -5.4,
      "lng": 39.7666667
    },
    {
      "cityName": "Kiweni",
      "lat": -5.4666667,
      "lng": 39.7333333
    },
    {
      "cityName": "Kizombwa",
      "lat": -5.1666667,
      "lng": 39.8166667
    },
    {
      "cityName": "Kobani",
      "lat": -5.3666667,
      "lng": 39.65
    },
    {
      "cityName": "Komboni",
      "lat": -5.2,
      "lng": 39.8333333
    },
    {
      "cityName": "Kongomani",
      "lat": -5.1833333,
      "lng": 39.8333333
    },
    {
      "cityName": "Kunguni",
      "lat": -5.2166667,
      "lng": 39.7166667
    },
    {
      "cityName": "Kuyuni",
      "lat": -5.3333333,
      "lng": 39.7333333
    },
    {
      "cityName": "Kwezani",
      "lat": -5.3,
      "lng": 39.6666667
    },
    {
      "cityName": "Letetungu",
      "lat": -5.1666667,
      "lng": 39.75
    },
    {
      "cityName": "Limanda",
      "lat": -5.2833333,
      "lng": 39.8166667
    },
    {
      "cityName": "Limani",
      "lat": -5.2833333,
      "lng": 39.7833333
    },
    {
      "cityName": "Mabaoni",
      "lat": -5.25,
      "lng": 39.8
    },
    {
      "cityName": "Mabundini",
      "lat": -5.2666667,
      "lng": 39.8333333
    },
    {
      "cityName": "Magome",
      "lat": -5.2166667,
      "lng": 39.8
    },
    {
      "cityName": "Magonini",
      "lat": -5.2,
      "lng": 39.7833333
    },
    {
      "cityName": "Mahodja",
      "lat": -5.4333333,
      "lng": 39.7666667
    },
    {
      "cityName": "Makaani",
      "lat": -5.3,
      "lng": 39.8166667
    },
    {
      "cityName": "Makafara",
      "lat": -5.2666667,
      "lng": 39.7
    },
    {
      "cityName": "Mambani",
      "lat": -5.3333333,
      "lng": 39.7833333
    },
    {
      "cityName": "Mangweni",
      "lat": -5.2666667,
      "lng": 39.7333333
    },
    {
      "cityName": "Manyaga",
      "lat": -5.2833333,
      "lng": 39.8
    },
    {
      "cityName": "Matufalini",
      "lat": -5.3333333,
      "lng": 39.65
    },
    {
      "cityName": "Mbaleni",
      "lat": -5.2166667,
      "lng": 39.7333333
    },
    {
      "cityName": "Melangoni",
      "lat": -5.4166667,
      "lng": 39.7833333
    },
    {
      "cityName": "Mgimbini",
      "lat": -5.4,
      "lng": 39.7
    },
    {
      "cityName": "Mguli",
      "lat": -5.4333333,
      "lng": 39.7166667
    },
    {
      "cityName": "Michingani",
      "lat": -5.2166667,
      "lng": 39.8333333
    },
    {
      "cityName": "Mikindani",
      "lat": -5.4,
      "lng": 39.65
    },
    {
      "cityName": "Mipopooni",
      "lat": -5.3166667,
      "lng": 39.7333333
    },
    {
      "cityName": "Mitondooni",
      "lat": -5.45,
      "lng": 39.65
    },
    {
      "cityName": "Miulani",
      "lat": -5.3166667,
      "lng": 39.7833333
    },
    {
      "cityName": "Mkokotoni",
      "lat": -5.3,
      "lng": 39.6833333
    },
    {
      "cityName": "Mkonobagi",
      "lat": -5.2333333,
      "lng": 39.8333333
    },
    {
      "cityName": "Mombani",
      "lat": -5.3833333,
      "lng": 39.65
    },
    {
      "cityName": "Msuka",
      "lat": -5.3166667,
      "lng": 39.8
    },
    {
      "cityName": "Mtakata",
      "lat": -5.2333333,
      "lng": 39.8
    },
    {
      "cityName": "Mtoni",
      "lat": -5.3666667,
      "lng": 39.75
    },
    {
      "cityName": "Muoka",
      "lat": -5.45,
      "lng": 39.7166667
    },
    {
      "cityName": "Nanguji",
      "lat": -5.4,
      "lng": 39.75
    },
    {
      "cityName": "Ndambani",
      "lat": -5.3833333,
      "lng": 39.7666667
    },
    {
      "cityName": "Ngagu",
      "lat": -5.1833333,
      "lng": 39.65
    },
    {
      "cityName": "Ngambwa",
      "lat": -5.2166667,
      "lng": 39.7833333
    },
    {
      "cityName": "Nzishiwe",
      "lat": -5.35,
      "lng": 39.7666667
    },
    {
      "cityName": "Pakiza",
      "lat": -5.4333333,
      "lng": 39.6666667
    },
    {
      "cityName": "Perani",
      "lat": -5.3166667,
      "lng": 39.7
    },
    {
      "cityName": "Sebushari",
      "lat": -5.3333333,
      "lng": 39.75
    },
    {
      "cityName": "Tangani",
      "lat": -5.3166667,
      "lng": 39.75
    },
    {
      "cityName": "Tumbini",
      "lat": -5.3333333,
      "lng": 39.7666667
    },
    {
      "cityName": "Tundaua",
      "lat": -5.25,
      "lng": 39.7
    },
    {
      "cityName": "Ujinga",
      "lat": -5.2333333,
      "lng": 39.7833333
    },
    {
      "cityName": "Urangi",
      "lat": -5.1666667,
      "lng": 39.7166667
    }
  ]
}