{
  "name": "Buskerud",
  "cities": [
    {
      "cityName": "Aaker",
      "lat": 60.55,
      "lng": 8.266667
    },
    {
      "cityName": "Aal",
      "lat": 60.633333,
      "lng": 8.566667
    },
    {
      "cityName": "Aamot",
      "lat": 59.9,
      "lng": 9.9
    },
    {
      "cityName": "Aannestad",
      "lat": 59.5,
      "lng": 9.866667
    },
    {
      "cityName": "Aasberg",
      "lat": 60.416667,
      "lng": 8.433333
    },
    {
      "cityName": "Aasbögrend",
      "lat": 60.2,
      "lng": 9
    },
    {
      "cityName": "Aasen",
      "lat": 60.2,
      "lng": 10.05
    },
    {
      "cityName": "Aasgardann",
      "lat": 60.716667,
      "lng": 8.966667
    },
    {
      "cityName": "Åros",
      "lat": 59.703056,
      "lng": 10.513611
    },
    {
      "cityName": "Asdøl",
      "lat": 59.883333,
      "lng": 10.3
    },
    {
      "cityName": "Ask",
      "lat": 60.133333,
      "lng": 10.183333
    },
    {
      "cityName": "Åskollen",
      "lat": 59.718611,
      "lng": 10.259722
    },
    {
      "cityName": "Åsland",
      "lat": 59.766667,
      "lng": 9.816667
    },
    {
      "cityName": "Aurdal",
      "lat": 60.183333,
      "lng": 10.366667
    },
    {
      "cityName": "Austvoll",
      "lat": 60.433333,
      "lng": 9.4
    },
    {
      "cityName": "Baarnaas",
      "lat": 60.2,
      "lng": 10
    },
    {
      "cityName": "Baasheim",
      "lat": 60.083333,
      "lng": 9.466667
    },
    {
      "cityName": "Baatstö",
      "lat": 59.724167,
      "lng": 10.518056
    },
    {
      "cityName": "Bæra",
      "lat": 60.65,
      "lng": 8.666667
    },
    {
      "cityName": "Bæver",
      "lat": 59.7,
      "lng": 9.616667
    },
    {
      "cityName": "Bakken",
      "lat": 60.233333,
      "lng": 9.966667
    },
    {
      "cityName": "Bakkerud",
      "lat": 59.9,
      "lng": 9.366667
    },
    {
      "cityName": "Berg",
      "lat": 59.75,
      "lng": 9.866667
    },
    {
      "cityName": "Bergseid",
      "lat": 59.95,
      "lng": 9.3
    },
    {
      "cityName": "Bergsund",
      "lat": 60.316667,
      "lng": 10.15
    },
    {
      "cityName": "Bingen",
      "lat": 59.883333,
      "lng": 9.766667
    },
    {
      "cityName": "Bjerknes",
      "lat": 59.6,
      "lng": 9.8
    },
    {
      "cityName": "Bjøre",
      "lat": 60.166667,
      "lng": 9.633333
    },
    {
      "cityName": "Bjørndalen",
      "lat": 59.95,
      "lng": 9.833333
    },
    {
      "cityName": "Bjørnerud",
      "lat": 60.033333,
      "lng": 9.583333
    },
    {
      "cityName": "Blakstveit",
      "lat": 60.466667,
      "lng": 10.066667
    },
    {
      "cityName": "Bogen",
      "lat": 59.611389,
      "lng": 10.437778
    },
    {
      "cityName": "Bønsnes",
      "lat": 60.05,
      "lng": 10.183333
    },
    {
      "cityName": "Børtnes",
      "lat": 60.483333,
      "lng": 9.183333
    },
    {
      "cityName": "Braaten",
      "lat": 59.633333,
      "lng": 9.5
    },
    {
      "cityName": "Bragernes",
      "lat": 59.7475,
      "lng": 10.211389
    },
    {
      "cityName": "Brattaaker",
      "lat": 60.633333,
      "lng": 8.233333
    },
    {
      "cityName": "Breide",
      "lat": 60.6,
      "lng": 8.45
    },
    {
      "cityName": "Brekkebygda",
      "lat": 60.3,
      "lng": 9.75
    },
    {
      "cityName": "Bromma",
      "lat": 60.5,
      "lng": 9.2
    },
    {
      "cityName": "Burud",
      "lat": 59.8,
      "lng": 9.883333
    },
    {
      "cityName": "Buskerud",
      "lat": 59.883333,
      "lng": 9.866667
    },
    {
      "cityName": "Drammen",
      "lat": 59.7425,
      "lng": 10.211667
    },
    {
      "cityName": "Drolsum",
      "lat": 60.016667,
      "lng": 10.033333
    },
    {
      "cityName": "Eggedal",
      "lat": 60.233333,
      "lng": 9.366667
    },
    {
      "cityName": "Egge",
      "lat": 59.816667,
      "lng": 10.216667
    },
    {
      "cityName": "Eidal",
      "lat": 60.083333,
      "lng": 9.533333
    },
    {
      "cityName": "Eid",
      "lat": 59.483333,
      "lng": 10
    },
    {
      "cityName": "Eikregardane",
      "lat": 60.816667,
      "lng": 8.733333
    },
    {
      "cityName": "Elvik",
      "lat": 60.1,
      "lng": 10.35
    },
    {
      "cityName": "Engar",
      "lat": 60.116667,
      "lng": 9.433333
    },
    {
      "cityName": "Engene",
      "lat": 59.679722,
      "lng": 10.540556
    },
    {
      "cityName": "Ertlia",
      "lat": 60.066667,
      "lng": 10.05
    },
    {
      "cityName": "Espeset",
      "lat": 60.566667,
      "lng": 9.016667
    },
    {
      "cityName": "Fagerheim",
      "lat": 60.433333,
      "lng": 7.783333
    },
    {
      "cityName": "Fausko",
      "lat": 60.883333,
      "lng": 8.483333
    },
    {
      "cityName": "Fetjan",
      "lat": 60,
      "lng": 9.266667
    },
    {
      "cityName": "Filtvedt",
      "lat": 59.573611,
      "lng": 10.615
    },
    {
      "cityName": "Finnerud",
      "lat": 60.083333,
      "lng": 9.716667
    },
    {
      "cityName": "Finsand",
      "lat": 60.4,
      "lng": 10.083333
    },
    {
      "cityName": "Finsrud",
      "lat": 60,
      "lng": 9.966667
    },
    {
      "cityName": "Fiskum",
      "lat": 59.7,
      "lng": 9.8
    },
    {
      "cityName": "Fjell",
      "lat": 59.716944,
      "lng": 10.227778
    },
    {
      "cityName": "Flaa",
      "lat": 60.416667,
      "lng": 9.466667
    },
    {
      "cityName": "Flataaker",
      "lat": 60.466667,
      "lng": 8.3
    },
    {
      "cityName": "Flata",
      "lat": 59.566667,
      "lng": 9.633333
    },
    {
      "cityName": "Flattum",
      "lat": 60,
      "lng": 10
    },
    {
      "cityName": "Flesberg",
      "lat": 59.85,
      "lng": 9.45
    },
    {
      "cityName": "Førle",
      "lat": 59.866667,
      "lng": 9.416667
    },
    {
      "cityName": "Frogner",
      "lat": 59.783333,
      "lng": 10.216667
    },
    {
      "cityName": "Frydenlund",
      "lat": 59.751389,
      "lng": 10.249444
    },
    {
      "cityName": "Fyran",
      "lat": 60.116667,
      "lng": 9.733333
    },
    {
      "cityName": "Gardnos",
      "lat": 60.633333,
      "lng": 9.033333
    },
    {
      "cityName": "Geilo",
      "lat": 60.516667,
      "lng": 8.2
    },
    {
      "cityName": "Geithus",
      "lat": 59.95,
      "lng": 9.983333
    },
    {
      "cityName": "Gilhus",
      "lat": 59.753611,
      "lng": 10.266111
    },
    {
      "cityName": "Gjesval",
      "lat": 60.066667,
      "lng": 10.283333
    },
    {
      "cityName": "Gjuvsgrendi",
      "lat": 60.15,
      "lng": 8.966667
    },
    {
      "cityName": "Glesne",
      "lat": 60.116667,
      "lng": 9.766667
    },
    {
      "cityName": "Gol",
      "lat": 60.7,
      "lng": 8.95
    },
    {
      "cityName": "Gomsrud",
      "lat": 59.65,
      "lng": 9.666667
    },
    {
      "cityName": "Granheim",
      "lat": 60.383333,
      "lng": 9.583333
    },
    {
      "cityName": "Gravarmoen",
      "lat": 60.05,
      "lng": 9.966667
    },
    {
      "cityName": "Gravningsgrenda",
      "lat": 59.716667,
      "lng": 9.55
    },
    {
      "cityName": "Grefsrud",
      "lat": 60.05,
      "lng": 10.05
    },
    {
      "cityName": "Gren",
      "lat": 60.166667,
      "lng": 9.666667
    },
    {
      "cityName": "Grette",
      "lat": 59.733333,
      "lng": 10.4
    },
    {
      "cityName": "Grøndalen",
      "lat": 60.916667,
      "lng": 8.433333
    },
    {
      "cityName": "Grønhovd",
      "lat": 60.166667,
      "lng": 9.383333
    },
    {
      "cityName": "Grønlii",
      "lat": 60.766667,
      "lng": 8.783333
    },
    {
      "cityName": "Grønset",
      "lat": 59.95,
      "lng": 9.65
    },
    {
      "cityName": "Grønvoll",
      "lat": 60.25,
      "lng": 10.183333
    },
    {
      "cityName": "Grøsland",
      "lat": 59.783333,
      "lng": 9.816667
    },
    {
      "cityName": "Gubberud",
      "lat": 60.25,
      "lng": 9.683333
    },
    {
      "cityName": "Guldhaug",
      "lat": 59.741111,
      "lng": 10.289722
    },
    {
      "cityName": "Gulsrud",
      "lat": 60.016667,
      "lng": 10.116667
    },
    {
      "cityName": "Gvammen",
      "lat": 60.233333,
      "lng": 9.016667
    },
    {
      "cityName": "Haaeim",
      "lat": 60.7,
      "lng": 8.466667
    },
    {
      "cityName": "Hære",
      "lat": 59.983333,
      "lng": 9.95
    },
    {
      "cityName": "Hagabråtan",
      "lat": 60.066667,
      "lng": 10.333333
    },
    {
      "cityName": "Hajeren",
      "lat": 59.55,
      "lng": 9.95
    },
    {
      "cityName": "Hakamken",
      "lat": 59.633333,
      "lng": 9.933333
    },
    {
      "cityName": "Hallingby",
      "lat": 60.266667,
      "lng": 10.2
    },
    {
      "cityName": "Halto",
      "lat": 60.65,
      "lng": 8.466667
    },
    {
      "cityName": "Hamremoen",
      "lat": 60.166667,
      "lng": 9.733333
    },
    {
      "cityName": "Haugen",
      "lat": 59.616667,
      "lng": 9.466667
    },
    {
      "cityName": "Haug",
      "lat": 60.166667,
      "lng": 10.316667
    },
    {
      "cityName": "Havik",
      "lat": 60.25,
      "lng": 9.783333
    },
    {
      "cityName": "Heen",
      "lat": 60.216667,
      "lng": 10.233333
    },
    {
      "cityName": "Heieren",
      "lat": 60.183333,
      "lng": 10.166667
    },
    {
      "cityName": "Hemsedal",
      "lat": 60.866667,
      "lng": 8.566667
    },
    {
      "cityName": "Hillestad",
      "lat": 59.583333,
      "lng": 9.666667
    },
    {
      "cityName": "Hoff",
      "lat": 59.55,
      "lng": 9.816667
    },
    {
      "cityName": "Hokksund",
      "lat": 59.783333,
      "lng": 9.983333
    },
    {
      "cityName": "Holmsbu",
      "lat": 59.561389,
      "lng": 10.4275
    },
    {
      "cityName": "Holo",
      "lat": 60.666667,
      "lng": 8.55
    },
    {
      "cityName": "Holtegard",
      "lat": 60.716667,
      "lng": 8.9
    },
    {
      "cityName": "Holte",
      "lat": 59.85,
      "lng": 9.85
    },
    {
      "cityName": "Hønefoss",
      "lat": 60.166667,
      "lng": 10.3
    },
    {
      "cityName": "Hostveit",
      "lat": 59.6,
      "lng": 9.75
    },
    {
      "cityName": "Høva",
      "lat": 60.566667,
      "lng": 9.083333
    },
    {
      "cityName": "Hovet",
      "lat": 60.633333,
      "lng": 8.166667
    },
    {
      "cityName": "Høvik",
      "lat": 59.723611,
      "lng": 10.511389
    },
    {
      "cityName": "Hundstad",
      "lat": 60.016667,
      "lng": 9.733333
    },
    {
      "cityName": "Hvaal",
      "lat": 59.5,
      "lng": 9.9
    },
    {
      "cityName": "Hvam",
      "lat": 59.616667,
      "lng": 9.783333
    },
    {
      "cityName": "Hvamsal",
      "lat": 59.616667,
      "lng": 9.766667
    },
    {
      "cityName": "Hvittingfoss",
      "lat": 59.483333,
      "lng": 10.016667
    },
    {
      "cityName": "Hyggen",
      "lat": 59.716667,
      "lng": 10.355278
    },
    {
      "cityName": "Jonsrud",
      "lat": 60.216667,
      "lng": 10.016667
    },
    {
      "cityName": "Kamben",
      "lat": 60.8,
      "lng": 9
    },
    {
      "cityName": "Katfoss",
      "lat": 59.933333,
      "lng": 9.95
    },
    {
      "cityName": "Kirkebö",
      "lat": 60.866667,
      "lng": 8.55
    },
    {
      "cityName": "Kjølstad",
      "lat": 59.95,
      "lng": 9.966667
    },
    {
      "cityName": "Kjomme",
      "lat": 59.966667,
      "lng": 9.316667
    },
    {
      "cityName": "Kleiv",
      "lat": 60.25,
      "lng": 9.283333
    },
    {
      "cityName": "Knestang",
      "lat": 60.183333,
      "lng": 10.333333
    },
    {
      "cityName": "Kofse",
      "lat": 60.183333,
      "lng": 9.383333
    },
    {
      "cityName": "Kolsrud",
      "lat": 59.966667,
      "lng": 9.75
    },
    {
      "cityName": "Komnes",
      "lat": 59.5,
      "lng": 9.916667
    },
    {
      "cityName": "Kongsberg",
      "lat": 59.65,
      "lng": 9.65
    },
    {
      "cityName": "Kravik",
      "lat": 60.116667,
      "lng": 9.05
    },
    {
      "cityName": "Krøderen",
      "lat": 60.15,
      "lng": 9.816667
    },
    {
      "cityName": "Kroksjadelva",
      "lat": 59.75,
      "lng": 10.016667
    },
    {
      "cityName": "Kvisle",
      "lat": 60.083333,
      "lng": 9.116667
    },
    {
      "cityName": "Laa",
      "lat": 60.633333,
      "lng": 8.516667
    },
    {
      "cityName": "Lande",
      "lat": 59.883333,
      "lng": 9.45
    },
    {
      "cityName": "Land",
      "lat": 60.233333,
      "lng": 9.866667
    },
    {
      "cityName": "Landsværk",
      "lat": 59.616667,
      "lng": 9.65
    },
    {
      "cityName": "Langstranda",
      "lat": 59.718333,
      "lng": 10.266944
    },
    {
      "cityName": "Leversby",
      "lat": 59.85,
      "lng": 9.9
    },
    {
      "cityName": "Liagarda",
      "lat": 60.666667,
      "lng": 8.633333
    },
    {
      "cityName": "Lii",
      "lat": 60.466667,
      "lng": 8.35
    },
    {
      "cityName": "Lindaaskroken",
      "lat": 59.55,
      "lng": 9.616667
    },
    {
      "cityName": "Liverud",
      "lat": 60.25,
      "lng": 8.866667
    },
    {
      "cityName": "Ljotegard",
      "lat": 60.266667,
      "lng": 8.833333
    },
    {
      "cityName": "Lobben",
      "lat": 59.866667,
      "lng": 9.85
    },
    {
      "cityName": "Lunder",
      "lat": 60.233333,
      "lng": 9.933333
    },
    {
      "cityName": "Lundesgard",
      "lat": 60.25,
      "lng": 9.9
    },
    {
      "cityName": "Lykkja",
      "lat": 60.883333,
      "lng": 8.816667
    },
    {
      "cityName": "Lyngdal i Numedal",
      "lat": 59.9,
      "lng": 9.516667
    },
    {
      "cityName": "Mære",
      "lat": 59.85,
      "lng": 10.216667
    },
    {
      "cityName": "Magnetun",
      "lat": 60.75,
      "lng": 8.866667
    },
    {
      "cityName": "Markegardlian",
      "lat": 60.883333,
      "lng": 8.766667
    },
    {
      "cityName": "Mehus",
      "lat": 60.583333,
      "lng": 8.333333
    },
    {
      "cityName": "Meskestad",
      "lat": 59.516667,
      "lng": 9.866667
    },
    {
      "cityName": "Modalen",
      "lat": 60.216667,
      "lng": 9.95
    },
    {
      "cityName": "Mørk",
      "lat": 59.6,
      "lng": 9.716667
    },
    {
      "cityName": "Myro",
      "lat": 60.616667,
      "lng": 8.316667
    },
    {
      "cityName": "Nærsnes",
      "lat": 59.76,
      "lng": 10.498333
    },
    {
      "cityName": "Nebba",
      "lat": 59.526389,
      "lng": 10.423056
    },
    {
      "cityName": "Nedre Eiker",
      "lat": 59.766667,
      "lng": 10.033333
    },
    {
      "cityName": "Nesbyen",
      "lat": 60.566667,
      "lng": 9.1
    },
    {
      "cityName": "Nes i Ådal",
      "lat": 60.566667,
      "lng": 9.983333
    },
    {
      "cityName": "Nes",
      "lat": 59.95,
      "lng": 9.8
    },
    {
      "cityName": "Nordby",
      "lat": 59.715833,
      "lng": 10.258611
    },
    {
      "cityName": "Nørdstebø",
      "lat": 60.316667,
      "lng": 8.5
    },
    {
      "cityName": "Nore",
      "lat": 60.166667,
      "lng": 9.016667
    },
    {
      "cityName": "Nore Sundet",
      "lat": 60.166667,
      "lng": 9.616667
    },
    {
      "cityName": "Nos",
      "lat": 60.616667,
      "lng": 8.5
    },
    {
      "cityName": "Nygard",
      "lat": 60.533333,
      "lng": 7.833333
    },
    {
      "cityName": "Ødegård",
      "lat": 59.764444,
      "lng": 10.280278
    },
    {
      "cityName": "Omholt",
      "lat": 59.516667,
      "lng": 9.833333
    },
    {
      "cityName": "Opdal",
      "lat": 60.266667,
      "lng": 8.733333
    },
    {
      "cityName": "Opheim",
      "lat": 60.683333,
      "lng": 8.683333
    },
    {
      "cityName": "Oppen",
      "lat": 60.166667,
      "lng": 10.2
    },
    {
      "cityName": "Ørpen",
      "lat": 60.216667,
      "lng": 9.633333
    },
    {
      "cityName": "Øverby",
      "lat": 59.966667,
      "lng": 9.816667
    },
    {
      "cityName": "Øya",
      "lat": 60.133333,
      "lng": 9.45
    },
    {
      "cityName": "Øygardsgrend",
      "lat": 60.316667,
      "lng": 8.933333
    },
    {
      "cityName": "Pjåka",
      "lat": 60.116667,
      "lng": 10.366667
    },
    {
      "cityName": "Prestfoss",
      "lat": 60.033333,
      "lng": 9.633333
    },
    {
      "cityName": "Raaen",
      "lat": 60.15,
      "lng": 9.7
    },
    {
      "cityName": "Raagrend",
      "lat": 60.283333,
      "lng": 8.966667
    },
    {
      "cityName": "Rauk",
      "lat": 60.466667,
      "lng": 9.25
    },
    {
      "cityName": "Redalen",
      "lat": 60.233333,
      "lng": 9.7
    },
    {
      "cityName": "Reistad",
      "lat": 59.783333,
      "lng": 10.283333
    },
    {
      "cityName": "Risteigen",
      "lat": 62.033333,
      "lng": 9.2
    },
    {
      "cityName": "Ristveit",
      "lat": 59.866667,
      "lng": 9.833333
    },
    {
      "cityName": "Rødby",
      "lat": 59.6,
      "lng": 10.466667
    },
    {
      "cityName": "Rød",
      "lat": 59.566667,
      "lng": 10.583333
    },
    {
      "cityName": "Rødtangen",
      "lat": 59.531389,
      "lng": 10.416667
    },
    {
      "cityName": "Röine",
      "lat": 59.933333,
      "lng": 10.266667
    },
    {
      "cityName": "Röising",
      "lat": 60.15,
      "lng": 10.166667
    },
    {
      "cityName": "Rolfshus",
      "lat": 60.7,
      "lng": 8.966667
    },
    {
      "cityName": "Røren",
      "lat": 59.766667,
      "lng": 9.85
    },
    {
      "cityName": "Røstby",
      "lat": 60.283333,
      "lng": 10.166667
    },
    {
      "cityName": "Rotneim",
      "lat": 60.683333,
      "lng": 8.833333
    },
    {
      "cityName": "Røyken",
      "lat": 59.7475,
      "lng": 10.393611
    },
    {
      "cityName": "Rukke",
      "lat": 60.516667,
      "lng": 8.916667
    },
    {
      "cityName": "Runn",
      "lat": 60.166667,
      "lng": 9.566667
    },
    {
      "cityName": "Saastad",
      "lat": 60,
      "lng": 9.866667
    },
    {
      "cityName": "Sætre i Hurum",
      "lat": 59.681667,
      "lng": 10.524722
    },
    {
      "cityName": "Saggrenda",
      "lat": 59.633333,
      "lng": 9.6
    },
    {
      "cityName": "Sandåker",
      "lat": 59.768611,
      "lng": 10.237778
    },
    {
      "cityName": "Seim",
      "lat": 60.616667,
      "lng": 8.35
    },
    {
      "cityName": "Sesrud",
      "lat": 60.216667,
      "lng": 9.983333
    },
    {
      "cityName": "Skadeland",
      "lat": 60.25,
      "lng": 9.35
    },
    {
      "cityName": "Skagnes",
      "lat": 60.483333,
      "lng": 10.066667
    },
    {
      "cityName": "Skardsgardshagen",
      "lat": 60.683333,
      "lng": 8.283333
    },
    {
      "cityName": "Skåro",
      "lat": 60.666667,
      "lng": 8.016667
    },
    {
      "cityName": "Skredsvik",
      "lat": 59.916667,
      "lng": 9.95
    },
    {
      "cityName": "Skreppen",
      "lat": 59.883333,
      "lng": 9.916667
    },
    {
      "cityName": "Skretteberg",
      "lat": 60,
      "lng": 9.883333
    },
    {
      "cityName": "Slaatto",
      "lat": 60.516667,
      "lng": 8.133333
    },
    {
      "cityName": "Slemmestad",
      "lat": 59.783333,
      "lng": 10.5
    },
    {
      "cityName": "Sletti",
      "lat": 60.95,
      "lng": 8.4
    },
    {
      "cityName": "Smørgrav",
      "lat": 59.733333,
      "lng": 9.883333
    },
    {
      "cityName": "Snarum",
      "lat": 60.033333,
      "lng": 9.883333
    },
    {
      "cityName": "Sokna",
      "lat": 60.233333,
      "lng": 9.9
    },
    {
      "cityName": "Solbergelva",
      "lat": 59.766667,
      "lng": 10.066667
    },
    {
      "cityName": "Solfjell",
      "lat": 59.521389,
      "lng": 10.433889
    },
    {
      "cityName": "Sollihøgda",
      "lat": 59.966667,
      "lng": 10.35
    },
    {
      "cityName": "Solom",
      "lat": 59.966667,
      "lng": 9.783333
    },
    {
      "cityName": "Sønstebø",
      "lat": 60.3,
      "lng": 8.566667
    },
    {
      "cityName": "Sørsdal",
      "lat": 59.85,
      "lng": 10.25
    },
    {
      "cityName": "Sørum",
      "lat": 59.766667,
      "lng": 10.283333
    },
    {
      "cityName": "Stamn",
      "lat": 60.416667,
      "lng": 9.316667
    },
    {
      "cityName": "Steinberg",
      "lat": 59.766667,
      "lng": 9.95
    },
    {
      "cityName": "Steinset",
      "lat": 59.8,
      "lng": 9.833333
    },
    {
      "cityName": "Stengelsrud",
      "lat": 59.7,
      "lng": 9.6
    },
    {
      "cityName": "Sterkaby",
      "lat": 59.916667,
      "lng": 9.833333
    },
    {
      "cityName": "Storsand",
      "lat": 59.651944,
      "lng": 10.593889
    },
    {
      "cityName": "Strømsø",
      "lat": 59.734444,
      "lng": 10.213056
    },
    {
      "cityName": "Surtebergmoen",
      "lat": 60.233333,
      "lng": 9.616667
    },
    {
      "cityName": "Svene",
      "lat": 59.8,
      "lng": 9.583333
    },
    {
      "cityName": "Svenkerud",
      "lat": 60.65,
      "lng": 9.066667
    },
    {
      "cityName": "Svensrud",
      "lat": 60.083333,
      "lng": 10.233333
    },
    {
      "cityName": "Sylling",
      "lat": 59.9,
      "lng": 10.283333
    },
    {
      "cityName": "Tangen",
      "lat": 59.728889,
      "lng": 10.244722
    },
    {
      "cityName": "Tofte i Hurum",
      "lat": 59.548333,
      "lng": 10.566111
    },
    {
      "cityName": "Ton",
      "lat": 60.033333,
      "lng": 9.983333
    },
    {
      "cityName": "Torpo",
      "lat": 60.666667,
      "lng": 8.716667
    },
    {
      "cityName": "Torset",
      "lat": 60.833333,
      "lng": 8.6
    },
    {
      "cityName": "Traaen",
      "lat": 60.016667,
      "lng": 9.3
    },
    {
      "cityName": "Tranby",
      "lat": 59.816667,
      "lng": 10.25
    },
    {
      "cityName": "Trondrud",
      "lat": 59.816667,
      "lng": 9.866667
    },
    {
      "cityName": "Trondsgard",
      "lat": 60.666667,
      "lng": 7.9
    },
    {
      "cityName": "Tronstad",
      "lat": 59.883333,
      "lng": 10.233333
    },
    {
      "cityName": "Tuft",
      "lat": 59.5,
      "lng": 10
    },
    {
      "cityName": "Tune",
      "lat": 60.6,
      "lng": 8.483333
    },
    {
      "cityName": "Tunhovd",
      "lat": 60.466667,
      "lng": 8.766667
    },
    {
      "cityName": "Tuv",
      "lat": 60.883333,
      "lng": 8.5
    },
    {
      "cityName": "Tveiten",
      "lat": 60.05,
      "lng": 9.133333
    },
    {
      "cityName": "Tyristranden",
      "lat": 60.1,
      "lng": 10.1
    },
    {
      "cityName": "Ulebaasen",
      "lat": 60.183333,
      "lng": 9
    },
    {
      "cityName": "Ulland",
      "lat": 59.75,
      "lng": 9.683333
    },
    {
      "cityName": "Ulleren",
      "lat": 59.783333,
      "lng": 9.9
    },
    {
      "cityName": "Ura",
      "lat": 60.55,
      "lng": 9.85
    },
    {
      "cityName": "Ustad",
      "lat": 59.633333,
      "lng": 10.483333
    },
    {
      "cityName": "Ustaoset",
      "lat": 60.5,
      "lng": 8.066667
    },
    {
      "cityName": "Vad",
      "lat": 60.033333,
      "lng": 9.683333
    },
    {
      "cityName": "Varlo",
      "lat": 59.783333,
      "lng": 9.866667
    },
    {
      "cityName": "Vass",
      "lat": 60.7,
      "lng": 8.4
    },
    {
      "cityName": "Veggli",
      "lat": 60.05,
      "lng": 9.15
    },
    {
      "cityName": "Veme",
      "lat": 60.2,
      "lng": 10.1
    },
    {
      "cityName": "Verpen",
      "lat": 59.672222,
      "lng": 10.565556
    },
    {
      "cityName": "Verp",
      "lat": 59.866667,
      "lng": 9.916667
    },
    {
      "cityName": "Vestby",
      "lat": 59.866667,
      "lng": 9.8
    },
    {
      "cityName": "Vestfossen",
      "lat": 59.733333,
      "lng": 9.866667
    },
    {
      "cityName": "Vikersund",
      "lat": 59.983333,
      "lng": 10.033333
    },
    {
      "cityName": "Vike",
      "lat": 59.95,
      "lng": 10.016667
    },
    {
      "cityName": "Vik",
      "lat": 60.433333,
      "lng": 9.45
    },
    {
      "cityName": "Viol",
      "lat": 60.2,
      "lng": 10.35
    },
    {
      "cityName": "Ytre Aadalen",
      "lat": 60.266667,
      "lng": 10.183333
    }
  ]
}