{
  "name": "Cankuzo",
  "cities": [
    {
      "cityName": "Bihanga",
      "lat": -3.1636111,
      "lng": 30.5955556
    },
    {
      "cityName": "Bihoge",
      "lat": -3.2683333,
      "lng": 30.5683333
    },
    {
      "cityName": "Budahuga",
      "lat": -2.9908333,
      "lng": 30.5961111
    },
    {
      "cityName": "Bugabiro",
      "lat": -3.2061111,
      "lng": 30.5919444
    },
    {
      "cityName": "Buhoro",
      "lat": -3.0305556,
      "lng": 30.725
    },
    {
      "cityName": "Bukinga",
      "lat": -3.2391667,
      "lng": 30.4497222
    },
    {
      "cityName": "Bukurana",
      "lat": -3.2636111,
      "lng": 30.5136111
    },
    {
      "cityName": "Buziramabinga",
      "lat": -3.1183333,
      "lng": 30.5175
    },
    {
      "cityName": "Canika",
      "lat": -3.0744444,
      "lng": 30.7675
    },
    {
      "cityName": "Cankuzo",
      "lat": -3.2194444,
      "lng": 30.5527778
    },
    {
      "cityName": "Cendajuru",
      "lat": -3.3041667,
      "lng": 30.5911111
    },
    {
      "cityName": "Gahera",
      "lat": -2.9936111,
      "lng": 30.5583333
    },
    {
      "cityName": "Gasenyi",
      "lat": -3.1741667,
      "lng": 30.8313889
    },
    {
      "cityName": "Gashirwe",
      "lat": -3.0875,
      "lng": 30.5858333
    },
    {
      "cityName": "Gasumba",
      "lat": -3.1058333,
      "lng": 30.6633333
    },
    {
      "cityName": "Gatabo",
      "lat": -3.2075,
      "lng": 30.4444444
    },
    {
      "cityName": "Gatwaro",
      "lat": -2.9647222,
      "lng": 30.5322222
    },
    {
      "cityName": "Gicumboro",
      "lat": -3.1975,
      "lng": 30.3941667
    },
    {
      "cityName": "Gisagara",
      "lat": -3.205,
      "lng": 30.6844444
    },
    {
      "cityName": "Gisasa",
      "lat": -2.9827778,
      "lng": 30.6366667
    },
    {
      "cityName": "Giseke",
      "lat": -3.06,
      "lng": 30.7172222
    },
    {
      "cityName": "Gisenga",
      "lat": -3.0305556,
      "lng": 30.5572222
    },
    {
      "cityName": "Gishami",
      "lat": -3.2136111,
      "lng": 30.7125
    },
    {
      "cityName": "Gishungo",
      "lat": -3.0669444,
      "lng": 30.6769444
    },
    {
      "cityName": "Gisuma",
      "lat": -3.1180556,
      "lng": 30.4141667
    },
    {
      "cityName": "Gisuru",
      "lat": -3.2369444,
      "lng": 30.6502778
    },
    {
      "cityName": "Gitanga",
      "lat": -3.3472222,
      "lng": 30.6069444
    },
    {
      "cityName": "Gitare",
      "lat": -3.2077778,
      "lng": 30.6
    },
    {
      "cityName": "Gitega",
      "lat": -3.0716667,
      "lng": 30.6947222
    },
    {
      "cityName": "Gitibu",
      "lat": -3.1869444,
      "lng": 30.575
    },
    {
      "cityName": "Gitovu",
      "lat": -3.3616667,
      "lng": 30.5941667
    },
    {
      "cityName": "Gitura",
      "lat": -3.2786111,
      "lng": 30.6475
    },
    {
      "cityName": "Kababi",
      "lat": -3.1280556,
      "lng": 30.4572222
    },
    {
      "cityName": "Kabagari",
      "lat": -3.0472222,
      "lng": 30.7833333
    },
    {
      "cityName": "Kabari",
      "lat": -3.11,
      "lng": 30.4816667
    },
    {
      "cityName": "Kabogoye",
      "lat": -3.2875,
      "lng": 30.6627778
    },
    {
      "cityName": "Kabuga",
      "lat": -2.9983333,
      "lng": 30.6777778
    },
    {
      "cityName": "Kageyo",
      "lat": -3.3325,
      "lng": 30.5530556
    },
    {
      "cityName": "Kagunga",
      "lat": -3.3436111,
      "lng": 30.6311111
    },
    {
      "cityName": "Kamonyi",
      "lat": -3.0491667,
      "lng": 30.7397222
    },
    {
      "cityName": "Kaniga",
      "lat": -3.0369444,
      "lng": 30.515
    },
    {
      "cityName": "Karago",
      "lat": -3.1769444,
      "lng": 30.5372222
    },
    {
      "cityName": "Karambi",
      "lat": -3.2672222,
      "lng": 30.4541667
    },
    {
      "cityName": "Karinzi",
      "lat": -3.1472222,
      "lng": 30.5452778
    },
    {
      "cityName": "Karugajo",
      "lat": -3.2875,
      "lng": 30.635
    },
    {
      "cityName": "Kavumu",
      "lat": -3.3127778,
      "lng": 30.5763889
    },
    {
      "cityName": "Kibuye",
      "lat": -3.2636111,
      "lng": 30.4883333
    },
    {
      "cityName": "Kidumbugu",
      "lat": -2.9991667,
      "lng": 30.6338889
    },
    {
      "cityName": "Kigamba",
      "lat": -3.075,
      "lng": 30.5291667
    },
    {
      "cityName": "Kigeme",
      "lat": -3.0944444,
      "lng": 30.7558333
    },
    {
      "cityName": "Kigende",
      "lat": -3.2663889,
      "lng": 30.4794444
    },
    {
      "cityName": "Kigina",
      "lat": -3.1905556,
      "lng": 30.5397222
    },
    {
      "cityName": "Kinoga",
      "lat": -3.3244444,
      "lng": 30.545
    },
    {
      "cityName": "Kirerama",
      "lat": -3.1922222,
      "lng": 30.4713889
    },
    {
      "cityName": "Kiryama",
      "lat": -3.2558333,
      "lng": 30.5602778
    },
    {
      "cityName": "Kumuzu",
      "lat": -3.2927778,
      "lng": 30.5125
    },
    {
      "cityName": "Kurasiro",
      "lat": -3.2191667,
      "lng": 30.4291667
    },
    {
      "cityName": "Kuwisovu",
      "lat": -3.2208333,
      "lng": 30.4013889
    },
    {
      "cityName": "Kwitaba",
      "lat": -3.3025,
      "lng": 30.4775
    },
    {
      "cityName": "Makombe",
      "lat": -3.1819444,
      "lng": 30.7277778
    },
    {
      "cityName": "Mashiga",
      "lat": -2.9666667,
      "lng": 30.6194444
    },
    {
      "cityName": "Mata",
      "lat": -3.0155556,
      "lng": 30.7316667
    },
    {
      "cityName": "Mibare",
      "lat": -2.9911111,
      "lng": 30.66
    },
    {
      "cityName": "Miciro",
      "lat": -3.2613889,
      "lng": 30.6944444
    },
    {
      "cityName": "Miguruka",
      "lat": -3.2866667,
      "lng": 30.6888889
    },
    {
      "cityName": "Mikore",
      "lat": -2.9608333,
      "lng": 30.5286111
    },
    {
      "cityName": "Mikuku",
      "lat": -3.1941667,
      "lng": 30.4966667
    },
    {
      "cityName": "Minyare",
      "lat": -3.2027778,
      "lng": 30.5166667
    },
    {
      "cityName": "Mishiha",
      "lat": -3.0622222,
      "lng": 30.7016667
    },
    {
      "cityName": "Mubukanye",
      "lat": -3.2144444,
      "lng": 30.7222222
    },
    {
      "cityName": "Mucori",
      "lat": -3.3091667,
      "lng": 30.6222222
    },
    {
      "cityName": "Mugatare",
      "lat": -3.1713889,
      "lng": 30.4822222
    },
    {
      "cityName": "Mugera",
      "lat": -3.0652778,
      "lng": 30.6680556
    },
    {
      "cityName": "Mugogo",
      "lat": -3.3327778,
      "lng": 30.6052778
    },
    {
      "cityName": "Mukaroba",
      "lat": -2.9586111,
      "lng": 30.6402778
    },
    {
      "cityName": "Mukobe",
      "lat": -3.2883333,
      "lng": 30.6161111
    },
    {
      "cityName": "Munyinya",
      "lat": -3.0083333,
      "lng": 30.6491667
    },
    {
      "cityName": "Munzenze",
      "lat": -3.025,
      "lng": 30.7666667
    },
    {
      "cityName": "Muremera",
      "lat": -3.0222222,
      "lng": 30.5305556
    },
    {
      "cityName": "Murore",
      "lat": -3.1875,
      "lng": 30.6625
    },
    {
      "cityName": "Murunazi",
      "lat": -3.2325,
      "lng": 30.7044444
    },
    {
      "cityName": "Murunyinya",
      "lat": -3.21,
      "lng": 30.7036111
    },
    {
      "cityName": "Mururinzi",
      "lat": -3.1361111,
      "lng": 30.4508333
    },
    {
      "cityName": "Musenga",
      "lat": -3.1669444,
      "lng": 30.5147222
    },
    {
      "cityName": "Mutobo",
      "lat": -3.12,
      "lng": 30.5452778
    },
    {
      "cityName": "Muvumu",
      "lat": -3.2772222,
      "lng": 30.4541667
    },
    {
      "cityName": "Muyaga",
      "lat": -3.2472222,
      "lng": 30.5472222
    },
    {
      "cityName": "Muyange",
      "lat": -3.2630556,
      "lng": 30.6522222
    },
    {
      "cityName": "Muzirangerera",
      "lat": -2.9847222,
      "lng": 30.6913889
    },
    {
      "cityName": "Muzumure",
      "lat": -3.2194444,
      "lng": 30.5236111
    },
    {
      "cityName": "Mwiburaniro",
      "lat": -3.22,
      "lng": 30.7008333
    },
    {
      "cityName": "Ngoma",
      "lat": -3.0211111,
      "lng": 30.7577778
    },
    {
      "cityName": "Ntunda",
      "lat": -3.0844444,
      "lng": 30.7380556
    },
    {
      "cityName": "Nyakatsi",
      "lat": -3.1563889,
      "lng": 30.6316667
    },
    {
      "cityName": "Nyakibereko",
      "lat": -3.2091667,
      "lng": 30.8166667
    },
    {
      "cityName": "Nyakirehe",
      "lat": -2.9491667,
      "lng": 30.5522222
    },
    {
      "cityName": "Nyamisoma",
      "lat": -3.1897222,
      "lng": 30.6072222
    },
    {
      "cityName": "Nyamugari",
      "lat": -3.17,
      "lng": 30.6163889
    },
    {
      "cityName": "Nyamyotsi",
      "lat": -2.9644444,
      "lng": 30.5036111
    },
    {
      "cityName": "Nyankere",
      "lat": -3.1436111,
      "lng": 30.5966667
    },
    {
      "cityName": "Nyankorogo",
      "lat": -3.0772222,
      "lng": 30.7863889
    },
    {
      "cityName": "Nyarumuri",
      "lat": -3.2888889,
      "lng": 30.4569444
    },
    {
      "cityName": "Nyarunazi",
      "lat": -3.2136111,
      "lng": 30.3769444
    },
    {
      "cityName": "Nyaruruma",
      "lat": -3.1519444,
      "lng": 30.6875
    },
    {
      "cityName": "Remera",
      "lat": -3.0525,
      "lng": 30.6805556
    },
    {
      "cityName": "Rubangabanga",
      "lat": -3.005,
      "lng": 30.7919444
    },
    {
      "cityName": "Rubirizi",
      "lat": -3.0402778,
      "lng": 30.4880556
    },
    {
      "cityName": "Ruganda",
      "lat": -3.2,
      "lng": 30.7025
    },
    {
      "cityName": "Rugenge",
      "lat": -3.0513889,
      "lng": 30.7666667
    },
    {
      "cityName": "Rugoma",
      "lat": -2.9258333,
      "lng": 30.5819444
    },
    {
      "cityName": "Rugongo",
      "lat": -3.2388889,
      "lng": 30.7197222
    },
    {
      "cityName": "Ruhinga",
      "lat": -3.2566667,
      "lng": 30.6
    },
    {
      "cityName": "Rukwega",
      "lat": -3.0708333,
      "lng": 30.7433333
    },
    {
      "cityName": "Rurengera",
      "lat": -3.1872222,
      "lng": 30.6361111
    },
    {
      "cityName": "Rushubije",
      "lat": -2.9980556,
      "lng": 30.5322222
    },
    {
      "cityName": "Rusigabangazi",
      "lat": -3.2508333,
      "lng": 30.7752778
    },
    {
      "cityName": "Rutamo",
      "lat": -3.2025,
      "lng": 30.6683333
    },
    {
      "cityName": "Rutimbura",
      "lat": -3.2352778,
      "lng": 30.7330556
    },
    {
      "cityName": "Rutovu",
      "lat": -3.2061111,
      "lng": 30.565
    },
    {
      "cityName": "Ruvumu",
      "lat": -3.1177778,
      "lng": 30.6694444
    },
    {
      "cityName": "Rwimbogo",
      "lat": -3.2808333,
      "lng": 30.4641667
    },
    {
      "cityName": "Tetero",
      "lat": -3,
      "lng": 30.7847222
    },
    {
      "cityName": "Vyinkona",
      "lat": -3.2016667,
      "lng": 30.6044444
    }
  ]
}