{
  "name": "Mohales Hoek",
  "cities": [
    {
      "cityName": "Berente",
      "lat": -29.9,
      "lng": 27.65
    },
    {
      "cityName": "Brakfontein",
      "lat": -30.25,
      "lng": 27.45
    },
    {
      "cityName": "Helehehle",
      "lat": -29.9833333,
      "lng": 27.5
    },
    {
      "cityName": "Kaphe",
      "lat": -29.9666667,
      "lng": 27.65
    },
    {
      "cityName": "Khitsane",
      "lat": -30.1,
      "lng": 27.4166667
    },
    {
      "cityName": "Kojoa",
      "lat": -29.8666667,
      "lng": 27.6666667
    },
    {
      "cityName": "Liphateng",
      "lat": -30.0333333,
      "lng": 27.4333333
    },
    {
      "cityName": "Maghaleen",
      "lat": -30.1666667,
      "lng": 27.4
    },
    {
      "cityName": "Makhinas",
      "lat": -30.15,
      "lng": 27.35
    },
    {
      "cityName": "Makojang",
      "lat": -29.9333333,
      "lng": 27.7333333
    },
    {
      "cityName": "Maphutseng",
      "lat": -30.2166667,
      "lng": 27.5166667
    },
    {
      "cityName": "Mekading",
      "lat": -30.2833333,
      "lng": 27.5166667
    },
    {
      "cityName": "Mohale's Hoek",
      "lat": -30.15,
      "lng": 27.4666667
    },
    {
      "cityName": "Monaheng",
      "lat": -29.8666667,
      "lng": 27.7166667
    },
    {
      "cityName": "Morife",
      "lat": -30.2833333,
      "lng": 27.4
    },
    {
      "cityName": "Mpharane",
      "lat": -30.0166667,
      "lng": 27.55
    },
    {
      "cityName": "Old Mohales Hoek",
      "lat": -30.1,
      "lng": 27.4833333
    },
    {
      "cityName": "Rasebetsana",
      "lat": -29.85,
      "lng": 27.75
    },
    {
      "cityName": "Richard",
      "lat": -29.8833333,
      "lng": 27.6166667
    },
    {
      "cityName": "Riet Vlei",
      "lat": -30.0166667,
      "lng": 27.3333333
    },
    {
      "cityName": "Schoolplaats",
      "lat": -30.3,
      "lng": 27.5
    },
    {
      "cityName": "Sibi Sibi",
      "lat": -29.9166667,
      "lng": 27.8
    },
    {
      "cityName": "Tsoloane",
      "lat": -30.0166667,
      "lng": 27.3666667
    }
  ]
}