{
  "name": "Unnamed region 01",
  "cities": [
    {
      "cityName": "Abaiat",
      "lat": 10.3,
      "lng": 32.55
    },
    {
      "cityName": "Abaj",
      "lat": 10.05,
      "lng": 32.5666667
    },
    {
      "cityName": "Aballi",
      "lat": 9.2166667,
      "lng": 33.8333333
    },
    {
      "cityName": "Abarnima",
      "lat": 9.7402778,
      "lng": 31.9366667
    },
    {
      "cityName": "Abbeit",
      "lat": 11.75,
      "lng": 32.8166667
    },
    {
      "cityName": "`Abd ar Rijal",
      "lat": 10.2166667,
      "lng": 33.2
    },
    {
      "cityName": "Abemnom",
      "lat": 9.3333333,
      "lng": 28.9166667
    },
    {
      "cityName": "Abiagyai",
      "lat": 10.1166667,
      "lng": 32.2666667
    },
    {
      "cityName": "Abiengyai",
      "lat": 10.1166667,
      "lng": 32.0833333
    },
    {
      "cityName": "Abu Daqn",
      "lat": 10.3,
      "lng": 33.3833333
    },
    {
      "cityName": "Abujon",
      "lat": 9.3555556,
      "lng": 31.5163889
    },
    {
      "cityName": "Abujop",
      "lat": 9.3683333,
      "lng": 31.4663889
    },
    {
      "cityName": "Abu Khamira",
      "lat": 10.4833333,
      "lng": 33.2166667
    },
    {
      "cityName": "Abuoy",
      "lat": 9.95,
      "lng": 30.15
    },
    {
      "cityName": "Abu Shalaya",
      "lat": 11.9,
      "lng": 32.95
    },
    {
      "cityName": "Abu Tong",
      "lat": 9.4527778,
      "lng": 31.1430556
    },
    {
      "cityName": "Abwong",
      "lat": 6.9730556,
      "lng": 31.1291667
    },
    {
      "cityName": "Abwonq",
      "lat": 9.1166667,
      "lng": 32.2
    },
    {
      "cityName": "Achel",
      "lat": 9.1,
      "lng": 32.3666667
    },
    {
      "cityName": "Achol",
      "lat": 6.5666667,
      "lng": 31.5166667
    },
    {
      "cityName": "Achop",
      "lat": 9.5786111,
      "lng": 31.6669444
    },
    {
      "cityName": "Achung",
      "lat": 9.9333333,
      "lng": 32.0333333
    },
    {
      "cityName": "Achwil",
      "lat": 9.8666667,
      "lng": 32.15
    },
    {
      "cityName": "Adado",
      "lat": 9.5902778,
      "lng": 31.6225
    },
    {
      "cityName": "Adal",
      "lat": 10.9,
      "lng": 32.5166667
    },
    {
      "cityName": "Adaudo Nyerur",
      "lat": 10.0166667,
      "lng": 32.0666667
    },
    {
      "cityName": "Adeiri",
      "lat": 10.75,
      "lng": 32.35
    },
    {
      "cityName": "Adet",
      "lat": 6.5833333,
      "lng": 31.55
    },
    {
      "cityName": "Ad Fakwan",
      "lat": 8.5369444,
      "lng": 30.6536111
    },
    {
      "cityName": "Adidiang Paych",
      "lat": 9.3955556,
      "lng": 31.5411111
    },
    {
      "cityName": "Adodo",
      "lat": 9.455,
      "lng": 31.6488889
    },
    {
      "cityName": "Adok",
      "lat": 8.1833333,
      "lng": 30.3166667
    },
    {
      "cityName": "Adong",
      "lat": 8.9333333,
      "lng": 31.9833333
    },
    {
      "cityName": "Adwojo",
      "lat": 9.3636111,
      "lng": 31.4488889
    },
    {
      "cityName": "Adwor",
      "lat": 9.3055556,
      "lng": 31.7580556
    },
    {
      "cityName": "Again",
      "lat": 8.4666667,
      "lng": 29.9166667
    },
    {
      "cityName": "Againg",
      "lat": 9.3266667,
      "lng": 31.5041667
    },
    {
      "cityName": "Agalak",
      "lat": 11.0166667,
      "lng": 32.7
    },
    {
      "cityName": "Agarak",
      "lat": 9.6333333,
      "lng": 30.1333333
    },
    {
      "cityName": "Agat",
      "lat": 9.5666667,
      "lng": 32.1333333
    },
    {
      "cityName": "Agodo",
      "lat": 9.7447222,
      "lng": 31.8802778
    },
    {
      "cityName": "Agor",
      "lat": 10.2333333,
      "lng": 32.65
    },
    {
      "cityName": "Agor Dit",
      "lat": 10.2333333,
      "lng": 32.7166667
    },
    {
      "cityName": "Aguatta",
      "lat": 6.8166667,
      "lng": 34.5666667
    },
    {
      "cityName": "Agugo",
      "lat": 9.3783333,
      "lng": 31.51
    },
    {
      "cityName": "Agum",
      "lat": 11.7,
      "lng": 32.8666667
    },
    {
      "cityName": "Agungok",
      "lat": 9.35,
      "lng": 31.4333333
    },
    {
      "cityName": "Agyagya",
      "lat": 9.9666667,
      "lng": 33.8666667
    },
    {
      "cityName": "Ahmad `Arabi",
      "lat": 9.1666667,
      "lng": 29.8166667
    },
    {
      "cityName": "Aiweng",
      "lat": 7.5333333,
      "lng": 31.4
    },
    {
      "cityName": "Aiyota",
      "lat": 10.75,
      "lng": 32.6666667
    },
    {
      "cityName": "Aiyot",
      "lat": 9.1183333,
      "lng": 31.6458333
    },
    {
      "cityName": "Aiyung",
      "lat": 9.3666667,
      "lng": 32.4666667
    },
    {
      "cityName": "Ajibja",
      "lat": 7,
      "lng": 31.3833333
    },
    {
      "cityName": "Ajingel",
      "lat": 10.4166667,
      "lng": 32.5666667
    },
    {
      "cityName": "Ajuini",
      "lat": 7.4666667,
      "lng": 31.4166667
    },
    {
      "cityName": "Ajungmir",
      "lat": 8.45,
      "lng": 33.1833333
    },
    {
      "cityName": "Ajwara",
      "lat": 7.1166667,
      "lng": 33.9833333
    },
    {
      "cityName": "Akai",
      "lat": 8.7333333,
      "lng": 31.1
    },
    {
      "cityName": "Akait",
      "lat": 9.2333333,
      "lng": 29.6166667
    },
    {
      "cityName": "Akelo",
      "lat": 6.8333333,
      "lng": 33.6666667
    },
    {
      "cityName": "Akobo",
      "lat": 7.7833333,
      "lng": 33.0166667
    },
    {
      "cityName": "Akoke",
      "lat": 9.7333333,
      "lng": 32.1833333
    },
    {
      "cityName": "Akola",
      "lat": 7.9833333,
      "lng": 33.0333333
    },
    {
      "cityName": "Akoraweng",
      "lat": 9.7,
      "lng": 32.35
    },
    {
      "cityName": "Akorwen",
      "lat": 10.7166667,
      "lng": 32.7833333
    },
    {
      "cityName": "Akot",
      "lat": 10.4833333,
      "lng": 32.4833333
    },
    {
      "cityName": "Akowit",
      "lat": 6.9919444,
      "lng": 31.0569444
    },
    {
      "cityName": "Akurkwa",
      "lat": 10.5333333,
      "lng": 32.1166667
    },
    {
      "cityName": "Akwaiya",
      "lat": 10.8166667,
      "lng": 32.4
    },
    {
      "cityName": "Akwaj",
      "lat": 10.3833333,
      "lng": 32.6166667
    },
    {
      "cityName": "Akwot",
      "lat": 9.0666667,
      "lng": 32.4
    },
    {
      "cityName": "Al `Alali",
      "lat": 11.9,
      "lng": 32.9666667
    },
    {
      "cityName": "Al Amin",
      "lat": 10.4166667,
      "lng": 33.1666667
    },
    {
      "cityName": "Alanga",
      "lat": 7.7166667,
      "lng": 33.0666667
    },
    {
      "cityName": "Alangalang",
      "lat": 10,
      "lng": 29.9666667
    },
    {
      "cityName": "Al `Ara'ish",
      "lat": 9.65,
      "lng": 30.8666667
    },
    {
      "cityName": "Alek",
      "lat": 11.4,
      "lng": 32.7333333
    },
    {
      "cityName": "Alel",
      "lat": 9.4444444,
      "lng": 31.6411111
    },
    {
      "cityName": "Al Guroh",
      "lat": 10.8666667,
      "lng": 32.3333333
    },
    {
      "cityName": "Al Habilah",
      "lat": 11.9166667,
      "lng": 33
    },
    {
      "cityName": "Aliang",
      "lat": 6.5833333,
      "lng": 31.5166667
    },
    {
      "cityName": "Allah Gabo",
      "lat": 9.9833333,
      "lng": 33.8166667
    },
    {
      "cityName": "Al Mushash",
      "lat": 11.8833333,
      "lng": 32.95
    },
    {
      "cityName": "Al Qayqar",
      "lat": 11.9833333,
      "lng": 32.7666667
    },
    {
      "cityName": "Al Qurdud",
      "lat": 10.2833333,
      "lng": 29.9666667
    },
    {
      "cityName": "Amairial",
      "lat": 9.8833333,
      "lng": 32.1833333
    },
    {
      "cityName": "Angay",
      "lat": 9.2297222,
      "lng": 31.3775
    },
    {
      "cityName": "Angeich",
      "lat": 9.7666667,
      "lng": 30.2166667
    },
    {
      "cityName": "Angnor",
      "lat": 9.1666667,
      "lng": 31.6
    },
    {
      "cityName": "Angok",
      "lat": 10.9333333,
      "lng": 32.7166667
    },
    {
      "cityName": "Anialbong",
      "lat": 9.3247222,
      "lng": 31.4738889
    },
    {
      "cityName": "An Nasir",
      "lat": 8.6,
      "lng": 33.0666667
    },
    {
      "cityName": "Anok",
      "lat": 11.2833333,
      "lng": 32.7
    },
    {
      "cityName": "Anunbul",
      "lat": 10.85,
      "lng": 32.5166667
    },
    {
      "cityName": "Anyoka",
      "lat": 10.3833333,
      "lng": 32.55
    },
    {
      "cityName": "Apati",
      "lat": 6.7333333,
      "lng": 33.0666667
    },
    {
      "cityName": "Apida",
      "lat": 9.2666667,
      "lng": 33.7833333
    },
    {
      "cityName": "Aqordit",
      "lat": 10.25,
      "lng": 33.1666667
    },
    {
      "cityName": "Arbeit",
      "lat": 11.85,
      "lng": 32.8
    },
    {
      "cityName": "Arei",
      "lat": 10.7333333,
      "lng": 32.7166667
    },
    {
      "cityName": "Arer",
      "lat": 10.0833333,
      "lng": 32.5833333
    },
    {
      "cityName": "Ar Rank",
      "lat": 11.75,
      "lng": 32.8
    },
    {
      "cityName": "Aruch",
      "lat": 9.8666667,
      "lng": 30.1666667
    },
    {
      "cityName": "Arumbwot",
      "lat": 10.4,
      "lng": 32.2166667
    },
    {
      "cityName": "As Si`da",
      "lat": 10.5166667,
      "lng": 33.3666667
    },
    {
      "cityName": "`Ata el Mannan",
      "lat": 10.4,
      "lng": 33.1833333
    },
    {
      "cityName": "Atai",
      "lat": 10.85,
      "lng": 32.4666667
    },
    {
      "cityName": "Atara",
      "lat": 10.1,
      "lng": 32.0666667
    },
    {
      "cityName": "Atar",
      "lat": 9.3386111,
      "lng": 31.4063889
    },
    {
      "cityName": "Atcherah",
      "lat": 6.7666667,
      "lng": 33.0666667
    },
    {
      "cityName": "Atet",
      "lat": 6.2630556,
      "lng": 31.7325
    },
    {
      "cityName": "Atietit",
      "lat": 9.6333333,
      "lng": 32.3166667
    },
    {
      "cityName": "Atingrur",
      "lat": 9.85,
      "lng": 30.3
    },
    {
      "cityName": "Atoing",
      "lat": 8.95,
      "lng": 32.1666667
    },
    {
      "cityName": "Atonj",
      "lat": 10.3833333,
      "lng": 32.5166667
    },
    {
      "cityName": "Attigu",
      "lat": 9.47,
      "lng": 31.0536111
    },
    {
      "cityName": "Atuki",
      "lat": 9.7783333,
      "lng": 31.9147222
    },
    {
      "cityName": "Aturok",
      "lat": 10.6833333,
      "lng": 32.6833333
    },
    {
      "cityName": "Atyoptyop",
      "lat": 9.8333333,
      "lng": 32.1333333
    },
    {
      "cityName": "Au'u",
      "lat": 9.3,
      "lng": 33.7166667
    },
    {
      "cityName": "Auyeir",
      "lat": 9.2166667,
      "lng": 32.1666667
    },
    {
      "cityName": "Awan",
      "lat": 6.1027778,
      "lng": 31.7994444
    },
    {
      "cityName": "Awangaling",
      "lat": 9.5791667,
      "lng": 31.6216667
    },
    {
      "cityName": "Awaw",
      "lat": 9.4491667,
      "lng": 31.5752778
    },
    {
      "cityName": "Aweragor",
      "lat": 9.45,
      "lng": 28.8666667
    },
    {
      "cityName": "Awet Shol",
      "lat": 10.35,
      "lng": 32.2333333
    },
    {
      "cityName": "Awolabul",
      "lat": 9.7,
      "lng": 30.2
    },
    {
      "cityName": "Aworo Kit",
      "lat": 10.9833333,
      "lng": 32.6333333
    },
    {
      "cityName": "Awulu",
      "lat": 9.8333333,
      "lng": 30.1666667
    },
    {
      "cityName": "Ayau",
      "lat": 10.45,
      "lng": 32.6166667
    },
    {
      "cityName": "Ayod",
      "lat": 8.1166667,
      "lng": 31.4333333
    },
    {
      "cityName": "Ayom",
      "lat": 7.6666667,
      "lng": 31.8833333
    },
    {
      "cityName": "Ayowangen",
      "lat": 9.5719444,
      "lng": 31.6652778
    },
    {
      "cityName": "Babei",
      "lat": 9.9,
      "lng": 32.1166667
    },
    {
      "cityName": "Badi",
      "lat": 10.1,
      "lng": 33.85
    },
    {
      "cityName": "Badodi",
      "lat": 9.3016667,
      "lng": 31.3813889
    },
    {
      "cityName": "Balagat",
      "lat": 10.2333333,
      "lng": 32.6666667
    },
    {
      "cityName": "Ballah",
      "lat": 9.7666667,
      "lng": 33.5833333
    },
    {
      "cityName": "Ballilah",
      "lat": 10.35,
      "lng": 33.25
    },
    {
      "cityName": "Baloish",
      "lat": 10.4666667,
      "lng": 32.5333333
    },
    {
      "cityName": "Ban Donige",
      "lat": 10.1666667,
      "lng": 33.1833333
    },
    {
      "cityName": "Ban Dunna",
      "lat": 10.25,
      "lng": 33.3833333
    },
    {
      "cityName": "Bangarup",
      "lat": 9.7333333,
      "lng": 30.0833333
    },
    {
      "cityName": "Bang",
      "lat": 9.9833333,
      "lng": 33.7833333
    },
    {
      "cityName": "Ban Gieng Win",
      "lat": 10.2666667,
      "lng": 33.1833333
    },
    {
      "cityName": "Bangjang",
      "lat": 11.3833333,
      "lng": 32.7
    },
    {
      "cityName": "Banglai",
      "lat": 9.3416667,
      "lng": 31.8808333
    },
    {
      "cityName": "Ban Gurrum",
      "lat": 10.3166667,
      "lng": 33.3
    },
    {
      "cityName": "Banj",
      "lat": 10.4,
      "lng": 32.5666667
    },
    {
      "cityName": "Ban Jeila",
      "lat": 10.4,
      "lng": 33.1
    },
    {
      "cityName": "Ban Kaala",
      "lat": 10.5,
      "lng": 33.2333333
    },
    {
      "cityName": "Ban Sarra",
      "lat": 10.3833333,
      "lng": 33.25
    },
    {
      "cityName": "Ban Toltukke",
      "lat": 10.3,
      "lng": 33.2166667
    },
    {
      "cityName": "Ban Wakka",
      "lat": 10.3666667,
      "lng": 33.3166667
    },
    {
      "cityName": "Ban Yako",
      "lat": 10.45,
      "lng": 33.1666667
    },
    {
      "cityName": "Banyjiel",
      "lat": 8.9666667,
      "lng": 33.4666667
    },
    {
      "cityName": "Banyong",
      "lat": 10.9833333,
      "lng": 32.7333333
    },
    {
      "cityName": "Bar",
      "lat": 8.3458333,
      "lng": 30.9363889
    },
    {
      "cityName": "Bashala",
      "lat": 7.1666667,
      "lng": 34.0833333
    },
    {
      "cityName": "Batarus",
      "lat": 9.2166667,
      "lng": 33.85
    },
    {
      "cityName": "Batimoru",
      "lat": 6.3666667,
      "lng": 33.3833333
    },
    {
      "cityName": "Bau",
      "lat": 8.8166667,
      "lng": 34.0333333
    },
    {
      "cityName": "Begjuka",
      "lat": 10.3333333,
      "lng": 32.5333333
    },
    {
      "cityName": "Beh",
      "lat": 6.7166667,
      "lng": 33.0333333
    },
    {
      "cityName": "Beilwak",
      "lat": 10.4833333,
      "lng": 32.5
    },
    {
      "cityName": "Beimachok",
      "lat": 10.75,
      "lng": 32.55
    },
    {
      "cityName": "Bek",
      "lat": 8.6333333,
      "lng": 33.7666667
    },
    {
      "cityName": "Belgo",
      "lat": 10.1166667,
      "lng": 32.3
    },
    {
      "cityName": "Belichifor",
      "lat": 6.55,
      "lng": 33.2666667
    },
    {
      "cityName": "Belichinanu",
      "lat": 6.7333333,
      "lng": 33.1666667
    },
    {
      "cityName": "Belwang",
      "lat": 9.1,
      "lng": 33.3333333
    },
    {
      "cityName": "Berad",
      "lat": 8.8222222,
      "lng": 30.6541667
    },
    {
      "cityName": "Berboi",
      "lat": 9.4563889,
      "lng": 31.0111111
    },
    {
      "cityName": "Biar",
      "lat": 8.8166667,
      "lng": 31.8833333
    },
    {
      "cityName": "Biau",
      "lat": 8.05,
      "lng": 31.15
    },
    {
      "cityName": "Bi",
      "lat": 9.395,
      "lng": 30.8330556
    },
    {
      "cityName": "Biel",
      "lat": 8.5166667,
      "lng": 32.7
    },
    {
      "cityName": "Bielli",
      "lat": 8.9166667,
      "lng": 29.8166667
    },
    {
      "cityName": "Biem",
      "lat": 10.0166667,
      "lng": 30.15
    },
    {
      "cityName": "Biim",
      "lat": 8.45,
      "lng": 32.9833333
    },
    {
      "cityName": "Bilait",
      "lat": 6.6833333,
      "lng": 33.25
    },
    {
      "cityName": "Bilaiwal",
      "lat": 9.1,
      "lng": 32.3
    },
    {
      "cityName": "Bil",
      "lat": 9.3166667,
      "lng": 31.9283333
    },
    {
      "cityName": "Bimachuk",
      "lat": 10.0166667,
      "lng": 30.1
    },
    {
      "cityName": "Bior Arbit",
      "lat": 7.0116667,
      "lng": 31.4455556
    },
    {
      "cityName": "Biu",
      "lat": 9.65,
      "lng": 30.35
    },
    {
      "cityName": "Bobolein",
      "lat": 6.6666667,
      "lng": 32.9333333
    },
    {
      "cityName": "Boing",
      "lat": 9.9666667,
      "lng": 33.7333333
    },
    {
      "cityName": "Bol",
      "lat": 7.3333333,
      "lng": 30.5166667
    },
    {
      "cityName": "Bol Dis",
      "lat": 9.7166667,
      "lng": 30.2666667
    },
    {
      "cityName": "Bol Thi",
      "lat": 9.7333333,
      "lng": 30.25
    },
    {
      "cityName": "Bongak",
      "lat": 7.45,
      "lng": 33.2333333
    },
    {
      "cityName": "Bonje",
      "lat": 9.8833333,
      "lng": 33.45
    },
    {
      "cityName": "Borajoth",
      "lat": 7.3605556,
      "lng": 30.4002778
    },
    {
      "cityName": "Borawil",
      "lat": 7.85,
      "lng": 33.0166667
    },
    {
      "cityName": "Bor",
      "lat": 7.6666667,
      "lng": 33.6333333
    },
    {
      "cityName": "Boriak",
      "lat": 8.9,
      "lng": 33.5833333
    },
    {
      "cityName": "Boro",
      "lat": 7.7833333,
      "lng": 31.9666667
    },
    {
      "cityName": "Borr",
      "lat": 9.3833333,
      "lng": 31.3333333
    },
    {
      "cityName": "Both",
      "lat": 9.6669444,
      "lng": 31.8233333
    },
    {
      "cityName": "Budwot",
      "lat": 8.2666667,
      "lng": 32.1166667
    },
    {
      "cityName": "Buingfiort",
      "lat": 9.1638889,
      "lng": 31.7027778
    },
    {
      "cityName": "Buingfor",
      "lat": 8.3166667,
      "lng": 31.0166667
    },
    {
      "cityName": "Buk",
      "lat": 8.0333333,
      "lng": 31.4333333
    },
    {
      "cityName": "Bu Kieny",
      "lat": 9.5986111,
      "lng": 31.6255556
    },
    {
      "cityName": "Bulbil",
      "lat": 8.3505556,
      "lng": 30.7266667
    },
    {
      "cityName": "Bul",
      "lat": 8.1333333,
      "lng": 31.4166667
    },
    {
      "cityName": "Bulbuong",
      "lat": 8.6666667,
      "lng": 32.75
    },
    {
      "cityName": "Buldiya",
      "lat": 8.2169444,
      "lng": 30.8327778
    },
    {
      "cityName": "Bulriah",
      "lat": 9.365,
      "lng": 30.8497222
    },
    {
      "cityName": "Bumadol",
      "lat": 9.8,
      "lng": 30.1833333
    },
    {
      "cityName": "Bum",
      "lat": 9.5166667,
      "lng": 31.65
    },
    {
      "cityName": "Bumma",
      "lat": 10.1333333,
      "lng": 33.9
    },
    {
      "cityName": "Bungo",
      "lat": 7.4,
      "lng": 33.9666667
    },
    {
      "cityName": "Buolboin",
      "lat": 8.85,
      "lng": 32.5666667
    },
    {
      "cityName": "Buong",
      "lat": 8.75,
      "lng": 32.7
    },
    {
      "cityName": "Buothgark",
      "lat": 9.45,
      "lng": 30.1833333
    },
    {
      "cityName": "Buragwa",
      "lat": 7.7666667,
      "lng": 33.0333333
    },
    {
      "cityName": "Burbok",
      "lat": 10.0166667,
      "lng": 32.2
    },
    {
      "cityName": "Burbur",
      "lat": 6.6166667,
      "lng": 32.9666667
    },
    {
      "cityName": "Burthoiny",
      "lat": 7.8833333,
      "lng": 30.1666667
    },
    {
      "cityName": "Burugila",
      "lat": 7.7,
      "lng": 33.0666667
    },
    {
      "cityName": "Bwell",
      "lat": 9.1833333,
      "lng": 32.1833333
    },
    {
      "cityName": "Bwing",
      "lat": 9.3041667,
      "lng": 31.6005556
    },
    {
      "cityName": "Bwom",
      "lat": 8.2166667,
      "lng": 30.1666667
    },
    {
      "cityName": "Bwon Ngera",
      "lat": 9.2355556,
      "lng": 30.8122222
    },
    {
      "cityName": "Chargoz",
      "lat": 6.9666667,
      "lng": 33.0166667
    },
    {
      "cityName": "Charir",
      "lat": 8.7166667,
      "lng": 29.8833333
    },
    {
      "cityName": "Chatokbai",
      "lat": 9.0825,
      "lng": 31.5961111
    },
    {
      "cityName": "Chidu",
      "lat": 9.6833333,
      "lng": 33.5333333
    },
    {
      "cityName": "Chindura",
      "lat": 6.9166667,
      "lng": 33.0333333
    },
    {
      "cityName": "Chinemung",
      "lat": 9.1333333,
      "lng": 28.9666667
    },
    {
      "cityName": "Chiulbong",
      "lat": 8.65,
      "lng": 31.4
    },
    {
      "cityName": "Cholei",
      "lat": 10.2166667,
      "lng": 33.4333333
    },
    {
      "cityName": "Chuayluark",
      "lat": 7.6333333,
      "lng": 30.3
    },
    {
      "cityName": "Chuth Akol",
      "lat": 9.15,
      "lng": 30.4666667
    },
    {
      "cityName": "Chwai Chuk",
      "lat": 8.05,
      "lng": 31.4166667
    },
    {
      "cityName": "Chweg",
      "lat": 9.1375,
      "lng": 30.6975
    },
    {
      "cityName": "Cobtoing",
      "lat": 9.15,
      "lng": 32.1666667
    },
    {
      "cityName": "Cwandir",
      "lat": 8.5333333,
      "lng": 30.0166667
    },
    {
      "cityName": "Daga Post",
      "lat": 9.2166667,
      "lng": 33.9666667
    },
    {
      "cityName": "Dailongo",
      "lat": 7.1666667,
      "lng": 33.7833333
    },
    {
      "cityName": "Dalbur",
      "lat": 9.25,
      "lng": 29.6833333
    },
    {
      "cityName": "Damawt",
      "lat": 10.2833333,
      "lng": 32.2333333
    },
    {
      "cityName": "Danga",
      "lat": 10.2666667,
      "lng": 33.5833333
    },
    {
      "cityName": "Dara Rom",
      "lat": 9.3,
      "lng": 33.5
    },
    {
      "cityName": "Darbor",
      "lat": 8.4833333,
      "lng": 30.0666667
    },
    {
      "cityName": "Darwan",
      "lat": 8.7833333,
      "lng": 33.7666667
    },
    {
      "cityName": "Dawir",
      "lat": 9.8666667,
      "lng": 32.7
    },
    {
      "cityName": "Dawmayah",
      "lat": 11.35,
      "lng": 32.7
    },
    {
      "cityName": "Debalo",
      "lat": 9.65,
      "lng": 31.6936111
    },
    {
      "cityName": "Debelo",
      "lat": 9.7855556,
      "lng": 31.9194444
    },
    {
      "cityName": "Dedigo",
      "lat": 9.4063889,
      "lng": 31.5688889
    },
    {
      "cityName": "Deingo",
      "lat": 9.7333333,
      "lng": 33.5666667
    },
    {
      "cityName": "Demtemma",
      "lat": 10.4166667,
      "lng": 32.25
    },
    {
      "cityName": "Dena",
      "lat": 10.1166667,
      "lng": 29.9333333
    },
    {
      "cityName": "Den Akol",
      "lat": 9.9,
      "lng": 30.0333333
    },
    {
      "cityName": "Denchuk",
      "lat": 9.8,
      "lng": 32.2
    },
    {
      "cityName": "Deng",
      "lat": 7.7833333,
      "lng": 31.3333333
    },
    {
      "cityName": "Dengdur",
      "lat": 8.5166667,
      "lng": 32.0333333
    },
    {
      "cityName": "Deng Rial",
      "lat": 8.74,
      "lng": 30.9944444
    },
    {
      "cityName": "Denjok",
      "lat": 7.9333333,
      "lng": 33
    },
    {
      "cityName": "Dentoang",
      "lat": 10.2833333,
      "lng": 32.4166667
    },
    {
      "cityName": "Detang",
      "lat": 9.59,
      "lng": 31.6719444
    },
    {
      "cityName": "Detau",
      "lat": 11.7333333,
      "lng": 32.85
    },
    {
      "cityName": "Diak",
      "lat": 9.1666667,
      "lng": 32.2
    },
    {
      "cityName": "Diam",
      "lat": 9.2,
      "lng": 29.55
    },
    {
      "cityName": "Didi",
      "lat": 6.3,
      "lng": 34.4833333
    },
    {
      "cityName": "Dido",
      "lat": 10.0666667,
      "lng": 33.8
    },
    {
      "cityName": "Diel",
      "lat": 9.3758333,
      "lng": 31.3097222
    },
    {
      "cityName": "Diera Buk",
      "lat": 8.9666667,
      "lng": 31.25
    },
    {
      "cityName": "Dier Abwogh",
      "lat": 8.9961111,
      "lng": 31.2830556
    },
    {
      "cityName": "Dier",
      "lat": 8.9833333,
      "lng": 31.3166667
    },
    {
      "cityName": "Dik",
      "lat": 8.0333333,
      "lng": 32.2833333
    },
    {
      "cityName": "Dima",
      "lat": 9.9333333,
      "lng": 33.9333333
    },
    {
      "cityName": "Ding Ding",
      "lat": 8.9,
      "lng": 32.65
    },
    {
      "cityName": "Dingkar",
      "lat": 8.7833333,
      "lng": 31.2166667
    },
    {
      "cityName": "Dingu",
      "lat": 9.4286111,
      "lng": 31.1486111
    },
    {
      "cityName": "Dirdimma",
      "lat": 10.2666667,
      "lng": 33.6166667
    },
    {
      "cityName": "Ditchin",
      "lat": 9.2333333,
      "lng": 32.7333333
    },
    {
      "cityName": "Diwgu",
      "lat": 9.4047222,
      "lng": 31.1686111
    },
    {
      "cityName": "Diwo",
      "lat": 9.7472222,
      "lng": 31.9686111
    },
    {
      "cityName": "Dogwil",
      "lat": 10.0166667,
      "lng": 30.05
    },
    {
      "cityName": "Dok Alal",
      "lat": 9.4586111,
      "lng": 31.1111111
    },
    {
      "cityName": "Dok",
      "lat": 10.5666667,
      "lng": 32.2
    },
    {
      "cityName": "Dolbeck",
      "lat": 10.5666667,
      "lng": 32.4
    },
    {
      "cityName": "Doleb",
      "lat": 9.3597222,
      "lng": 31.6008333
    },
    {
      "cityName": "Doleiba",
      "lat": 9.8833333,
      "lng": 29.9833333
    },
    {
      "cityName": "Doleib",
      "lat": 8.35,
      "lng": 30.9
    },
    {
      "cityName": "Domaia ez Zeif",
      "lat": 10.5666667,
      "lng": 31.9666667
    },
    {
      "cityName": "Dongashup",
      "lat": 8.6666667,
      "lng": 31.1
    },
    {
      "cityName": "Dong",
      "lat": 10.3666667,
      "lng": 32.6333333
    },
    {
      "cityName": "Dor Akoich",
      "lat": 8.85,
      "lng": 29.8833333
    },
    {
      "cityName": "Dorcheng Boh",
      "lat": 9.1166667,
      "lng": 30.7666667
    },
    {
      "cityName": "Dorchengdwot",
      "lat": 9.1830556,
      "lng": 30.6525
    },
    {
      "cityName": "Dor",
      "lat": 9.3966667,
      "lng": 31.235
    },
    {
      "cityName": "Doregh",
      "lat": 9.0441667,
      "lng": 30.7097222
    },
    {
      "cityName": "Dorein",
      "lat": 6.6166667,
      "lng": 33.2833333
    },
    {
      "cityName": "Dornor",
      "lat": 8.8966667,
      "lng": 30.7175
    },
    {
      "cityName": "Dor Nying Naitok",
      "lat": 8.65,
      "lng": 29.9333333
    },
    {
      "cityName": "Doro",
      "lat": 9.9666667,
      "lng": 33.75
    },
    {
      "cityName": "Dor Thir",
      "lat": 8.2333333,
      "lng": 29.9833333
    },
    {
      "cityName": "Dortwoi",
      "lat": 9.1833333,
      "lng": 30.6686111
    },
    {
      "cityName": "Doru",
      "lat": 6.6166667,
      "lng": 31.55
    },
    {
      "cityName": "Dorweng",
      "lat": 8.05,
      "lng": 31.4333333
    },
    {
      "cityName": "Dot",
      "lat": 9.4588889,
      "lng": 31.6086111
    },
    {
      "cityName": "Dud",
      "lat": 9.2333333,
      "lng": 32.0833333
    },
    {
      "cityName": "Dugang",
      "lat": 9.4166667,
      "lng": 30.5
    },
    {
      "cityName": "Duk Fadiat",
      "lat": 7.75,
      "lng": 31.4166667
    },
    {
      "cityName": "Duk Faiwil",
      "lat": 7.5,
      "lng": 31.4833333
    },
    {
      "cityName": "Duk Golwing",
      "lat": 7.6833333,
      "lng": 31.45
    },
    {
      "cityName": "Duk Kwenyakwol",
      "lat": 7.5666667,
      "lng": 31.4666667
    },
    {
      "cityName": "Dulareng",
      "lat": 9.1863889,
      "lng": 31.6919444
    },
    {
      "cityName": "Dultang",
      "lat": 9.05,
      "lng": 33.4166667
    },
    {
      "cityName": "Duma",
      "lat": 8.8666667,
      "lng": 32.5666667
    },
    {
      "cityName": "Dungloch",
      "lat": 9.0630556,
      "lng": 30.7119444
    },
    {
      "cityName": "Dunyal",
      "lat": 8.6666667,
      "lng": 33.1333333
    },
    {
      "cityName": "Durbuoni",
      "lat": 8.1,
      "lng": 30.0333333
    },
    {
      "cityName": "Dur",
      "lat": 8.5475,
      "lng": 30.9152778
    },
    {
      "cityName": "Dute",
      "lat": 9.4833333,
      "lng": 33.8833333
    },
    {
      "cityName": "Dwal Dong",
      "lat": 8.05,
      "lng": 32.2
    },
    {
      "cityName": "Dweding",
      "lat": 7.7166667,
      "lng": 32.0333333
    },
    {
      "cityName": "Dwel Keil",
      "lat": 8.8333333,
      "lng": 29.9166667
    },
    {
      "cityName": "El Galhak",
      "lat": 11.05,
      "lng": 32.7
    },
    {
      "cityName": "Erdeib al Maryam",
      "lat": 10.7833333,
      "lng": 32.3666667
    },
    {
      "cityName": "Faabo",
      "lat": 10.0166667,
      "lng": 31.9833333
    },
    {
      "cityName": "Faberkoi",
      "lat": 7.7333333,
      "lng": 31.4166667
    },
    {
      "cityName": "Fabiu",
      "lat": 10,
      "lng": 32.1833333
    },
    {
      "cityName": "Fachod",
      "lat": 9.1569444,
      "lng": 30.6791667
    },
    {
      "cityName": "Fachop",
      "lat": 9.1197222,
      "lng": 30.5588889
    },
    {
      "cityName": "Fachul",
      "lat": 9.3527778,
      "lng": 30.6819444
    },
    {
      "cityName": "Faddoi",
      "lat": 8.1166667,
      "lng": 32.2833333
    },
    {
      "cityName": "Fadebbi",
      "lat": 9.2166667,
      "lng": 33.9166667
    },
    {
      "cityName": "Fadiak",
      "lat": 7.7833333,
      "lng": 31.7166667
    },
    {
      "cityName": "Fadiat",
      "lat": 10.45,
      "lng": 32.4333333
    },
    {
      "cityName": "Fadit",
      "lat": 9.9666667,
      "lng": 32.2166667
    },
    {
      "cityName": "Fadok",
      "lat": 9.7622222,
      "lng": 31.9811111
    },
    {
      "cityName": "Fadulay",
      "lat": 8.1302778,
      "lng": 30.8269444
    },
    {
      "cityName": "Faduth",
      "lat": 9.655,
      "lng": 31.7975
    },
    {
      "cityName": "Fafoijo",
      "lat": 9.5166667,
      "lng": 30.9166667
    },
    {
      "cityName": "Fagau",
      "lat": 8.1333333,
      "lng": 31.5333333
    },
    {
      "cityName": "Fagh",
      "lat": 9.2241667,
      "lng": 30.6647222
    },
    {
      "cityName": "Fagil",
      "lat": 8.2152778,
      "lng": 30.7038889
    },
    {
      "cityName": "Fagui",
      "lat": 8.1,
      "lng": 31.4666667
    },
    {
      "cityName": "Fagwat",
      "lat": 10.5,
      "lng": 32.5166667
    },
    {
      "cityName": "Fagweit",
      "lat": 7.5333333,
      "lng": 31.55
    },
    {
      "cityName": "Fagwir",
      "lat": 9.0913889,
      "lng": 30.745
    },
    {
      "cityName": "Fajak",
      "lat": 7.2894444,
      "lng": 30.4466667
    },
    {
      "cityName": "Fajong",
      "lat": 8.125,
      "lng": 30.8222222
    },
    {
      "cityName": "Fajur",
      "lat": 9.0641667,
      "lng": 31.7369444
    },
    {
      "cityName": "Fajwong",
      "lat": 9.2547222,
      "lng": 30.6888889
    },
    {
      "cityName": "Fakang",
      "lat": 9.3652778,
      "lng": 31.4561111
    },
    {
      "cityName": "Fakanno",
      "lat": 9.3788889,
      "lng": 31.2669444
    },
    {
      "cityName": "Fakoi",
      "lat": 7.0333333,
      "lng": 31.4666667
    },
    {
      "cityName": "Fakur",
      "lat": 9.3591667,
      "lng": 30.6416667
    },
    {
      "cityName": "Fakwak",
      "lat": 8.3672222,
      "lng": 30.7241667
    },
    {
      "cityName": "Fakwam",
      "lat": 9.3452778,
      "lng": 30.6922222
    },
    {
      "cityName": "Fakwar",
      "lat": 7.1166667,
      "lng": 31.3666667
    },
    {
      "cityName": "Falagh",
      "lat": 8.6166667,
      "lng": 31.05
    },
    {
      "cityName": "Falaka",
      "lat": 10.1166667,
      "lng": 33.2
    },
    {
      "cityName": "Falang",
      "lat": 10.0833333,
      "lng": 32.0666667
    },
    {
      "cityName": "Falgwop",
      "lat": 8.8833333,
      "lng": 33.6166667
    },
    {
      "cityName": "Falo",
      "lat": 9.3669444,
      "lng": 31.5980556
    },
    {
      "cityName": "Falwal",
      "lat": 7.2166667,
      "lng": 31.3333333
    },
    {
      "cityName": "Famat",
      "lat": 7.7833333,
      "lng": 31.8833333
    },
    {
      "cityName": "Fami",
      "lat": 8.6,
      "lng": 33.9166667
    },
    {
      "cityName": "Famwangkwai",
      "lat": 7.7833333,
      "lng": 31.4333333
    },
    {
      "cityName": "Fanam Dit",
      "lat": 10.05,
      "lng": 32.2666667
    },
    {
      "cityName": "Fanam Tin",
      "lat": 10.0333333,
      "lng": 32.2666667
    },
    {
      "cityName": "Fanathiang",
      "lat": 9.0102778,
      "lng": 31.8688889
    },
    {
      "cityName": "Fanei",
      "lat": 9.3319444,
      "lng": 31.8088889
    },
    {
      "cityName": "Fangak",
      "lat": 9.0694444,
      "lng": 30.8841667
    },
    {
      "cityName": "Fanial",
      "lat": 7.3916667,
      "lng": 30.4186111
    },
    {
      "cityName": "Faniang Did",
      "lat": 8.5833333,
      "lng": 32
    },
    {
      "cityName": "Fanidway Paych",
      "lat": 9.4086111,
      "lng": 31.5494444
    },
    {
      "cityName": "Faniel",
      "lat": 7.5166667,
      "lng": 31.3666667
    },
    {
      "cityName": "Fankir",
      "lat": 8.8605556,
      "lng": 30.9927778
    },
    {
      "cityName": "Fankur",
      "lat": 8.1333333,
      "lng": 31.3666667
    },
    {
      "cityName": "Fanna Maboich",
      "lat": 11.8666667,
      "lng": 32.8
    },
    {
      "cityName": "Fanok",
      "lat": 8.2269444,
      "lng": 30.9586111
    },
    {
      "cityName": "Fantam",
      "lat": 9.2666667,
      "lng": 32.1333333
    },
    {
      "cityName": "Fanyang",
      "lat": 7.7166667,
      "lng": 31.75
    },
    {
      "cityName": "Fanyekang",
      "lat": 10.1833333,
      "lng": 32.2833333
    },
    {
      "cityName": "Fanyok",
      "lat": 7.85,
      "lng": 31.8166667
    },
    {
      "cityName": "Fariak",
      "lat": 10.5333333,
      "lng": 32.55
    },
    {
      "cityName": "Farial",
      "lat": 7.7333333,
      "lng": 31.9333333
    },
    {
      "cityName": "Fasay",
      "lat": 8.9430556,
      "lng": 30.7069444
    },
    {
      "cityName": "Fashada",
      "lat": 9.8333333,
      "lng": 32.0833333
    },
    {
      "cityName": "Fashak",
      "lat": 9.75,
      "lng": 30.6
    },
    {
      "cityName": "Fashoda",
      "lat": 9.8833333,
      "lng": 32.1166667
    },
    {
      "cityName": "Fatach",
      "lat": 9.2561111,
      "lng": 30.5919444
    },
    {
      "cityName": "Fataing",
      "lat": 8.1552778,
      "lng": 30.8316667
    },
    {
      "cityName": "Fathai",
      "lat": 8.0833333,
      "lng": 31.8
    },
    {
      "cityName": "Fathau",
      "lat": 9.6602778,
      "lng": 31.8088889
    },
    {
      "cityName": "Fathworo",
      "lat": 9.6094444,
      "lng": 31.6933333
    },
    {
      "cityName": "Fatitet",
      "lat": 7.9,
      "lng": 31.95
    },
    {
      "cityName": "Fatoich",
      "lat": 6.5166667,
      "lng": 31.55
    },
    {
      "cityName": "Fatugo",
      "lat": 9.4186111,
      "lng": 31.56
    },
    {
      "cityName": "Fatugu",
      "lat": 9.3891667,
      "lng": 31.2494444
    },
    {
      "cityName": "Fatwerk",
      "lat": 8.45,
      "lng": 32.1
    },
    {
      "cityName": "Fatworo",
      "lat": 9.3486111,
      "lng": 31.6063889
    },
    {
      "cityName": "Fatwuk",
      "lat": 9.3619444,
      "lng": 30.5333333
    },
    {
      "cityName": "Fauel",
      "lat": 9.2,
      "lng": 29.5166667
    },
    {
      "cityName": "Faurel",
      "lat": 8.6166667,
      "lng": 32.7
    },
    {
      "cityName": "Fayat",
      "lat": 9.015,
      "lng": 30.7008333
    },
    {
      "cityName": "Feika",
      "lat": 10.0333333,
      "lng": 33.6666667
    },
    {
      "cityName": "Fekang",
      "lat": 9.3238889,
      "lng": 31.4552778
    },
    {
      "cityName": "Ferinjuk",
      "lat": 9.85,
      "lng": 30.2
    },
    {
      "cityName": "Fertait",
      "lat": 6.6833333,
      "lng": 33.1833333
    },
    {
      "cityName": "Finfil",
      "lat": 8.6333333,
      "lng": 33.7833333
    },
    {
      "cityName": "Fingagul",
      "lat": 11.0333333,
      "lng": 32.7166667
    },
    {
      "cityName": "Fingting",
      "lat": 6.9,
      "lng": 34.4833333
    },
    {
      "cityName": "Foan",
      "lat": 9.05,
      "lng": 30.6666667
    },
    {
      "cityName": "Foibe",
      "lat": 10.4833333,
      "lng": 32.35
    },
    {
      "cityName": "Fort Bruce",
      "lat": 6.8,
      "lng": 33.1333333
    },
    {
      "cityName": "Ful Kawhni",
      "lat": 9.0666667,
      "lng": 28.95
    },
    {
      "cityName": "Fulkit",
      "lat": 8.6122222,
      "lng": 30.9877778
    },
    {
      "cityName": "Ful Lual",
      "lat": 9.2572222,
      "lng": 30.8833333
    },
    {
      "cityName": "Ful Luini",
      "lat": 9.3958333,
      "lng": 30.7852778
    },
    {
      "cityName": "Ful Nyak",
      "lat": 9.3591667,
      "lng": 30.8930556
    },
    {
      "cityName": "Fulwal",
      "lat": 8.6333333,
      "lng": 30.7333333
    },
    {
      "cityName": "Fur",
      "lat": 11.9666667,
      "lng": 32.7666667
    },
    {
      "cityName": "Fuyach",
      "lat": 9.0736111,
      "lng": 30.7486111
    },
    {
      "cityName": "Fwor",
      "lat": 9.0805556,
      "lng": 30.7705556
    },
    {
      "cityName": "Gabek",
      "lat": 10.55,
      "lng": 32.4166667
    },
    {
      "cityName": "Gadul",
      "lat": 8.8072222,
      "lng": 30.6480556
    },
    {
      "cityName": "Gaikwach",
      "lat": 11.6666667,
      "lng": 32.8166667
    },
    {
      "cityName": "Gainglil",
      "lat": 7.4188889,
      "lng": 30.5141667
    },
    {
      "cityName": "Gairang",
      "lat": 8.9666667,
      "lng": 32.9833333
    },
    {
      "cityName": "Gair",
      "lat": 8.6,
      "lng": 30.0166667
    },
    {
      "cityName": "Gambi Atrash",
      "lat": 10.05,
      "lng": 33.7833333
    },
    {
      "cityName": "Gamtong",
      "lat": 9.1663889,
      "lng": 30.8316667
    },
    {
      "cityName": "Gap",
      "lat": 8.6166667,
      "lng": 30.0166667
    },
    {
      "cityName": "Garayan",
      "lat": 8.4666667,
      "lng": 30.0333333
    },
    {
      "cityName": "Gar",
      "lat": 9.3616667,
      "lng": 30.6988889
    },
    {
      "cityName": "Garkong",
      "lat": 7.9,
      "lng": 33
    },
    {
      "cityName": "Gassar",
      "lat": 9.05,
      "lng": 34.1
    },
    {
      "cityName": "Geibek",
      "lat": 10.9166667,
      "lng": 32.7666667
    },
    {
      "cityName": "Geil",
      "lat": 11.35,
      "lng": 32.7166667
    },
    {
      "cityName": "Gel Achel",
      "lat": 9.0833333,
      "lng": 32.4
    },
    {
      "cityName": "Ghaat",
      "lat": 9.0833333,
      "lng": 33.5333333
    },
    {
      "cityName": "Ghabat al `Arab",
      "lat": 9.0333333,
      "lng": 29.4833333
    },
    {
      "cityName": "Gholyil Rar",
      "lat": 9.1833333,
      "lng": 29.9166667
    },
    {
      "cityName": "Gichalier",
      "lat": 6.7,
      "lng": 33.05
    },
    {
      "cityName": "Giggigamba",
      "lat": 6.5666667,
      "lng": 32.9333333
    },
    {
      "cityName": "Gigiman",
      "lat": 6.2666667,
      "lng": 34.6166667
    },
    {
      "cityName": "Gikakur",
      "lat": 10.6,
      "lng": 32.55
    },
    {
      "cityName": "Girbanat",
      "lat": 12,
      "lng": 33.1
    },
    {
      "cityName": "Gneum",
      "lat": 7.35,
      "lng": 34.0166667
    },
    {
      "cityName": "Gnop",
      "lat": 7.7666667,
      "lng": 30.2666667
    },
    {
      "cityName": "Gnopp",
      "lat": 8.8,
      "lng": 29.8833333
    },
    {
      "cityName": "Gobjak",
      "lat": 9.2766667,
      "lng": 31.7261111
    },
    {
      "cityName": "Gob Kwero",
      "lat": 9.6,
      "lng": 32.1666667
    },
    {
      "cityName": "Gobtok",
      "lat": 10.8333333,
      "lng": 32.7666667
    },
    {
      "cityName": "Goelika",
      "lat": 9.0666667,
      "lng": 28.8666667
    },
    {
      "cityName": "Gogvir",
      "lat": 9.8166667,
      "lng": 32.7166667
    },
    {
      "cityName": "Goi",
      "lat": 9.7,
      "lng": 32.2666667
    },
    {
      "cityName": "Gong Kok",
      "lat": 10.05,
      "lng": 30.0333333
    },
    {
      "cityName": "Gon",
      "lat": 8.9666667,
      "lng": 30.3666667
    },
    {
      "cityName": "Gorbek",
      "lat": 8.2,
      "lng": 30.2
    },
    {
      "cityName": "Gudoi",
      "lat": 8.5666667,
      "lng": 33.85
    },
    {
      "cityName": "Gultwong",
      "lat": 8.3166667,
      "lng": 30.1166667
    },
    {
      "cityName": "Gumbiel",
      "lat": 8.5691667,
      "lng": 30.6719444
    },
    {
      "cityName": "Gumma Khadiga",
      "lat": 9.95,
      "lng": 33.9
    },
    {
      "cityName": "Gung",
      "lat": 8.2166667,
      "lng": 31.3833333
    },
    {
      "cityName": "Guol",
      "lat": 8.1333333,
      "lng": 30.05
    },
    {
      "cityName": "Gurial",
      "lat": 9.0666667,
      "lng": 29.15
    },
    {
      "cityName": "Gutur",
      "lat": 9.2972222,
      "lng": 31.7766667
    },
    {
      "cityName": "Gwaa",
      "lat": 8.5166667,
      "lng": 34.0833333
    },
    {
      "cityName": "Gwaar",
      "lat": 8.4833333,
      "lng": 30.05
    },
    {
      "cityName": "Gwalla",
      "lat": 6.1113889,
      "lng": 31.7008333
    },
    {
      "cityName": "Gwaname",
      "lat": 10.05,
      "lng": 29.9666667
    },
    {
      "cityName": "Gwatan",
      "lat": 9.9666667,
      "lng": 32.6
    },
    {
      "cityName": "Gwem",
      "lat": 10.0833333,
      "lng": 29.9333333
    },
    {
      "cityName": "Gwer",
      "lat": 8.5166667,
      "lng": 30
    },
    {
      "cityName": "Gwigwi",
      "lat": 8.7758333,
      "lng": 30.6611111
    },
    {
      "cityName": "Gwiljak",
      "lat": 9.05,
      "lng": 32.8333333
    },
    {
      "cityName": "Gwit",
      "lat": 9.1166667,
      "lng": 29.9166667
    },
    {
      "cityName": "Gwol",
      "lat": 8.75,
      "lng": 33.6166667
    },
    {
      "cityName": "Gwong Tur",
      "lat": 8.9333333,
      "lng": 31.5
    },
    {
      "cityName": "Gwor",
      "lat": 8.1669444,
      "lng": 30.5722222
    },
    {
      "cityName": "Hajlij",
      "lat": 10.95,
      "lng": 32.5833333
    },
    {
      "cityName": "Hawaga",
      "lat": 10.5333333,
      "lng": 33.2666667
    },
    {
      "cityName": "Jaai",
      "lat": 8.9166667,
      "lng": 33.4833333
    },
    {
      "cityName": "Jak",
      "lat": 9.1166667,
      "lng": 33.3833333
    },
    {
      "cityName": "Jali",
      "lat": 9.8833333,
      "lng": 30.15
    },
    {
      "cityName": "Jat",
      "lat": 9.1291667,
      "lng": 30.6941667
    },
    {
      "cityName": "Jekau",
      "lat": 8.3833333,
      "lng": 33.7833333
    },
    {
      "cityName": "Joe",
      "lat": 8.3166667,
      "lng": 29.9666667
    },
    {
      "cityName": "Jogiel",
      "lat": 9.3,
      "lng": 32.7166667
    },
    {
      "cityName": "Jokabar",
      "lat": 9.75,
      "lng": 30.2333333
    },
    {
      "cityName": "Jokau",
      "lat": 8.4,
      "lng": 33.8166667
    },
    {
      "cityName": "Joknyang",
      "lat": 9.0666667,
      "lng": 30.0666667
    },
    {
      "cityName": "Jokwot",
      "lat": 9.3138889,
      "lng": 30.6722222
    },
    {
      "cityName": "Jonglow",
      "lat": 11.8,
      "lng": 32.8166667
    },
    {
      "cityName": "Joteng",
      "lat": 9.85,
      "lng": 32.2333333
    },
    {
      "cityName": "Jotoich",
      "lat": 9.9,
      "lng": 32.2333333
    },
    {
      "cityName": "Juac Bor",
      "lat": 9.3833333,
      "lng": 30.7
    },
    {
      "cityName": "Juai",
      "lat": 8.0333333,
      "lng": 31.1666667
    },
    {
      "cityName": "Juet",
      "lat": 6.7375,
      "lng": 31.4211111
    },
    {
      "cityName": "Jummayzah",
      "lat": 8.19,
      "lng": 30.6683333
    },
    {
      "cityName": "Jungshol",
      "lat": 8.1111111,
      "lng": 30.8319444
    },
    {
      "cityName": "Junguls",
      "lat": 10.1333333,
      "lng": 33.35
    },
    {
      "cityName": "Jungyang",
      "lat": 9.1602778,
      "lng": 31.5469444
    },
    {
      "cityName": "Juong",
      "lat": 8.8666667,
      "lng": 32.9666667
    },
    {
      "cityName": "Juot",
      "lat": 9.1666667,
      "lng": 33.5666667
    },
    {
      "cityName": "Jwol",
      "lat": 9.2405556,
      "lng": 30.6669444
    },
    {
      "cityName": "Jwong",
      "lat": 8.15,
      "lng": 30.6833333
    },
    {
      "cityName": "Kaddah",
      "lat": 10.55,
      "lng": 33.3166667
    },
    {
      "cityName": "Kaiedin",
      "lat": 9.75,
      "lng": 32.1833333
    },
    {
      "cityName": "Kaikang",
      "lat": 9.3,
      "lng": 29.15
    },
    {
      "cityName": "Kainjbek",
      "lat": 9.0333333,
      "lng": 32.0166667
    },
    {
      "cityName": "Kaka",
      "lat": 10.6,
      "lng": 32.1833333
    },
    {
      "cityName": "Kalana",
      "lat": 6.6333333,
      "lng": 32.8833333
    },
    {
      "cityName": "Kaljak",
      "lat": 9.035,
      "lng": 31.2608333
    },
    {
      "cityName": "Kaluang",
      "lat": 10.0833333,
      "lng": 33.2666667
    },
    {
      "cityName": "Kamel",
      "lat": 10.05,
      "lng": 30.0166667
    },
    {
      "cityName": "Kandag",
      "lat": 8.5666667,
      "lng": 31.1333333
    },
    {
      "cityName": "Kanje",
      "lat": 10.05,
      "lng": 33.7
    },
    {
      "cityName": "Kan",
      "lat": 9.0136111,
      "lng": 31.7641667
    },
    {
      "cityName": "Kannah",
      "lat": 9.95,
      "lng": 33.85
    },
    {
      "cityName": "Kanshur",
      "lat": 10.05,
      "lng": 33.3166667
    },
    {
      "cityName": "Kardi",
      "lat": 7.9333333,
      "lng": 30.1166667
    },
    {
      "cityName": "Karshawal",
      "lat": 11.9333333,
      "lng": 32.7833333
    },
    {
      "cityName": "Katjur",
      "lat": 9.2108333,
      "lng": 30.6188889
    },
    {
      "cityName": "Katuruchi",
      "lat": 6.7833333,
      "lng": 33.0666667
    },
    {
      "cityName": "Kau",
      "lat": 9.2608333,
      "lng": 30.6461111
    },
    {
      "cityName": "Kayana",
      "lat": 7.6833333,
      "lng": 33.0333333
    },
    {
      "cityName": "Kaych",
      "lat": 7.4525,
      "lng": 30.4808333
    },
    {
      "cityName": "Kayoh",
      "lat": 9.0816667,
      "lng": 30.7036111
    },
    {
      "cityName": "Kayteng",
      "lat": 8.5572222,
      "lng": 30.6697222
    },
    {
      "cityName": "Kegh",
      "lat": 9.0166667,
      "lng": 32.85
    },
    {
      "cityName": "Keij",
      "lat": 8.2166667,
      "lng": 32.1333333
    },
    {
      "cityName": "Keiwa",
      "lat": 9.8166667,
      "lng": 33.6
    },
    {
      "cityName": "Kera",
      "lat": 8.8166667,
      "lng": 33.0333333
    },
    {
      "cityName": "Kerial",
      "lat": 9.2144444,
      "lng": 30.7111111
    },
    {
      "cityName": "Kerthiang",
      "lat": 8.1166667,
      "lng": 30.0333333
    },
    {
      "cityName": "Khawr Tunbak",
      "lat": 10.15,
      "lng": 33.8833333
    },
    {
      "cityName": "Khul",
      "lat": 8.5,
      "lng": 32.7166667
    },
    {
      "cityName": "Kigille",
      "lat": 8.6666667,
      "lng": 34.0333333
    },
    {
      "cityName": "Kir",
      "lat": 9.0666667,
      "lng": 32.2
    },
    {
      "cityName": "Koarel",
      "lat": 8.9833333,
      "lng": 31.7666667
    },
    {
      "cityName": "Koich",
      "lat": 7.6333333,
      "lng": 31.4333333
    },
    {
      "cityName": "Koker",
      "lat": 7.4458333,
      "lng": 30.4333333
    },
    {
      "cityName": "Kokfiat",
      "lat": 9.3261111,
      "lng": 31.8877778
    },
    {
      "cityName": "Kokpuot",
      "lat": 8.6,
      "lng": 33.6833333
    },
    {
      "cityName": "Kolatong",
      "lat": 8.9,
      "lng": 31.2333333
    },
    {
      "cityName": "Koljak",
      "lat": 8.8147222,
      "lng": 30.6977778
    },
    {
      "cityName": "Kolunyeir",
      "lat": 9.1222222,
      "lng": 31.8233333
    },
    {
      "cityName": "Kolweng",
      "lat": 9.8166667,
      "lng": 32.2166667
    },
    {
      "cityName": "Kongettit",
      "lat": 7.4333333,
      "lng": 32.7833333
    },
    {
      "cityName": "Kong",
      "lat": 9.85,
      "lng": 30.05
    },
    {
      "cityName": "Kongor",
      "lat": 7.1666667,
      "lng": 31.35
    },
    {
      "cityName": "Konna",
      "lat": 9.2991667,
      "lng": 31.4041667
    },
    {
      "cityName": "Konor",
      "lat": 9.2666667,
      "lng": 29.55
    },
    {
      "cityName": "Konyial",
      "lat": 8.7872222,
      "lng": 30.6927778
    },
    {
      "cityName": "Kopyop",
      "lat": 10.7833333,
      "lng": 32.5833333
    },
    {
      "cityName": "Koratong",
      "lat": 8.05,
      "lng": 33.05
    },
    {
      "cityName": "Kormayom",
      "lat": 9.0333333,
      "lng": 32.4166667
    },
    {
      "cityName": "Kota",
      "lat": 9.4155556,
      "lng": 30.965
    },
    {
      "cityName": "Kotek",
      "lat": 7.2136111,
      "lng": 30.6466667
    },
    {
      "cityName": "Kotker",
      "lat": 8.2833333,
      "lng": 33.1666667
    },
    {
      "cityName": "Kot",
      "lat": 8.1666667,
      "lng": 30.1
    },
    {
      "cityName": "Kuac",
      "lat": 6.85,
      "lng": 34.45
    },
    {
      "cityName": "Kuan",
      "lat": 8.83,
      "lng": 30.6883333
    },
    {
      "cityName": "Kuaralak",
      "lat": 7.2666667,
      "lng": 34.0166667
    },
    {
      "cityName": "Kub",
      "lat": 9.0016667,
      "lng": 31.9141667
    },
    {
      "cityName": "Kuihai",
      "lat": 7.1686111,
      "lng": 30.3788889
    },
    {
      "cityName": "Kuir Kwol",
      "lat": 9.3202778,
      "lng": 30.8916667
    },
    {
      "cityName": "Kukukilu",
      "lat": 9.3,
      "lng": 33.75
    },
    {
      "cityName": "Kull",
      "lat": 8.3833333,
      "lng": 30.6333333
    },
    {
      "cityName": "Kulong",
      "lat": 7.2911111,
      "lng": 30.4888889
    },
    {
      "cityName": "Kumwon",
      "lat": 10.25,
      "lng": 32.2666667
    },
    {
      "cityName": "Kunjila",
      "lat": 10.1333333,
      "lng": 33.2666667
    },
    {
      "cityName": "Kuo",
      "lat": 9.1894444,
      "lng": 30.9358333
    },
    {
      "cityName": "Kur",
      "lat": 8.3166667,
      "lng": 32.9166667
    },
    {
      "cityName": "Kusdonga",
      "lat": 9.2833333,
      "lng": 33.7333333
    },
    {
      "cityName": "Kusgila",
      "lat": 9.2,
      "lng": 33.9833333
    },
    {
      "cityName": "Kut",
      "lat": 8.1833333,
      "lng": 30.15
    },
    {
      "cityName": "Kuyi",
      "lat": 6.8,
      "lng": 33.1666667
    },
    {
      "cityName": "Kwa al Mango",
      "lat": 10.7166667,
      "lng": 32.3333333
    },
    {
      "cityName": "Kwach",
      "lat": 8.5,
      "lng": 30.0333333
    },
    {
      "cityName": "Kwaich",
      "lat": 8.9833333,
      "lng": 29.9
    },
    {
      "cityName": "Kwainchekthuan",
      "lat": 8.95,
      "lng": 32.5833333
    },
    {
      "cityName": "Kwain Gun Mut",
      "lat": 8.3833333,
      "lng": 32.8333333
    },
    {
      "cityName": "Kwal Tiu",
      "lat": 6.1775,
      "lng": 31.8127778
    },
    {
      "cityName": "Kwan",
      "lat": 9.3102778,
      "lng": 31.5913889
    },
    {
      "cityName": "Kwanulualthuan",
      "lat": 8.6333333,
      "lng": 33.05
    },
    {
      "cityName": "Kwat",
      "lat": 8.65,
      "lng": 33.1166667
    },
    {
      "cityName": "Kwa Tod",
      "lat": 8.1866667,
      "lng": 30.8655556
    },
    {
      "cityName": "Kwei",
      "lat": 8.55,
      "lng": 31.1166667
    },
    {
      "cityName": "Kwe",
      "lat": 7.7666667,
      "lng": 31.3166667
    },
    {
      "cityName": "Kwemdthol",
      "lat": 8.5,
      "lng": 32.0166667
    },
    {
      "cityName": "Kwenagwetta",
      "lat": 9.2833333,
      "lng": 33.7666667
    },
    {
      "cityName": "Kwendil",
      "lat": 9.03,
      "lng": 30.7372222
    },
    {
      "cityName": "Kwenek",
      "lat": 9.14,
      "lng": 31.8458333
    },
    {
      "cityName": "Kwevnyang",
      "lat": 8.6,
      "lng": 29.9833333
    },
    {
      "cityName": "Kwi Kwi",
      "lat": 9.2833333,
      "lng": 33.75
    },
    {
      "cityName": "Kwili",
      "lat": 10.1333333,
      "lng": 32.6166667
    },
    {
      "cityName": "Kwirthar",
      "lat": 9.4108333,
      "lng": 30.8127778
    },
    {
      "cityName": "Kwogo",
      "lat": 9.53,
      "lng": 31.6097222
    },
    {
      "cityName": "Kwoinlo",
      "lat": 9.1666667,
      "lng": 30.7688889
    },
    {
      "cityName": "Kwoldau",
      "lat": 8.7333333,
      "lng": 33.0666667
    },
    {
      "cityName": "Kwombor",
      "lat": 8.8833333,
      "lng": 33.7333333
    },
    {
      "cityName": "Kwom",
      "lat": 9.7908333,
      "lng": 31.9447222
    },
    {
      "cityName": "Kwong",
      "lat": 9.2997222,
      "lng": 30.7116667
    },
    {
      "cityName": "Lachkwat",
      "lat": 8.31,
      "lng": 30.6480556
    },
    {
      "cityName": "Lachtanjak",
      "lat": 9.3991667,
      "lng": 30.9538889
    },
    {
      "cityName": "Laimyok",
      "lat": 8.3666667,
      "lng": 33
    },
    {
      "cityName": "Lajak",
      "lat": 9.1,
      "lng": 32.2
    },
    {
      "cityName": "Lakatang",
      "lat": 6.9833333,
      "lng": 33.0166667
    },
    {
      "cityName": "Lamchuk",
      "lat": 9.25,
      "lng": 33.8
    },
    {
      "cityName": "Langkei",
      "lat": 8.7166667,
      "lng": 33.7333333
    },
    {
      "cityName": "Lang Nyok",
      "lat": 9.1166667,
      "lng": 31.7
    },
    {
      "cityName": "Lankein",
      "lat": 8.4833333,
      "lng": 32.0333333
    },
    {
      "cityName": "Laulau",
      "lat": 8.8952778,
      "lng": 30.6972222
    },
    {
      "cityName": "Lay Kaych",
      "lat": 8.3433333,
      "lng": 30.6394444
    },
    {
      "cityName": "Lebang",
      "lat": 9.9,
      "lng": 30.0666667
    },
    {
      "cityName": "Leho",
      "lat": 7.1166667,
      "lng": 33.8666667
    },
    {
      "cityName": "Leich",
      "lat": 9.2,
      "lng": 29.65
    },
    {
      "cityName": "Lelo",
      "lat": 9.5486111,
      "lng": 31.6177778
    },
    {
      "cityName": "Lengchok",
      "lat": 9.6333333,
      "lng": 30.3833333
    },
    {
      "cityName": "Ler",
      "lat": 8.3,
      "lng": 30.1333333
    },
    {
      "cityName": "Lerping",
      "lat": 9.2438889,
      "lng": 30.6966667
    },
    {
      "cityName": "Letkabon",
      "lat": 8.8727778,
      "lng": 30.7052778
    },
    {
      "cityName": "Liang",
      "lat": 9.8666667,
      "lng": 33.65
    },
    {
      "cityName": "Lichinairo",
      "lat": 6.7166667,
      "lng": 33.1166667
    },
    {
      "cityName": "Lieg",
      "lat": 6.9166667,
      "lng": 34.4666667
    },
    {
      "cityName": "Liepganop",
      "lat": 9.95,
      "lng": 30.2
    },
    {
      "cityName": "Liet",
      "lat": 8.5,
      "lng": 30.1666667
    },
    {
      "cityName": "Liette",
      "lat": 9.4833333,
      "lng": 30.2833333
    },
    {
      "cityName": "Likchuk",
      "lat": 9.6166667,
      "lng": 32.1833333
    },
    {
      "cityName": "Lil",
      "lat": 9.0619444,
      "lng": 30.6827778
    },
    {
      "cityName": "Limkwanchek",
      "lat": 8.4833333,
      "lng": 31.9666667
    },
    {
      "cityName": "Ling",
      "lat": 9.8833333,
      "lng": 30.1666667
    },
    {
      "cityName": "List",
      "lat": 8.8036111,
      "lng": 30.6808333
    },
    {
      "cityName": "Lit",
      "lat": 7.1091667,
      "lng": 30.3586111
    },
    {
      "cityName": "Lobaye",
      "lat": 6.6333333,
      "lng": 33.7166667
    },
    {
      "cityName": "Lochifor",
      "lat": 6.7833333,
      "lng": 33.1
    },
    {
      "cityName": "Loing",
      "lat": 8.1666667,
      "lng": 32.2
    },
    {
      "cityName": "Lok",
      "lat": 10.25,
      "lng": 32.2833333
    },
    {
      "cityName": "Longlet",
      "lat": 8.9166667,
      "lng": 32.4166667
    },
    {
      "cityName": "Long",
      "lat": 8.9366667,
      "lng": 30.9686111
    },
    {
      "cityName": "Longnum",
      "lat": 9.15,
      "lng": 32.7833333
    },
    {
      "cityName": "Longtam",
      "lat": 8.9730556,
      "lng": 30.7213889
    },
    {
      "cityName": "Longtem",
      "lat": 8.9333333,
      "lng": 32.5166667
    },
    {
      "cityName": "Loye",
      "lat": 9.65,
      "lng": 32.2833333
    },
    {
      "cityName": "Luakping",
      "lat": 8.75,
      "lng": 33.05
    },
    {
      "cityName": "Luale",
      "lat": 9.1755556,
      "lng": 30.7013889
    },
    {
      "cityName": "Lual",
      "lat": 8.5333333,
      "lng": 33.1
    },
    {
      "cityName": "Lugtug",
      "lat": 8.3858333,
      "lng": 30.8077778
    },
    {
      "cityName": "Luil",
      "lat": 9.9,
      "lng": 32.6666667
    },
    {
      "cityName": "Luing",
      "lat": 8.9333333,
      "lng": 32.5
    },
    {
      "cityName": "Luk Luk",
      "lat": 7.65,
      "lng": 31.75
    },
    {
      "cityName": "Lul",
      "lat": 9.7688889,
      "lng": 31.9380556
    },
    {
      "cityName": "Luth Gorkh",
      "lat": 8.5666667,
      "lng": 30.05
    },
    {
      "cityName": "Luth",
      "lat": 7.6666667,
      "lng": 31.75
    },
    {
      "cityName": "Lwakchuk",
      "lat": 9.8666667,
      "lng": 32.2666667
    },
    {
      "cityName": "Lwang Le Dit",
      "lat": 10.45,
      "lng": 32.5666667
    },
    {
      "cityName": "Lwol",
      "lat": 6.7,
      "lng": 32.9666667
    },
    {
      "cityName": "Mabiel",
      "lat": 10.45,
      "lng": 32.3
    },
    {
      "cityName": "Mabil",
      "lat": 9.2833333,
      "lng": 29.1833333
    },
    {
      "cityName": "Maghara",
      "lat": 11.95,
      "lng": 32.7666667
    },
    {
      "cityName": "Majak",
      "lat": 8.5666667,
      "lng": 33.8333333
    },
    {
      "cityName": "Majlau",
      "lat": 8.4833333,
      "lng": 29.9666667
    },
    {
      "cityName": "Majok",
      "lat": 7.7833333,
      "lng": 30.2833333
    },
    {
      "cityName": "Makang",
      "lat": 7.4097222,
      "lng": 30.5130556
    },
    {
      "cityName": "Maker",
      "lat": 9.8666667,
      "lng": 30.2666667
    },
    {
      "cityName": "Maktiweng",
      "lat": 5.9688889,
      "lng": 31.8388889
    },
    {
      "cityName": "Makwach",
      "lat": 8.6666667,
      "lng": 33.8166667
    },
    {
      "cityName": "Malek",
      "lat": 6.0677778,
      "lng": 31.6041667
    },
    {
      "cityName": "Maling",
      "lat": 9.1555556,
      "lng": 31.7175
    },
    {
      "cityName": "Malith",
      "lat": 8.4525,
      "lng": 30.6358333
    },
    {
      "cityName": "Malut",
      "lat": 10.4333333,
      "lng": 32.2
    },
    {
      "cityName": "Malwal",
      "lat": 8.8666667,
      "lng": 32.5833333
    },
    {
      "cityName": "Malwel",
      "lat": 9.6666667,
      "lng": 32.25
    },
    {
      "cityName": "Manadwai",
      "lat": 8.9833333,
      "lng": 31.4166667
    },
    {
      "cityName": "Manajunga",
      "lat": 9.95,
      "lng": 29.9833333
    },
    {
      "cityName": "Manakishi",
      "lat": 9.4,
      "lng": 33.95
    },
    {
      "cityName": "Manam",
      "lat": 10.9166667,
      "lng": 32.5166667
    },
    {
      "cityName": "Manbitshei",
      "lat": 6.7,
      "lng": 33.0666667
    },
    {
      "cityName": "Mandeng",
      "lat": 8.5333333,
      "lng": 33.1166667
    },
    {
      "cityName": "Mang",
      "lat": 10.15,
      "lng": 29.9166667
    },
    {
      "cityName": "Maningok",
      "lat": 11.7833333,
      "lng": 32.8333333
    },
    {
      "cityName": "Mankaich",
      "lat": 8.45,
      "lng": 32.7
    },
    {
      "cityName": "Mankwauka",
      "lat": 7.9166667,
      "lng": 32.0333333
    },
    {
      "cityName": "Manpagweir",
      "lat": 9.3619444,
      "lng": 30.6644444
    },
    {
      "cityName": "Mantakaro",
      "lat": 6.9166667,
      "lng": 33.05
    },
    {
      "cityName": "Mantoloch",
      "lat": 6.8333333,
      "lng": 33.1166667
    },
    {
      "cityName": "Mantong",
      "lat": 9.1,
      "lng": 29.4166667
    },
    {
      "cityName": "Manyal",
      "lat": 6.65,
      "lng": 32.95
    },
    {
      "cityName": "Manyang",
      "lat": 7.4569444,
      "lng": 30.4036111
    },
    {
      "cityName": "Manyeran",
      "lat": 6.8333333,
      "lng": 33.0833333
    },
    {
      "cityName": "Manyu",
      "lat": 6.65,
      "lng": 33.25
    },
    {
      "cityName": "Manyumen",
      "lat": 6.8666667,
      "lng": 33.0666667
    },
    {
      "cityName": "Mardi",
      "lat": 10.3333333,
      "lng": 33.5
    },
    {
      "cityName": "Margug",
      "lat": 8.3833333,
      "lng": 31.3333333
    },
    {
      "cityName": "Mar",
      "lat": 8.7666667,
      "lng": 29.9166667
    },
    {
      "cityName": "Mathiang",
      "lat": 7.3925,
      "lng": 30.3516667
    },
    {
      "cityName": "Matjang",
      "lat": 8.1886111,
      "lng": 30.6152778
    },
    {
      "cityName": "Maundi",
      "lat": 9.7833333,
      "lng": 33.5833333
    },
    {
      "cityName": "Mawel",
      "lat": 6.6,
      "lng": 32.9166667
    },
    {
      "cityName": "Mayeir",
      "lat": 9.1469444,
      "lng": 30.8577778
    },
    {
      "cityName": "Mayil",
      "lat": 7.2594444,
      "lng": 30.4661111
    },
    {
      "cityName": "Meheida esh Sherif",
      "lat": 12.0333333,
      "lng": 32.7666667
    },
    {
      "cityName": "Meino",
      "lat": 6.2,
      "lng": 34.6666667
    },
    {
      "cityName": "Mejuk",
      "lat": 10.3166667,
      "lng": 32.55
    },
    {
      "cityName": "Melwel Latuk",
      "lat": 5.9166667,
      "lng": 31.5666667
    },
    {
      "cityName": "Meriok",
      "lat": 10.4666667,
      "lng": 32.5166667
    },
    {
      "cityName": "Mer",
      "lat": 7.8,
      "lng": 30.3
    },
    {
      "cityName": "Methiang",
      "lat": 8.5,
      "lng": 30.2
    },
    {
      "cityName": "Miakol",
      "lat": 9.0666667,
      "lng": 32.8666667
    },
    {
      "cityName": "Mialek",
      "lat": 10.0666667,
      "lng": 32.2833333
    },
    {
      "cityName": "Miau",
      "lat": 9.0333333,
      "lng": 32.4333333
    },
    {
      "cityName": "Milkerr",
      "lat": 8.1,
      "lng": 32.0166667
    },
    {
      "cityName": "Minbar",
      "lat": 9.6833333,
      "lng": 32.2166667
    },
    {
      "cityName": "Missia Lul",
      "lat": 9.7494444,
      "lng": 31.9191667
    },
    {
      "cityName": "Miyan",
      "lat": 9.1166667,
      "lng": 33.4
    },
    {
      "cityName": "Moarkeyor",
      "lat": 6.6,
      "lng": 32.7666667
    },
    {
      "cityName": "Mogogh",
      "lat": 8.4333333,
      "lng": 31.3166667
    },
    {
      "cityName": "Moiyil",
      "lat": 9.35,
      "lng": 29.8833333
    },
    {
      "cityName": "Mongdor",
      "lat": 10.4166667,
      "lng": 32.3833333
    },
    {
      "cityName": "Moragok",
      "lat": 7.2333333,
      "lng": 30.4761111
    },
    {
      "cityName": "Moro",
      "lat": 10.6333333,
      "lng": 32.2333333
    },
    {
      "cityName": "Mudi",
      "lat": 9.2980556,
      "lng": 30.8855556
    },
    {
      "cityName": "Mulgak",
      "lat": 9.02,
      "lng": 31.7311111
    },
    {
      "cityName": "Multhiang",
      "lat": 9,
      "lng": 33.5
    },
    {
      "cityName": "Mundeing",
      "lat": 9.3025,
      "lng": 30.8672222
    },
    {
      "cityName": "Mungud",
      "lat": 8.2438889,
      "lng": 30.6263889
    },
    {
      "cityName": "Mwot Did",
      "lat": 8.0333333,
      "lng": 31.8
    },
    {
      "cityName": "Nabaqai",
      "lat": 10.0666667,
      "lng": 29.9666667
    },
    {
      "cityName": "Naintut",
      "lat": 8.5833333,
      "lng": 30.05
    },
    {
      "cityName": "Najunga",
      "lat": 9.8833333,
      "lng": 30.2666667
    },
    {
      "cityName": "Namalat",
      "lat": 9.7166667,
      "lng": 29.9166667
    },
    {
      "cityName": "Narful",
      "lat": 6.6833333,
      "lng": 33.1666667
    },
    {
      "cityName": "Narir",
      "lat": 9.4,
      "lng": 29.9
    },
    {
      "cityName": "N'Dwetti",
      "lat": 7.05,
      "lng": 33.6666667
    },
    {
      "cityName": "Negak",
      "lat": 10.0166667,
      "lng": 30.0833333
    },
    {
      "cityName": "Neigding",
      "lat": 9.4333333,
      "lng": 33.4833333
    },
    {
      "cityName": "Neinjang",
      "lat": 9.1427778,
      "lng": 31.5244444
    },
    {
      "cityName": "Nekan",
      "lat": 8.8566667,
      "lng": 30.7194444
    },
    {
      "cityName": "Nek",
      "lat": 8.2333333,
      "lng": 30.2833333
    },
    {
      "cityName": "Nerboar",
      "lat": 8.3166667,
      "lng": 29.8666667
    },
    {
      "cityName": "Neyalwal",
      "lat": 9.3636111,
      "lng": 31.3466667
    },
    {
      "cityName": "Neyar",
      "lat": 9.2913889,
      "lng": 31.4136111
    },
    {
      "cityName": "Ngaich",
      "lat": 7.6166667,
      "lng": 30.3
    },
    {
      "cityName": "Ngautoch",
      "lat": 9.3219444,
      "lng": 30.8566667
    },
    {
      "cityName": "Ngoiny",
      "lat": 8.4833333,
      "lng": 30.0833333
    },
    {
      "cityName": "Ngok",
      "lat": 8.1666667,
      "lng": 31.55
    },
    {
      "cityName": "Ngwer",
      "lat": 9.3258333,
      "lng": 30.5291667
    },
    {
      "cityName": "Nialeir",
      "lat": 6.5833333,
      "lng": 32.95
    },
    {
      "cityName": "Nianthon",
      "lat": 9.0833333,
      "lng": 33.4333333
    },
    {
      "cityName": "Niayok",
      "lat": 10.1333333,
      "lng": 32.3
    },
    {
      "cityName": "Nibodo",
      "lat": 9.4925,
      "lng": 31.0213889
    },
    {
      "cityName": "Nielwag",
      "lat": 9.4233333,
      "lng": 31.2669444
    },
    {
      "cityName": "Niereng",
      "lat": 9.2983333,
      "lng": 31.7925
    },
    {
      "cityName": "Nijok",
      "lat": 9.3163889,
      "lng": 31.8205556
    },
    {
      "cityName": "Nikowa",
      "lat": 7.7833333,
      "lng": 33.0333333
    },
    {
      "cityName": "Nin Kwon",
      "lat": 9.0941667,
      "lng": 30.7266667
    },
    {
      "cityName": "Niyagwado",
      "lat": 9.4061111,
      "lng": 31.1316667
    },
    {
      "cityName": "Noarchoar",
      "lat": 9.0666667,
      "lng": 28.85
    },
    {
      "cityName": "Nor",
      "lat": 8.5833333,
      "lng": 33.0333333
    },
    {
      "cityName": "Nun",
      "lat": 10.4,
      "lng": 32.1833333
    },
    {
      "cityName": "Nur Barau",
      "lat": 8.1583333,
      "lng": 30.8213889
    },
    {
      "cityName": "Nurlonga",
      "lat": 9.2505556,
      "lng": 30.9322222
    },
    {
      "cityName": "Nur",
      "lat": 9.1641667,
      "lng": 30.6763889
    },
    {
      "cityName": "Nushur",
      "lat": 10.2833333,
      "lng": 33.6333333
    },
    {
      "cityName": "Nyabiong",
      "lat": 8.6833333,
      "lng": 33.7166667
    },
    {
      "cityName": "Nyafer",
      "lat": 9.9666667,
      "lng": 32.15
    },
    {
      "cityName": "Nyaitok",
      "lat": 9.6833333,
      "lng": 32.3333333
    },
    {
      "cityName": "Nyakang",
      "lat": 8.6708333,
      "lng": 30.7141667
    },
    {
      "cityName": "Nyakoi",
      "lat": 8.4166667,
      "lng": 32.1166667
    },
    {
      "cityName": "Nyal",
      "lat": 7.75,
      "lng": 30.2666667
    },
    {
      "cityName": "Nyanding",
      "lat": 8.6166667,
      "lng": 32.6666667
    },
    {
      "cityName": "Nyandong",
      "lat": 7.65,
      "lng": 30.2
    },
    {
      "cityName": "Nyangenlwal",
      "lat": 10.9166667,
      "lng": 32.7833333
    },
    {
      "cityName": "Nyang",
      "lat": 6.7872222,
      "lng": 31.4630556
    },
    {
      "cityName": "Nyangobal",
      "lat": 6.5833333,
      "lng": 32.75
    },
    {
      "cityName": "Nyangwath",
      "lat": 8.95,
      "lng": 32.5666667
    },
    {
      "cityName": "Nyankennah",
      "lat": 9.2019444,
      "lng": 30.7177778
    },
    {
      "cityName": "Nyantim",
      "lat": 9.2833333,
      "lng": 32.0666667
    },
    {
      "cityName": "Nyanwey",
      "lat": 10.8666667,
      "lng": 32.4833333
    },
    {
      "cityName": "Nyanya",
      "lat": 10.1166667,
      "lng": 33.45
    },
    {
      "cityName": "Nyap",
      "lat": 6.1777778,
      "lng": 31.8480556
    },
    {
      "cityName": "Nyarian",
      "lat": 8.5166667,
      "lng": 33.1666667
    },
    {
      "cityName": "Nyaugith",
      "lat": 7.8333333,
      "lng": 31.2166667
    },
    {
      "cityName": "Nyefino",
      "lat": 10.05,
      "lng": 32.1
    },
    {
      "cityName": "Nyerol",
      "lat": 8.6833333,
      "lng": 32.0333333
    },
    {
      "cityName": "Nyiliech",
      "lat": 10.2166667,
      "lng": 32.25
    },
    {
      "cityName": "Nyinabot",
      "lat": 8.8833333,
      "lng": 31.8166667
    },
    {
      "cityName": "Nyingar",
      "lat": 9.6891667,
      "lng": 31.8558333
    },
    {
      "cityName": "Nyin Munnerode",
      "lat": 9.1161111,
      "lng": 30.7105556
    },
    {
      "cityName": "Nyin Yar",
      "lat": 9.2494444,
      "lng": 30.4994444
    },
    {
      "cityName": "Nyirial",
      "lat": 9.8,
      "lng": 32.0333333
    },
    {
      "cityName": "Nyithko",
      "lat": 9.6266667,
      "lng": 31.7336111
    },
    {
      "cityName": "Nyiwudo",
      "lat": 10.3666667,
      "lng": 32.2333333
    },
    {
      "cityName": "Nyod",
      "lat": 8.6166667,
      "lng": 30.7
    },
    {
      "cityName": "Nyoing",
      "lat": 8.3333333,
      "lng": 30.1
    },
    {
      "cityName": "Nyongchar",
      "lat": 8.7627778,
      "lng": 30.995
    },
    {
      "cityName": "Nyor",
      "lat": 9.75,
      "lng": 30.2
    },
    {
      "cityName": "Nyot",
      "lat": 7.7666667,
      "lng": 30.2833333
    },
    {
      "cityName": "Nyuarweng",
      "lat": 8.45,
      "lng": 33.8166667
    },
    {
      "cityName": "Obai Dego",
      "lat": 9.3866667,
      "lng": 31.5297222
    },
    {
      "cityName": "Oboa",
      "lat": 9.5580556,
      "lng": 31.6141667
    },
    {
      "cityName": "Obodiang",
      "lat": 9.6158333,
      "lng": 31.7105556
    },
    {
      "cityName": "Obwi",
      "lat": 10.2666667,
      "lng": 32.2333333
    },
    {
      "cityName": "Odwoigo",
      "lat": 9.3586111,
      "lng": 31.3525
    },
    {
      "cityName": "Ofyo",
      "lat": 9.3572222,
      "lng": 31.5916667
    },
    {
      "cityName": "Ogod Butu",
      "lat": 9.6402778,
      "lng": 31.7580556
    },
    {
      "cityName": "Ogod-Fatad",
      "lat": 9.6138889,
      "lng": 31.6416667
    },
    {
      "cityName": "Ogon",
      "lat": 10.15,
      "lng": 32.2666667
    },
    {
      "cityName": "Olam",
      "lat": 9.4425,
      "lng": 31.6463889
    },
    {
      "cityName": "Omila",
      "lat": 7.5666667,
      "lng": 33.7
    },
    {
      "cityName": "Omini",
      "lat": 7.0166667,
      "lng": 34.2333333
    },
    {
      "cityName": "Onabut",
      "lat": 11.8833333,
      "lng": 32.8
    },
    {
      "cityName": "Onkjer",
      "lat": 10.3333333,
      "lng": 32.35
    },
    {
      "cityName": "Orarak",
      "lat": 6.25,
      "lng": 32.3833333
    },
    {
      "cityName": "Oshima",
      "lat": 8.6833333,
      "lng": 34.1166667
    },
    {
      "cityName": "Otchogo",
      "lat": 10.0166667,
      "lng": 32.1666667
    },
    {
      "cityName": "Owachi",
      "lat": 9.3952778,
      "lng": 31.6044444
    },
    {
      "cityName": "Paayam",
      "lat": 8.7666667,
      "lng": 32.6833333
    },
    {
      "cityName": "Pabair",
      "lat": 7.3194444,
      "lng": 30.3947222
    },
    {
      "cityName": "Pabodyet",
      "lat": 9.6666667,
      "lng": 32.15
    },
    {
      "cityName": "Pachuark",
      "lat": 9.7666667,
      "lng": 30.0833333
    },
    {
      "cityName": "Pachwil",
      "lat": 7.05,
      "lng": 31.1666667
    },
    {
      "cityName": "Padaich",
      "lat": 9.05,
      "lng": 29.3
    },
    {
      "cityName": "Padara",
      "lat": 10.0666667,
      "lng": 29.9833333
    },
    {
      "cityName": "Padendem",
      "lat": 9.6666667,
      "lng": 30.1166667
    },
    {
      "cityName": "Padeng",
      "lat": 8.1,
      "lng": 30.0166667
    },
    {
      "cityName": "Paderna",
      "lat": 9.2,
      "lng": 33.8666667
    },
    {
      "cityName": "Padok",
      "lat": 9.7166667,
      "lng": 32.1666667
    },
    {
      "cityName": "Padwei",
      "lat": 8.7333333,
      "lng": 33.0333333
    },
    {
      "cityName": "Pagak",
      "lat": 8.4666667,
      "lng": 34.0333333
    },
    {
      "cityName": "Pagot",
      "lat": 7.0833333,
      "lng": 31.2333333
    },
    {
      "cityName": "Pagwar",
      "lat": 8.6833333,
      "lng": 32.8
    },
    {
      "cityName": "Paiuel",
      "lat": 9.7833333,
      "lng": 32.1833333
    },
    {
      "cityName": "Paja Rial",
      "lat": 7.3458333,
      "lng": 30.3908333
    },
    {
      "cityName": "Pakol",
      "lat": 9.8166667,
      "lng": 30.1666667
    },
    {
      "cityName": "Pakwar",
      "lat": 8.4666667,
      "lng": 30.65
    },
    {
      "cityName": "Paljok",
      "lat": 9.8666667,
      "lng": 30.0833333
    },
    {
      "cityName": "Pamir",
      "lat": 9.8333333,
      "lng": 32.2333333
    },
    {
      "cityName": "Pam Mak",
      "lat": 8.8833333,
      "lng": 33.75
    },
    {
      "cityName": "Panegwibek",
      "lat": 9.7166667,
      "lng": 32.1833333
    },
    {
      "cityName": "Panejangnyong",
      "lat": 9.7,
      "lng": 32.3
    },
    {
      "cityName": "Panenul",
      "lat": 9.65,
      "lng": 32.3166667
    },
    {
      "cityName": "Panomdojop",
      "lat": 8.7,
      "lng": 33.6
    },
    {
      "cityName": "Panyara",
      "lat": 7.6666667,
      "lng": 33.0666667
    },
    {
      "cityName": "Panyireth",
      "lat": 9.85,
      "lng": 32.1166667
    },
    {
      "cityName": "Paraken",
      "lat": 7.2555556,
      "lng": 30.6027778
    },
    {
      "cityName": "Param",
      "lat": 7.1166667,
      "lng": 31.15
    },
    {
      "cityName": "Pashar",
      "lat": 7.2830556,
      "lng": 30.3530556
    },
    {
      "cityName": "Patielnyang",
      "lat": 8.9,
      "lng": 32.4666667
    },
    {
      "cityName": "Patuok",
      "lat": 9.7,
      "lng": 30.1166667
    },
    {
      "cityName": "Pawienb",
      "lat": 8.7833333,
      "lng": 32.6333333
    },
    {
      "cityName": "Pentin",
      "lat": 6.9166667,
      "lng": 34.4333333
    },
    {
      "cityName": "Peper",
      "lat": 7.0666667,
      "lng": 33
    },
    {
      "cityName": "Pernalwal",
      "lat": 7.2438889,
      "lng": 30.4722222
    },
    {
      "cityName": "Pieri",
      "lat": 8.0333333,
      "lng": 32.0333333
    },
    {
      "cityName": "Pieth",
      "lat": 9.3855556,
      "lng": 30.8486111
    },
    {
      "cityName": "Piling",
      "lat": 8.2666667,
      "lng": 30.2
    },
    {
      "cityName": "Pil",
      "lat": 8.6166667,
      "lng": 34.15
    },
    {
      "cityName": "Piom Pur",
      "lat": 7.05,
      "lng": 31.2333333
    },
    {
      "cityName": "Pochumu",
      "lat": 8.5666667,
      "lng": 34.1166667
    },
    {
      "cityName": "Poweir",
      "lat": 7.3377778,
      "lng": 30.4388889
    },
    {
      "cityName": "Powoi",
      "lat": 8.95,
      "lng": 29.8333333
    },
    {
      "cityName": "Puig",
      "lat": 9.1166667,
      "lng": 29.8
    },
    {
      "cityName": "Pul Lual",
      "lat": 8.1333333,
      "lng": 30.0666667
    },
    {
      "cityName": "Pul Rieli",
      "lat": 8.2166667,
      "lng": 33.1666667
    },
    {
      "cityName": "Pwol",
      "lat": 8.6166667,
      "lng": 29.95
    },
    {
      "cityName": "Pwot",
      "lat": 9.6116667,
      "lng": 31.6630556
    },
    {
      "cityName": "Quffah",
      "lat": 10.3,
      "lng": 33.7666667
    },
    {
      "cityName": "Raad",
      "lat": 8.4941667,
      "lng": 30.6333333
    },
    {
      "cityName": "Raarm",
      "lat": 8.8666667,
      "lng": 33.0666667
    },
    {
      "cityName": "Raichum",
      "lat": 8.8333333,
      "lng": 32.5833333
    },
    {
      "cityName": "Rath",
      "lat": 7.7333333,
      "lng": 30.2833333
    },
    {
      "cityName": "Reng",
      "lat": 9.2833333,
      "lng": 29.5333333
    },
    {
      "cityName": "Renjnom",
      "lat": 9.9166667,
      "lng": 30.1
    },
    {
      "cityName": "Rial",
      "lat": 8.8666667,
      "lng": 33.1833333
    },
    {
      "cityName": "Riangnom",
      "lat": 9.9166667,
      "lng": 30.0166667
    },
    {
      "cityName": "Riek",
      "lat": 8.7,
      "lng": 32.7
    },
    {
      "cityName": "Riep",
      "lat": 9.0772222,
      "lng": 30.7547222
    },
    {
      "cityName": "Rogrog",
      "lat": 8.6833333,
      "lng": 33.15
    },
    {
      "cityName": "Roinyar",
      "lat": 7.8666667,
      "lng": 30.1333333
    },
    {
      "cityName": "Rokok",
      "lat": 8.8166667,
      "lng": 32.6666667
    },
    {
      "cityName": "Rom",
      "lat": 10.8,
      "lng": 32.45
    },
    {
      "cityName": "Rom Yieri",
      "lat": 8.4333333,
      "lng": 33.2166667
    },
    {
      "cityName": "Roth Den",
      "lat": 9.1333333,
      "lng": 29.1833333
    },
    {
      "cityName": "Rouweng",
      "lat": 8.95,
      "lng": 32.6166667
    },
    {
      "cityName": "Rowan",
      "lat": 10.5666667,
      "lng": 32.1666667
    },
    {
      "cityName": "Rub Leil",
      "lat": 8.1961111,
      "lng": 30.8308333
    },
    {
      "cityName": "Rublietti",
      "lat": 9.15,
      "lng": 29.0166667
    },
    {
      "cityName": "Rublik",
      "lat": 8.7961111,
      "lng": 30.6433333
    },
    {
      "cityName": "Rublu",
      "lat": 8.3775,
      "lng": 30.7841667
    },
    {
      "cityName": "Ruboani",
      "lat": 8.0866667,
      "lng": 30.7313889
    },
    {
      "cityName": "Rufniel",
      "lat": 8.4116667,
      "lng": 30.7561111
    },
    {
      "cityName": "Rukchuk",
      "lat": 9.7333333,
      "lng": 32.2333333
    },
    {
      "cityName": "Rumakeir",
      "lat": 8.1833333,
      "lng": 32.0333333
    },
    {
      "cityName": "Rumakwaich",
      "lat": 7.4405556,
      "lng": 30.4197222
    },
    {
      "cityName": "Rumla Ngork",
      "lat": 9.4,
      "lng": 28.7666667
    },
    {
      "cityName": "Rupchai",
      "lat": 8.1833333,
      "lng": 30.1166667
    },
    {
      "cityName": "Rupdid",
      "lat": 9.3019444,
      "lng": 30.9061111
    },
    {
      "cityName": "Rupiana",
      "lat": 9.1675,
      "lng": 30.6319444
    },
    {
      "cityName": "Ruv-dub",
      "lat": 8.98,
      "lng": 30.6847222
    },
    {
      "cityName": "Ryagdo",
      "lat": 9.6166667,
      "lng": 32.15
    },
    {
      "cityName": "Sahlat",
      "lat": 11.95,
      "lng": 33.05
    },
    {
      "cityName": "Saskosko",
      "lat": 9.2333333,
      "lng": 33.8166667
    },
    {
      "cityName": "Shapot",
      "lat": 8.0725,
      "lng": 30.8936111
    },
    {
      "cityName": "Shaykh Bade",
      "lat": 10.2333333,
      "lng": 33.55
    },
    {
      "cityName": "Shaykh Jok",
      "lat": 10.9666667,
      "lng": 32.65
    },
    {
      "cityName": "Shebalueng",
      "lat": 9.2947222,
      "lng": 30.6958333
    },
    {
      "cityName": "Shol Ajok",
      "lat": 9.2172222,
      "lng": 31.6813889
    },
    {
      "cityName": "Sholayik",
      "lat": 9.1333333,
      "lng": 31.75
    },
    {
      "cityName": "Shol",
      "lat": 9.2666667,
      "lng": 32.0833333
    },
    {
      "cityName": "Shotfeng",
      "lat": 8.15,
      "lng": 30.8666667
    },
    {
      "cityName": "Shukdash",
      "lat": 11.7333333,
      "lng": 32.8666667
    },
    {
      "cityName": "Shukkaba",
      "lat": 10.9666667,
      "lng": 32.6
    },
    {
      "cityName": "Shwai",
      "lat": 8.85,
      "lng": 32.5166667
    },
    {
      "cityName": "Shwil",
      "lat": 9,
      "lng": 32.4166667
    },
    {
      "cityName": "Sullup",
      "lat": 8.5833333,
      "lng": 32.7666667
    },
    {
      "cityName": "Tagga",
      "lat": 10.0333333,
      "lng": 33.6333333
    },
    {
      "cityName": "Tamation",
      "lat": 10.3333333,
      "lng": 32.3166667
    },
    {
      "cityName": "Tanyir",
      "lat": 8.8261111,
      "lng": 30.7230556
    },
    {
      "cityName": "Tareng",
      "lat": 9.6,
      "lng": 30.4166667
    },
    {
      "cityName": "Tarkwem",
      "lat": 7.0166667,
      "lng": 31.2333333
    },
    {
      "cityName": "Tarom",
      "lat": 9.1669444,
      "lng": 31.6761111
    },
    {
      "cityName": "Taufikia",
      "lat": 9.4316667,
      "lng": 31.6294444
    },
    {
      "cityName": "Tawbai",
      "lat": 8.6,
      "lng": 32.9
    },
    {
      "cityName": "Tawpot",
      "lat": 8.5666667,
      "lng": 33.1166667
    },
    {
      "cityName": "Tebusaya",
      "lat": 9.7,
      "lng": 29.0333333
    },
    {
      "cityName": "Tebu",
      "lat": 9.6833333,
      "lng": 32.1833333
    },
    {
      "cityName": "Tedau",
      "lat": 10.35,
      "lng": 32.5
    },
    {
      "cityName": "Temchuk-de-gi",
      "lat": 9.6333333,
      "lng": 32.1666667
    },
    {
      "cityName": "Temchuk",
      "lat": 9.65,
      "lng": 32.1666667
    },
    {
      "cityName": "Temrol",
      "lat": 8.2666667,
      "lng": 30.6166667
    },
    {
      "cityName": "Tengler",
      "lat": 8.1666667,
      "lng": 30.1166667
    },
    {
      "cityName": "Tereiba",
      "lat": 11.1666667,
      "lng": 32.6833333
    },
    {
      "cityName": "Thangoro",
      "lat": 9.1666667,
      "lng": 29.5666667
    },
    {
      "cityName": "Thanilak",
      "lat": 9.1833333,
      "lng": 31.6833333
    },
    {
      "cityName": "Thar Cheng",
      "lat": 8.2166667,
      "lng": 30.2166667
    },
    {
      "cityName": "Thar Jath",
      "lat": 8.4666667,
      "lng": 30.3166667
    },
    {
      "cityName": "Thar Nhom",
      "lat": 7.4288889,
      "lng": 30.4783333
    },
    {
      "cityName": "Thar Wang",
      "lat": 8.5333333,
      "lng": 30
    },
    {
      "cityName": "Thaworo",
      "lat": 9.3833333,
      "lng": 31.2797222
    },
    {
      "cityName": "Thepkeni",
      "lat": 9.3333333,
      "lng": 29.6833333
    },
    {
      "cityName": "Thiam",
      "lat": 7.7833333,
      "lng": 31.7666667
    },
    {
      "cityName": "Thiang",
      "lat": 7.7333333,
      "lng": 31.8833333
    },
    {
      "cityName": "Thiep Shawor",
      "lat": 7.8166667,
      "lng": 32.3166667
    },
    {
      "cityName": "Thir",
      "lat": 9.2333333,
      "lng": 29.2666667
    },
    {
      "cityName": "Thorial",
      "lat": 8.6666667,
      "lng": 29.9333333
    },
    {
      "cityName": "Thukak",
      "lat": 9.3883333,
      "lng": 30.9186111
    },
    {
      "cityName": "Thukchak",
      "lat": 9.1705556,
      "lng": 30.7569444
    },
    {
      "cityName": "Thul",
      "lat": 8.5,
      "lng": 32.05
    },
    {
      "cityName": "Thurnum",
      "lat": 8.3,
      "lng": 30.1166667
    },
    {
      "cityName": "Thuro Adawdo",
      "lat": 10.3,
      "lng": 32.2333333
    },
    {
      "cityName": "Thuro Nyiyar",
      "lat": 10.3166667,
      "lng": 32.2333333
    },
    {
      "cityName": "Thur",
      "lat": 8.2666667,
      "lng": 30.25
    },
    {
      "cityName": "Tiam",
      "lat": 7.7333333,
      "lng": 30.25
    },
    {
      "cityName": "Tiangdediar",
      "lat": 9.1975,
      "lng": 30.6869444
    },
    {
      "cityName": "Tiang Rial",
      "lat": 10.3,
      "lng": 32.2666667
    },
    {
      "cityName": "Tibnah",
      "lat": 10.8166667,
      "lng": 33.1833333
    },
    {
      "cityName": "Tidbal",
      "lat": 8.8166667,
      "lng": 31.2
    },
    {
      "cityName": "Tidfok",
      "lat": 9.3391667,
      "lng": 30.8222222
    },
    {
      "cityName": "Tidwach",
      "lat": 9.3266667,
      "lng": 30.8825
    },
    {
      "cityName": "Tiep",
      "lat": 9.4022222,
      "lng": 30.895
    },
    {
      "cityName": "Tige",
      "lat": 9.1530556,
      "lng": 30.7655556
    },
    {
      "cityName": "Tiltil",
      "lat": 9.2808333,
      "lng": 30.635
    },
    {
      "cityName": "Tingya",
      "lat": 10.5,
      "lng": 32.55
    },
    {
      "cityName": "Tir",
      "lat": 10.5333333,
      "lng": 32.4833333
    },
    {
      "cityName": "Tiura",
      "lat": 8.7833333,
      "lng": 33
    },
    {
      "cityName": "Toi",
      "lat": 9.2836111,
      "lng": 31.5936111
    },
    {
      "cityName": "Tokur",
      "lat": 8.0666667,
      "lng": 30.15
    },
    {
      "cityName": "Tokwaich",
      "lat": 10.55,
      "lng": 32.1333333
    },
    {
      "cityName": "Toladul",
      "lat": 9.2638889,
      "lng": 30.7172222
    },
    {
      "cityName": "Tol",
      "lat": 8.8166667,
      "lng": 33.6166667
    },
    {
      "cityName": "Tondiak",
      "lat": 9.4097222,
      "lng": 31.1536111
    },
    {
      "cityName": "Tonga",
      "lat": 9.4869444,
      "lng": 31.0377778
    },
    {
      "cityName": "Tong",
      "lat": 6.4622222,
      "lng": 31.6322222
    },
    {
      "cityName": "Tong Tong",
      "lat": 7.1,
      "lng": 33.05
    },
    {
      "cityName": "Toragain",
      "lat": 8.8,
      "lng": 31.1
    },
    {
      "cityName": "Toriak",
      "lat": 8.75,
      "lng": 32.1
    },
    {
      "cityName": "Torkej",
      "lat": 8.4666667,
      "lng": 33.15
    },
    {
      "cityName": "Torniok",
      "lat": 9.225,
      "lng": 30.7738889
    },
    {
      "cityName": "Toro",
      "lat": 10.5833333,
      "lng": 32.15
    },
    {
      "cityName": "Tot",
      "lat": 9.0666667,
      "lng": 29
    },
    {
      "cityName": "Towath",
      "lat": 6.2,
      "lng": 34.4166667
    },
    {
      "cityName": "Toych",
      "lat": 8.9569444,
      "lng": 30.7091667
    },
    {
      "cityName": "Tuai Bor",
      "lat": 9.4027778,
      "lng": 30.6769444
    },
    {
      "cityName": "Tubug",
      "lat": 9.1833333,
      "lng": 32.1333333
    },
    {
      "cityName": "Tumma",
      "lat": 9.95,
      "lng": 33.8166667
    },
    {
      "cityName": "Tungia",
      "lat": 9.9666667,
      "lng": 32
    },
    {
      "cityName": "Tungmir",
      "lat": 9.7072222,
      "lng": 31.8438889
    },
    {
      "cityName": "Tungrib",
      "lat": 8.1780556,
      "lng": 30.8294444
    },
    {
      "cityName": "Tungyun",
      "lat": 6.6666667,
      "lng": 32.9166667
    },
    {
      "cityName": "Tungyu",
      "lat": 9.8333333,
      "lng": 33.6166667
    },
    {
      "cityName": "Turakon",
      "lat": 9.9333333,
      "lng": 30.15
    },
    {
      "cityName": "Tuyo Quffah",
      "lat": 10.05,
      "lng": 33.7333333
    },
    {
      "cityName": "Tvoro-Buzchi",
      "lat": 9.5597222,
      "lng": 31.6794444
    },
    {
      "cityName": "Twaber",
      "lat": 10.15,
      "lng": 32.6166667
    },
    {
      "cityName": "Twengdeng",
      "lat": 8.835,
      "lng": 30.6602778
    },
    {
      "cityName": "Twilong",
      "lat": 7.6833333,
      "lng": 33.0666667
    },
    {
      "cityName": "Twoich Pair",
      "lat": 8.2666667,
      "lng": 30.1333333
    },
    {
      "cityName": "Twoich",
      "lat": 8.35,
      "lng": 29.95
    },
    {
      "cityName": "Twolong",
      "lat": 9.7536111,
      "lng": 31.8883333
    },
    {
      "cityName": "Tworo",
      "lat": 9.4055556,
      "lng": 31.6097222
    },
    {
      "cityName": "Ucua",
      "lat": 6.7666667,
      "lng": 34.5666667
    },
    {
      "cityName": "Ugar",
      "lat": 7.0333333,
      "lng": 34.2333333
    },
    {
      "cityName": "Ujak",
      "lat": 7.2666667,
      "lng": 33.4666667
    },
    {
      "cityName": "Ukaadi",
      "lat": 7,
      "lng": 34.25
    },
    {
      "cityName": "Ukka",
      "lat": 10.05,
      "lng": 33.35
    },
    {
      "cityName": "Ulang",
      "lat": 8.8666667,
      "lng": 33.15
    },
    {
      "cityName": "Umberi",
      "lat": 7.65,
      "lng": 33.65
    },
    {
      "cityName": "Umm Barbit",
      "lat": 10.9333333,
      "lng": 32.55
    },
    {
      "cityName": "Umm Kaddadah",
      "lat": 9.95,
      "lng": 30.5
    },
    {
      "cityName": "Umm Sagura",
      "lat": 9.6333333,
      "lng": 29.8333333
    },
    {
      "cityName": "Umm Shutur",
      "lat": 7.2833333,
      "lng": 33.2333333
    },
    {
      "cityName": "Upal",
      "lat": 6.9666667,
      "lng": 34.2666667
    },
    {
      "cityName": "Uriang",
      "lat": 10.6166667,
      "lng": 32.2
    },
    {
      "cityName": "Ushini",
      "lat": 7.6833333,
      "lng": 33.5666667
    },
    {
      "cityName": "Utalo",
      "lat": 7.1166667,
      "lng": 33.8333333
    },
    {
      "cityName": "Utili",
      "lat": 7.75,
      "lng": 33.05
    },
    {
      "cityName": "Wa`at",
      "lat": 8.1666667,
      "lng": 32.1166667
    },
    {
      "cityName": "Wabuit",
      "lat": 9.45,
      "lng": 32.1166667
    },
    {
      "cityName": "Wad Battah",
      "lat": 11.9333333,
      "lng": 33.0166667
    },
    {
      "cityName": "Wai Kwai",
      "lat": 8.4833333,
      "lng": 32.7
    },
    {
      "cityName": "Waka",
      "lat": 9.0166667,
      "lng": 34.0666667
    },
    {
      "cityName": "Wak Rial",
      "lat": 8.5833333,
      "lng": 33.0833333
    },
    {
      "cityName": "Wangbop",
      "lat": 8.5666667,
      "lng": 33.0666667
    },
    {
      "cityName": "Wangding",
      "lat": 8.0666667,
      "lng": 33.0666667
    },
    {
      "cityName": "Wang Kiel",
      "lat": 9.1763889,
      "lng": 30.8958333
    },
    {
      "cityName": "Wang Tar",
      "lat": 9.4311111,
      "lng": 30.9919444
    },
    {
      "cityName": "Wang Yag",
      "lat": 9.2894444,
      "lng": 30.9044444
    },
    {
      "cityName": "Wankarkh",
      "lat": 8.3,
      "lng": 29.9666667
    },
    {
      "cityName": "Warawar",
      "lat": 7.85,
      "lng": 31.6833333
    },
    {
      "cityName": "Warawut",
      "lat": 10.4,
      "lng": 32.5166667
    },
    {
      "cityName": "Warrit",
      "lat": 11.6,
      "lng": 32.7833333
    },
    {
      "cityName": "Warweng",
      "lat": 8.9833333,
      "lng": 33.4666667
    },
    {
      "cityName": "Watau",
      "lat": 9.6333333,
      "lng": 32.2166667
    },
    {
      "cityName": "Wath Jak",
      "lat": 9.0833333,
      "lng": 29.6166667
    },
    {
      "cityName": "Wath Kech",
      "lat": 9.4536111,
      "lng": 30.8038889
    },
    {
      "cityName": "Wau",
      "lat": 8.25,
      "lng": 31.3833333
    },
    {
      "cityName": "Wayluark",
      "lat": 7.2188889,
      "lng": 30.4475
    },
    {
      "cityName": "Wegbail",
      "lat": 8.3333333,
      "lng": 33.2
    },
    {
      "cityName": "Weibuini",
      "lat": 8.9166667,
      "lng": 32.45
    },
    {
      "cityName": "Weibuon",
      "lat": 8.5833333,
      "lng": 33.0166667
    },
    {
      "cityName": "Weidany",
      "lat": 7.7166667,
      "lng": 32.95
    },
    {
      "cityName": "Weinial",
      "lat": 8.3333333,
      "lng": 31.8833333
    },
    {
      "cityName": "Wer Ngorp",
      "lat": 10.05,
      "lng": 30.1166667
    },
    {
      "cityName": "Wer Ping",
      "lat": 9.4666667,
      "lng": 28.9166667
    },
    {
      "cityName": "Weth",
      "lat": 8.9,
      "lng": 33.0833333
    },
    {
      "cityName": "Widhong",
      "lat": 9.8166667,
      "lng": 30.3166667
    },
    {
      "cityName": "Wijbur",
      "lat": 9.7833333,
      "lng": 31.9
    },
    {
      "cityName": "Wij-Malakal",
      "lat": 9.6025,
      "lng": 31.685
    },
    {
      "cityName": "Wijur",
      "lat": 9.2666667,
      "lng": 32.1
    },
    {
      "cityName": "Willa",
      "lat": 9.0833333,
      "lng": 29.2166667
    },
    {
      "cityName": "Wilniang",
      "lat": 9.4111111,
      "lng": 31.3133333
    },
    {
      "cityName": "Wilnyang",
      "lat": 9.37,
      "lng": 31.3361111
    },
    {
      "cityName": "Wit Dokott",
      "lat": 9.4338889,
      "lng": 31.5752778
    },
    {
      "cityName": "Wongotero",
      "lat": 7.7333333,
      "lng": 33.0666667
    },
    {
      "cityName": "Wontoi",
      "lat": 10.4666667,
      "lng": 32.4666667
    },
    {
      "cityName": "Wor",
      "lat": 8.5,
      "lng": 30.6666667
    },
    {
      "cityName": "Wubek",
      "lat": 9.8333333,
      "lng": 30.0833333
    },
    {
      "cityName": "Wulang",
      "lat": 8.2166667,
      "lng": 32.2
    },
    {
      "cityName": "Wulyang",
      "lat": 8.0997222,
      "lng": 30.8533333
    },
    {
      "cityName": "Wunachfiel",
      "lat": 10.2333333,
      "lng": 32.4666667
    },
    {
      "cityName": "Wunadong",
      "lat": 9.0052778,
      "lng": 31.2883333
    },
    {
      "cityName": "Wunadup",
      "lat": 10.2666667,
      "lng": 32.5666667
    },
    {
      "cityName": "Wunagak",
      "lat": 9.3,
      "lng": 32.0833333
    },
    {
      "cityName": "Wunaget",
      "lat": 9.05,
      "lng": 32.3833333
    },
    {
      "cityName": "Wunagoi Din",
      "lat": 9.0833333,
      "lng": 32.3833333
    },
    {
      "cityName": "Wunagwan",
      "lat": 9.7333333,
      "lng": 32.2833333
    },
    {
      "cityName": "Wunajok",
      "lat": 9.1586111,
      "lng": 31.6997222
    },
    {
      "cityName": "Wunakei",
      "lat": 8.95,
      "lng": 31.7833333
    },
    {
      "cityName": "Wunakir",
      "lat": 9.2458333,
      "lng": 31.6811111
    },
    {
      "cityName": "Wunakoich",
      "lat": 9.7833333,
      "lng": 32.15
    },
    {
      "cityName": "Wunalam",
      "lat": 9.0955556,
      "lng": 31.7380556
    },
    {
      "cityName": "Wun Aliet",
      "lat": 7.2208333,
      "lng": 30.3263889
    },
    {
      "cityName": "Wunalong",
      "lat": 9.26,
      "lng": 31.6708333
    },
    {
      "cityName": "Wunamith",
      "lat": 9.7,
      "lng": 30.75
    },
    {
      "cityName": "Wunangwi",
      "lat": 10.8166667,
      "lng": 32.6
    },
    {
      "cityName": "Wunanyak",
      "lat": 9.1372222,
      "lng": 31.7244444
    },
    {
      "cityName": "Wunapith",
      "lat": 8.9333333,
      "lng": 31.8
    },
    {
      "cityName": "Wunarual",
      "lat": 8.8166667,
      "lng": 31.8666667
    },
    {
      "cityName": "Wunatau",
      "lat": 7.1941667,
      "lng": 30.4397222
    },
    {
      "cityName": "Wunayan",
      "lat": 10.6,
      "lng": 32.5333333
    },
    {
      "cityName": "Wundok",
      "lat": 10.3666667,
      "lng": 32.6
    },
    {
      "cityName": "Wundong",
      "lat": 7.4638889,
      "lng": 30.455
    },
    {
      "cityName": "Wun Ghir",
      "lat": 11.9,
      "lng": 32.7833333
    },
    {
      "cityName": "Wunging",
      "lat": 8.9166667,
      "lng": 31.8166667
    },
    {
      "cityName": "Wuniyer",
      "lat": 10.2833333,
      "lng": 32.4833333
    },
    {
      "cityName": "Wunkir",
      "lat": 9.0166667,
      "lng": 33.4666667
    },
    {
      "cityName": "Wunkoi",
      "lat": 8.9166667,
      "lng": 33.6
    },
    {
      "cityName": "Wunkok",
      "lat": 6.8833333,
      "lng": 33.0666667
    },
    {
      "cityName": "Wunkur",
      "lat": 9.6833333,
      "lng": 30.7833333
    },
    {
      "cityName": "Wunkwil",
      "lat": 8.2,
      "lng": 32.2166667
    },
    {
      "cityName": "Wun Rual",
      "lat": 7.2597222,
      "lng": 30.3597222
    },
    {
      "cityName": "Wunshaiye",
      "lat": 7.1333333,
      "lng": 33.8
    },
    {
      "cityName": "Wuntao",
      "lat": 9.7166667,
      "lng": 32.25
    },
    {
      "cityName": "Wuntau",
      "lat": 10.25,
      "lng": 32.55
    },
    {
      "cityName": "Wunthou",
      "lat": 8.6333333,
      "lng": 33.1
    },
    {
      "cityName": "Wunyar",
      "lat": 9.25,
      "lng": 29.1166667
    },
    {
      "cityName": "Wunyat",
      "lat": 10.5833333,
      "lng": 32.5333333
    },
    {
      "cityName": "Wuobo",
      "lat": 9.3802778,
      "lng": 31.2952778
    },
    {
      "cityName": "Wurang",
      "lat": 10.25,
      "lng": 32.5833333
    },
    {
      "cityName": "Wuriyang",
      "lat": 9.0005556,
      "lng": 31.5266667
    },
    {
      "cityName": "Wuthoing",
      "lat": 9,
      "lng": 29.8166667
    },
    {
      "cityName": "Wuthol",
      "lat": 9.2688889,
      "lng": 31.6391667
    },
    {
      "cityName": "Yafgar",
      "lat": 8.755,
      "lng": 30.9775
    },
    {
      "cityName": "Yaiwal",
      "lat": 8.95,
      "lng": 33.55
    },
    {
      "cityName": "Yedid",
      "lat": 8.2,
      "lng": 32.2666667
    },
    {
      "cityName": "Yelgo",
      "lat": 10.0166667,
      "lng": 33.5166667
    },
    {
      "cityName": "Yenanoi",
      "lat": 9.1527778,
      "lng": 31.5344444
    },
    {
      "cityName": "Yih",
      "lat": 9.05,
      "lng": 32.9166667
    },
    {
      "cityName": "Yill",
      "lat": 8.3333333,
      "lng": 30.0333333
    },
    {
      "cityName": "Yinkusa",
      "lat": 9.8333333,
      "lng": 30.05
    },
    {
      "cityName": "Yolwot",
      "lat": 10.4,
      "lng": 32.3166667
    },
    {
      "cityName": "Yomding",
      "lat": 8.6333333,
      "lng": 32.85
    },
    {
      "cityName": "Yom",
      "lat": 9.1788889,
      "lng": 30.7858333
    },
    {
      "cityName": "Yor",
      "lat": 8.3,
      "lng": 32.9166667
    },
    {
      "cityName": "Yoynyang",
      "lat": 9.2666667,
      "lng": 29.8333333
    },
    {
      "cityName": "Yusuf Batil",
      "lat": 10.0333333,
      "lng": 33.5833333
    },
    {
      "cityName": "Yusuf Natcha",
      "lat": 10.0666667,
      "lng": 33.45
    }
  ]
}