{
  "name": "Maranhao",
  "cities": [
    {
      "cityName": "Abreu",
      "lat": -3.350278,
      "lng": -42.419722
    },
    {
      "cityName": "Abundância",
      "lat": -4.116667,
      "lng": -44.6
    },
    {
      "cityName": "Acampamento",
      "lat": -3.648333,
      "lng": -42.9625
    },
    {
      "cityName": "Acará",
      "lat": -3.416667,
      "lng": -45.316667
    },
    {
      "cityName": "Acará-Mirim",
      "lat": -3.533333,
      "lng": -45.366667
    },
    {
      "cityName": "Acauã",
      "lat": -2.683333,
      "lng": -45.15
    },
    {
      "cityName": "Açu",
      "lat": -2.166667,
      "lng": -44.633333
    },
    {
      "cityName": "Açude",
      "lat": -4.116667,
      "lng": -44.933333
    },
    {
      "cityName": "Água Branca",
      "lat": -3.0825,
      "lng": -42.037778
    },
    {
      "cityName": "Água Fria",
      "lat": -3.169722,
      "lng": -43.479722
    },
    {
      "cityName": "Água Limpa",
      "lat": -3.408889,
      "lng": -43.439444
    },
    {
      "cityName": "Água Rica",
      "lat": -3.693889,
      "lng": -43.018056
    },
    {
      "cityName": "Águas Boas",
      "lat": -1.966667,
      "lng": -45.816667
    },
    {
      "cityName": "Água Vermelha",
      "lat": -6.483333,
      "lng": -43.133333
    },
    {
      "cityName": "Alagoas",
      "lat": -3.771389,
      "lng": -43.408056
    },
    {
      "cityName": "Alagoinha",
      "lat": -3.077778,
      "lng": -42.026111
    },
    {
      "cityName": "Alazão dos Cardosos",
      "lat": -3.992778,
      "lng": -42.906111
    },
    {
      "cityName": "Albino",
      "lat": -3.609722,
      "lng": -42.987778
    },
    {
      "cityName": "Alcântara",
      "lat": -2.4,
      "lng": -44.4
    },
    {
      "cityName": "Aldeia",
      "lat": -3.013889,
      "lng": -42.004167
    },
    {
      "cityName": "Aldeia Amanajás Tauaí",
      "lat": -4.533333,
      "lng": -47.366667
    },
    {
      "cityName": "Aldeia de Pedra",
      "lat": -5.833333,
      "lng": -45.933333
    },
    {
      "cityName": "Aldeia do Capitão Chimang",
      "lat": -2.866667,
      "lng": -46.583333
    },
    {
      "cityName": "Aldeia do Capitão Mariquinhas",
      "lat": -3.216667,
      "lng": -46.233333
    },
    {
      "cityName": "Aldeia do Capitão Piarru",
      "lat": -3.066667,
      "lng": -46.3
    },
    {
      "cityName": "Aldeia Velha",
      "lat": -5.15,
      "lng": -45.583333
    },
    {
      "cityName": "Aldeinha",
      "lat": -5.95,
      "lng": -45.033333
    },
    {
      "cityName": "Alegre",
      "lat": -1.833333,
      "lng": -44.75
    },
    {
      "cityName": "Alegria",
      "lat": -3.698889,
      "lng": -43.354444
    },
    {
      "cityName": "Alívio",
      "lat": -4.9,
      "lng": -44.583333
    },
    {
      "cityName": "Almas",
      "lat": -3.780278,
      "lng": -42.829167
    },
    {
      "cityName": "Almécegas",
      "lat": -5.866667,
      "lng": -43.1
    },
    {
      "cityName": "Almeida",
      "lat": -5.916667,
      "lng": -44.15
    },
    {
      "cityName": "Almesquinha",
      "lat": -6.016667,
      "lng": -43.066667
    },
    {
      "cityName": "Alpercata",
      "lat": -3.655833,
      "lng": -43.483056
    },
    {
      "cityName": "Altamira",
      "lat": -5.733333,
      "lng": -45.6
    },
    {
      "cityName": "Altamira do Maranhão",
      "lat": -4.166667,
      "lng": -45.483333
    },
    {
      "cityName": "Alto Alegre",
      "lat": -3.116667,
      "lng": -45.666667
    },
    {
      "cityName": "Alto",
      "lat": -3.014444,
      "lng": -42.079722
    },
    {
      "cityName": "Alto Bonito",
      "lat": -3.133333,
      "lng": -42.2
    },
    {
      "cityName": "Alto da Doca",
      "lat": -5.716667,
      "lng": -46.4
    },
    {
      "cityName": "Alto das Pedras",
      "lat": -4.05,
      "lng": -44.933333
    },
    {
      "cityName": "Alto do Coqueiro",
      "lat": -5.85,
      "lng": -43.183333
    },
    {
      "cityName": "Alto Formoso",
      "lat": -3.399444,
      "lng": -42.618611
    },
    {
      "cityName": "Alto Lindo",
      "lat": -3.405278,
      "lng": -42.605556
    },
    {
      "cityName": "Alto Parnaíba",
      "lat": -9.1,
      "lng": -45.95
    },
    {
      "cityName": "Alto Turi",
      "lat": -2.9,
      "lng": -45.633333
    },
    {
      "cityName": "Alvação",
      "lat": -6.7,
      "lng": -43.883333
    },
    {
      "cityName": "Amapá",
      "lat": -3.140556,
      "lng": -43.293333
    },
    {
      "cityName": "Amarante do Grajau",
      "lat": -5.6,
      "lng": -46.75
    },
    {
      "cityName": "Amaro Leite",
      "lat": -8.966667,
      "lng": -46.866667
    },
    {
      "cityName": "Anajá",
      "lat": -3.673611,
      "lng": -43.2975
    },
    {
      "cityName": "Anajatuba",
      "lat": -3.266667,
      "lng": -44.616667
    },
    {
      "cityName": "Anajazal",
      "lat": -3.554722,
      "lng": -43.175
    },
    {
      "cityName": "Anajazinho",
      "lat": -3.371667,
      "lng": -42.503056
    },
    {
      "cityName": "Ananás",
      "lat": -3.659167,
      "lng": -43.297222
    },
    {
      "cityName": "Anapurus",
      "lat": -3.205278,
      "lng": -42.408889
    },
    {
      "cityName": "Andaraí",
      "lat": -5.083333,
      "lng": -45.883333
    },
    {
      "cityName": "Andiroba",
      "lat": -3.5075,
      "lng": -43.246944
    },
    {
      "cityName": "Andirobal",
      "lat": -3.8,
      "lng": -45.166667
    },
    {
      "cityName": "Andreza",
      "lat": -3.111944,
      "lng": -42.864444
    },
    {
      "cityName": "Angelim",
      "lat": -3.048056,
      "lng": -42.1475
    },
    {
      "cityName": "Angical",
      "lat": -3.3575,
      "lng": -43.150556
    },
    {
      "cityName": "Angicalinho",
      "lat": -3.345,
      "lng": -43.1375
    },
    {
      "cityName": "Angico",
      "lat": -3.753056,
      "lng": -43.449444
    },
    {
      "cityName": "Angico Branco",
      "lat": -3.060278,
      "lng": -42.180278
    },
    {
      "cityName": "Angicos",
      "lat": -8.466667,
      "lng": -45.966667
    },
    {
      "cityName": "Anil",
      "lat": -2.533333,
      "lng": -44.233333
    },
    {
      "cityName": "Aninga",
      "lat": -3.226667,
      "lng": -42.205556
    },
    {
      "cityName": "Anta Gorda",
      "lat": -3.4975,
      "lng": -43.299444
    },
    {
      "cityName": "Antonião",
      "lat": -4.816667,
      "lng": -45.316667
    },
    {
      "cityName": "Apajatuba",
      "lat": -2.616667,
      "lng": -43.8
    },
    {
      "cityName": "Aquidabã",
      "lat": -2.183333,
      "lng": -44.833333
    },
    {
      "cityName": "Araçá",
      "lat": -3.072778,
      "lng": -42.196667
    },
    {
      "cityName": "Araim",
      "lat": -6.1,
      "lng": -43.766667
    },
    {
      "cityName": "Araioses",
      "lat": -2.89,
      "lng": -41.903611
    },
    {
      "cityName": "Aranhas",
      "lat": -8.5,
      "lng": -45.85
    },
    {
      "cityName": "Arapema",
      "lat": -3.716667,
      "lng": -44.233333
    },
    {
      "cityName": "Arara",
      "lat": -3.083056,
      "lng": -42.278889
    },
    {
      "cityName": "Araras",
      "lat": -3.25,
      "lng": -44.466667
    },
    {
      "cityName": "Arari",
      "lat": -3.466667,
      "lng": -44.783333
    },
    {
      "cityName": "Areal",
      "lat": -3.233333,
      "lng": -44.616667
    },
    {
      "cityName": "Areia",
      "lat": -3.076111,
      "lng": -42.211667
    },
    {
      "cityName": "Areial",
      "lat": -3.560278,
      "lng": -43.350278
    },
    {
      "cityName": "Areias",
      "lat": -3.366667,
      "lng": -45.633333
    },
    {
      "cityName": "Areinhas",
      "lat": -2.466667,
      "lng": -43.45
    },
    {
      "cityName": "Armazém",
      "lat": -3.082778,
      "lng": -43.113611
    },
    {
      "cityName": "Aroeira",
      "lat": -3.824167,
      "lng": -43.323611
    },
    {
      "cityName": "Arraial",
      "lat": -3.433333,
      "lng": -44.316667
    },
    {
      "cityName": "Arueira",
      "lat": -6.366667,
      "lng": -46.483333
    },
    {
      "cityName": "Arunta",
      "lat": -2.566667,
      "lng": -44.15
    },
    {
      "cityName": "Assituas",
      "lat": -2.733333,
      "lng": -46.65
    },
    {
      "cityName": "Atanásio",
      "lat": -3.588333,
      "lng": -43.175556
    },
    {
      "cityName": "Aterrado",
      "lat": -4.25,
      "lng": -45.633333
    },
    {
      "cityName": "Atoleiro",
      "lat": -3.412778,
      "lng": -42.667778
    },
    {
      "cityName": "Atoleiro de Dentro",
      "lat": -3.926944,
      "lng": -43.184722
    },
    {
      "cityName": "Aurizona",
      "lat": -1.283333,
      "lng": -45.766667
    },
    {
      "cityName": "Axixá",
      "lat": -2.85,
      "lng": -44.066667
    },
    {
      "cityName": "Axuí",
      "lat": -2.516667,
      "lng": -43.6
    },
    {
      "cityName": "Babaçu",
      "lat": -4.65,
      "lng": -43.6
    },
    {
      "cityName": "Babilônia",
      "lat": -8.283333,
      "lng": -45.95
    },
    {
      "cityName": "Bacaba",
      "lat": -2.983333,
      "lng": -43.85
    },
    {
      "cityName": "Bacaba I",
      "lat": -3.605556,
      "lng": -43.495556
    },
    {
      "cityName": "Bacaba II",
      "lat": -3.395,
      "lng": -43.232778
    },
    {
      "cityName": "Bacabal",
      "lat": -4.233333,
      "lng": -44.783333
    },
    {
      "cityName": "Bacabal do Carrinho",
      "lat": -3.721667,
      "lng": -43.355278
    },
    {
      "cityName": "Bacabal dos Crentes",
      "lat": -3.7275,
      "lng": -43.336667
    },
    {
      "cityName": "Bacabal do Tibério",
      "lat": -3.4825,
      "lng": -43.449444
    },
    {
      "cityName": "Bacabal II",
      "lat": -3.37,
      "lng": -43.420278
    },
    {
      "cityName": "Bacabal III",
      "lat": -3.506389,
      "lng": -43.338333
    },
    {
      "cityName": "Bacaína",
      "lat": -6.75,
      "lng": -44.066667
    },
    {
      "cityName": "Bacatuba",
      "lat": -5.666667,
      "lng": -43.7
    },
    {
      "cityName": "Bacatu",
      "lat": -3.816667,
      "lng": -44.866667
    },
    {
      "cityName": "Bacué",
      "lat": -3.373611,
      "lng": -42.440278
    },
    {
      "cityName": "Bacuri",
      "lat": -1.733333,
      "lng": -45.133333
    },
    {
      "cityName": "Bacuri I",
      "lat": -3.435556,
      "lng": -43.4325
    },
    {
      "cityName": "Bacuri II",
      "lat": -3.111389,
      "lng": -42.354167
    },
    {
      "cityName": "Bacurituba",
      "lat": -2.716667,
      "lng": -44.716667
    },
    {
      "cityName": "Bacurizeiro",
      "lat": -3.143056,
      "lng": -42.219722
    },
    {
      "cityName": "Bagaço",
      "lat": -3.458333,
      "lng": -43.4525
    },
    {
      "cityName": "Baião",
      "lat": -3.166667,
      "lng": -43.65
    },
    {
      "cityName": "Baixa",
      "lat": -4.183333,
      "lng": -43.75
    },
    {
      "cityName": "Baixa da Conceição",
      "lat": -3.760556,
      "lng": -43.295
    },
    {
      "cityName": "Baixa d'Agua",
      "lat": -3.071111,
      "lng": -43.032778
    },
    {
      "cityName": "Baixa da Onça",
      "lat": -3.378611,
      "lng": -43.116667
    },
    {
      "cityName": "Baixa das Cotias",
      "lat": -3.228611,
      "lng": -43.014722
    },
    {
      "cityName": "Baixa da Serra",
      "lat": -6.583333,
      "lng": -43.866667
    },
    {
      "cityName": "Baixa da Vaca",
      "lat": -3.379167,
      "lng": -43.183333
    },
    {
      "cityName": "Baixa do Capim",
      "lat": -3.879722,
      "lng": -43.128611
    },
    {
      "cityName": "Baixa do Cocal I",
      "lat": -3.280833,
      "lng": -43.261389
    },
    {
      "cityName": "Baixa do Cocal II",
      "lat": -3.263889,
      "lng": -43.225833
    },
    {
      "cityName": "Baixa do Lago",
      "lat": -3.430556,
      "lng": -42.773611
    },
    {
      "cityName": "Baixa Fria",
      "lat": -5.4,
      "lng": -43.333333
    },
    {
      "cityName": "Baixa Funda",
      "lat": -3.088889,
      "lng": -42.318056
    },
    {
      "cityName": "Baixa Grande",
      "lat": -2.333333,
      "lng": -44.6
    },
    {
      "cityName": "Baixão",
      "lat": -3.005556,
      "lng": -42.351111
    },
    {
      "cityName": "Baixão da Negra",
      "lat": -5.116667,
      "lng": -43.266667
    },
    {
      "cityName": "Baixão de Areia",
      "lat": -5.966667,
      "lng": -43.966667
    },
    {
      "cityName": "Baixão do Capim",
      "lat": -3.167222,
      "lng": -42.263889
    },
    {
      "cityName": "Baixão do Cedro",
      "lat": -3.296944,
      "lng": -42.258611
    },
    {
      "cityName": "Baixão do Centro",
      "lat": -3.1125,
      "lng": -42.033889
    },
    {
      "cityName": "Baixão Grande",
      "lat": -3.866944,
      "lng": -43.260278
    },
    {
      "cityName": "Baixão I",
      "lat": -3.088889,
      "lng": -43.4825
    },
    {
      "cityName": "Baixão II",
      "lat": -3.299444,
      "lng": -42.228889
    },
    {
      "cityName": "Baixão III",
      "lat": -3.101944,
      "lng": -43.114722
    },
    {
      "cityName": "Baixão IV",
      "lat": -3.135,
      "lng": -43.303056
    },
    {
      "cityName": "Baixas",
      "lat": -5.433333,
      "lng": -43.05
    },
    {
      "cityName": "Baixinha",
      "lat": -3.811389,
      "lng": -43.063056
    },
    {
      "cityName": "Baixinha dos Flores",
      "lat": -3.8025,
      "lng": -43.0475
    },
    {
      "cityName": "Baixinha I",
      "lat": -3.412778,
      "lng": -43.494722
    },
    {
      "cityName": "Baixinha II",
      "lat": -3.286389,
      "lng": -43.188333
    },
    {
      "cityName": "Baixío dos Curimatás",
      "lat": -3.333333,
      "lng": -45.316667
    },
    {
      "cityName": "Baixo Mearim",
      "lat": -3.466667,
      "lng": -44.883333
    },
    {
      "cityName": "Balaiada",
      "lat": -3.866667,
      "lng": -44.183333
    },
    {
      "cityName": "Balsa",
      "lat": -5.666667,
      "lng": -43.083333
    },
    {
      "cityName": "Balsas",
      "lat": -7.516667,
      "lng": -46.033333
    },
    {
      "cityName": "Balseiro",
      "lat": -3.774167,
      "lng": -43.439722
    },
    {
      "cityName": "Banana",
      "lat": -3.645278,
      "lng": -43.459444
    },
    {
      "cityName": "Bananal",
      "lat": -3.994167,
      "lng": -43.118333
    },
    {
      "cityName": "Bananeira",
      "lat": -3.838611,
      "lng": -43.352778
    },
    {
      "cityName": "Bandá",
      "lat": -3.931667,
      "lng": -42.815
    },
    {
      "cityName": "Bandeira",
      "lat": -3.503333,
      "lng": -42.995
    },
    {
      "cityName": "Bandolim",
      "lat": -3.782778,
      "lng": -42.901667
    },
    {
      "cityName": "Bangüé",
      "lat": -3.826944,
      "lng": -43.3425
    },
    {
      "cityName": "Barão de Grajahú",
      "lat": -6.75,
      "lng": -43.016667
    },
    {
      "cityName": "Barão de Tromaí",
      "lat": -1.483333,
      "lng": -45.6
    },
    {
      "cityName": "Barra",
      "lat": -3.458056,
      "lng": -42.790278
    },
    {
      "cityName": "Barraca da Forquilha",
      "lat": -3.383333,
      "lng": -42.7
    },
    {
      "cityName": "Barracão",
      "lat": -4.083333,
      "lng": -43.016667
    },
    {
      "cityName": "Barra Comprida",
      "lat": -9.35,
      "lng": -46
    },
    {
      "cityName": "Barra da Campineira",
      "lat": -3.431389,
      "lng": -43.054722
    },
    {
      "cityName": "Barra da Estiva",
      "lat": -3.116111,
      "lng": -42.365833
    },
    {
      "cityName": "Barra da Onça",
      "lat": -3.4,
      "lng": -42.783333
    },
    {
      "cityName": "Barra da Prata",
      "lat": -3.086944,
      "lng": -43.371667
    },
    {
      "cityName": "Barra da Roça",
      "lat": -8.238611,
      "lng": -45.655278
    },
    {
      "cityName": "Barradas",
      "lat": -3.483333,
      "lng": -45.183333
    },
    {
      "cityName": "Barra das Corvinas",
      "lat": -3.628333,
      "lng": -42.636389
    },
    {
      "cityName": "Barra do Caburé",
      "lat": -3.558333,
      "lng": -43.279444
    },
    {
      "cityName": "Barra do Cedro",
      "lat": -3.576667,
      "lng": -43.327778
    },
    {
      "cityName": "Barra do Corda",
      "lat": -5.5,
      "lng": -45.25
    },
    {
      "cityName": "Barra do Garapa",
      "lat": -5.45,
      "lng": -42.966667
    },
    {
      "cityName": "Barra do Ingá",
      "lat": -5.516667,
      "lng": -43
    },
    {
      "cityName": "Barra do Jacu",
      "lat": -3.559722,
      "lng": -43.150833
    },
    {
      "cityName": "Barra do Macaco",
      "lat": -3.538056,
      "lng": -43.098333
    },
    {
      "cityName": "Barra do Riachão",
      "lat": -3.554167,
      "lng": -43.389167
    },
    {
      "cityName": "Barra do Rio",
      "lat": -3.434167,
      "lng": -42.708611
    },
    {
      "cityName": "Barra dos Currais",
      "lat": -3.522222,
      "lng": -43.130278
    },
    {
      "cityName": "Barra do Sítio",
      "lat": -3.136111,
      "lng": -43.101944
    },
    {
      "cityName": "Barra do Tapera",
      "lat": -5.433333,
      "lng": -42.933333
    },
    {
      "cityName": "Barra Funda",
      "lat": -3.066667,
      "lng": -42.3
    },
    {
      "cityName": "Barra Grande",
      "lat": -3.3475,
      "lng": -43.476667
    },
    {
      "cityName": "Barra I",
      "lat": -3.393611,
      "lng": -43.430556
    },
    {
      "cityName": "Barra II",
      "lat": -3.321111,
      "lng": -43.456111
    },
    {
      "cityName": "Barra Logo",
      "lat": -8.216667,
      "lng": -45.75
    },
    {
      "cityName": "Barra Nova",
      "lat": -3.876389,
      "lng": -43.326111
    },
    {
      "cityName": "Barra Velha",
      "lat": -3.534722,
      "lng": -43.314444
    },
    {
      "cityName": "Barreira",
      "lat": -3.470556,
      "lng": -42.534722
    },
    {
      "cityName": "Barreira do Mato",
      "lat": -5.933333,
      "lng": -43.45
    },
    {
      "cityName": "Barreira Funda",
      "lat": -3.879722,
      "lng": -43.411944
    },
    {
      "cityName": "Barreiras",
      "lat": -2.868056,
      "lng": -41.9125
    },
    {
      "cityName": "Barreirinha",
      "lat": -4.233333,
      "lng": -44.233333
    },
    {
      "cityName": "Barreirinhas",
      "lat": -2.75,
      "lng": -42.833333
    },
    {
      "cityName": "Barreiro",
      "lat": -3.210833,
      "lng": -43.335833
    },
    {
      "cityName": "Barrera",
      "lat": -7.9,
      "lng": -47
    },
    {
      "cityName": "Barriguda",
      "lat": -3.083333,
      "lng": -44.116667
    },
    {
      "cityName": "Barrinha",
      "lat": -4.216667,
      "lng": -43.233333
    },
    {
      "cityName": "Barro",
      "lat": -3.083333,
      "lng": -45.416667
    },
    {
      "cityName": "Barro Branco",
      "lat": -3.805833,
      "lng": -43.3275
    },
    {
      "cityName": "Barroca",
      "lat": -3.712778,
      "lng": -43.188611
    },
    {
      "cityName": "Barroca da Vaca",
      "lat": -3.720278,
      "lng": -43.480556
    },
    {
      "cityName": "Barrocão",
      "lat": -3.123056,
      "lng": -43.095556
    },
    {
      "cityName": "Barrocão de Baixo",
      "lat": -3.682222,
      "lng": -43.35
    },
    {
      "cityName": "Barrocão de Cima",
      "lat": -3.675278,
      "lng": -43.361389
    },
    {
      "cityName": "Barrocão I",
      "lat": -3.409444,
      "lng": -43.138889
    },
    {
      "cityName": "Barrocão II",
      "lat": -3.395,
      "lng": -43.133611
    },
    {
      "cityName": "Barro Duro",
      "lat": -2.866667,
      "lng": -42.283333
    },
    {
      "cityName": "Barroquinha",
      "lat": -3.362222,
      "lng": -42.719722
    },
    {
      "cityName": "Barro Vermelho",
      "lat": -3.701111,
      "lng": -42.743889
    },
    {
      "cityName": "Bastos",
      "lat": -3.561389,
      "lng": -42.996111
    },
    {
      "cityName": "Batalha",
      "lat": -5.866667,
      "lng": -43.916667
    },
    {
      "cityName": "Batalha Velha",
      "lat": -6.383333,
      "lng": -43.216667
    },
    {
      "cityName": "Bate-Vento",
      "lat": -1.3,
      "lng": -44.9
    },
    {
      "cityName": "Baturité",
      "lat": -1.983333,
      "lng": -44.783333
    },
    {
      "cityName": "Bau",
      "lat": -5.25,
      "lng": -43.433333
    },
    {
      "cityName": "Bebedouro",
      "lat": -2.466667,
      "lng": -44.766667
    },
    {
      "cityName": "Bebedouro de São Pedro",
      "lat": -3.25,
      "lng": -42.116667
    },
    {
      "cityName": "Bebedouro I",
      "lat": -3.473889,
      "lng": -43.381389
    },
    {
      "cityName": "Bebedouro II",
      "lat": -3.326667,
      "lng": -43.070833
    },
    {
      "cityName": "Bebedouro III",
      "lat": -3.555,
      "lng": -43.090833
    },
    {
      "cityName": "Bebedovro",
      "lat": -6.166667,
      "lng": -43.1
    },
    {
      "cityName": "Bebida Nova",
      "lat": -3.932778,
      "lng": -42.976944
    },
    {
      "cityName": "Bela Estrêla",
      "lat": -5.483333,
      "lng": -46.183333
    },
    {
      "cityName": "Belágua",
      "lat": -3.005,
      "lng": -42.448333
    },
    {
      "cityName": "Bela Vista",
      "lat": -3.401389,
      "lng": -43.222778
    },
    {
      "cityName": "Belém",
      "lat": -1.85,
      "lng": -44.8
    },
    {
      "cityName": "Bem-Quer",
      "lat": -6.683333,
      "lng": -42.983333
    },
    {
      "cityName": "Benedicto Leite",
      "lat": -7.216667,
      "lng": -44.566667
    },
    {
      "cityName": "Bequimão",
      "lat": -2.433333,
      "lng": -44.783333
    },
    {
      "cityName": "Bernardo",
      "lat": -4.616667,
      "lng": -44.916667
    },
    {
      "cityName": "Besta Morta",
      "lat": -3.111389,
      "lng": -42.379722
    },
    {
      "cityName": "Bexiga",
      "lat": -3.7875,
      "lng": -42.7375
    },
    {
      "cityName": "Biaxão do Côco",
      "lat": -5.483333,
      "lng": -43.466667
    },
    {
      "cityName": "Bica",
      "lat": -3.955,
      "lng": -43.154444
    },
    {
      "cityName": "Bicuíba",
      "lat": -3.4325,
      "lng": -42.598333
    },
    {
      "cityName": "Bicuída",
      "lat": -3.287778,
      "lng": -42.333333
    },
    {
      "cityName": "Boa Esperança",
      "lat": -1.683333,
      "lng": -44.966667
    },
    {
      "cityName": "Boa Esperança do Mearim",
      "lat": -4.883333,
      "lng": -44.883333
    },
    {
      "cityName": "Boa Hora",
      "lat": -3.2525,
      "lng": -42.938056
    },
    {
      "cityName": "Boa Morada",
      "lat": -7.766667,
      "lng": -45.5
    },
    {
      "cityName": "Boa Razão",
      "lat": -3.610556,
      "lng": -43.307778
    },
    {
      "cityName": "Boa Sorte",
      "lat": -8.55,
      "lng": -46.5
    },
    {
      "cityName": "Boa Vista",
      "lat": -3.216667,
      "lng": -42.566667
    },
    {
      "cityName": "Boa Vista do Pindaré",
      "lat": -3.4,
      "lng": -44.983333
    },
    {
      "cityName": "Boca da Barra II",
      "lat": -3.444722,
      "lng": -42.394722
    },
    {
      "cityName": "Boca da Mata",
      "lat": -3.720833,
      "lng": -42.731111
    },
    {
      "cityName": "Boca da Picada",
      "lat": -3.41,
      "lng": -42.6
    },
    {
      "cityName": "Boião",
      "lat": -3.268611,
      "lng": -43.494167
    },
    {
      "cityName": "Boi",
      "lat": -3.028056,
      "lng": -43.034722
    },
    {
      "cityName": "Bola",
      "lat": -5.083333,
      "lng": -43.233333
    },
    {
      "cityName": "Bomfim",
      "lat": -3.305278,
      "lng": -43.135278
    },
    {
      "cityName": "Bom Gôsto",
      "lat": -2.85,
      "lng": -43.95
    },
    {
      "cityName": "Bom Jardim",
      "lat": -7.016667,
      "lng": -46.483333
    },
    {
      "cityName": "Bom Jesus",
      "lat": -3.283611,
      "lng": -43.136111
    },
    {
      "cityName": "Bom Jesus I",
      "lat": -3.9525,
      "lng": -42.970278
    },
    {
      "cityName": "Bom Jesus II",
      "lat": -3.963611,
      "lng": -42.971667
    },
    {
      "cityName": "Bom Jesus Velho",
      "lat": -3.845556,
      "lng": -43.241111
    },
    {
      "cityName": "Bom Lugar",
      "lat": -4.333333,
      "lng": -44.966667
    },
    {
      "cityName": "Bom Princípio",
      "lat": -3.250556,
      "lng": -43.118611
    },
    {
      "cityName": "Bom Sossego",
      "lat": -3.401111,
      "lng": -43.211944
    },
    {
      "cityName": "Bom Sucesso",
      "lat": -3.6,
      "lng": -43.366667
    },
    {
      "cityName": "Bom Tempo",
      "lat": -2.933333,
      "lng": -44.15
    },
    {
      "cityName": "Bondade",
      "lat": -7.433333,
      "lng": -46.4
    },
    {
      "cityName": "Bonfim",
      "lat": -2.983333,
      "lng": -45.2
    },
    {
      "cityName": "Bonfim de Arari",
      "lat": -3.433333,
      "lng": -44.783333
    },
    {
      "cityName": "Bonfim I",
      "lat": -3.686111,
      "lng": -43.395556
    },
    {
      "cityName": "Bonfim II",
      "lat": -3.677222,
      "lng": -43.381111
    },
    {
      "cityName": "Bonfim III",
      "lat": -3.914167,
      "lng": -43.305
    },
    {
      "cityName": "Bonilha",
      "lat": -5.2,
      "lng": -43.216667
    },
    {
      "cityName": "Bonitão",
      "lat": -5.483333,
      "lng": -43.416667
    },
    {
      "cityName": "Bonito",
      "lat": -5.383333,
      "lng": -43.233333
    },
    {
      "cityName": "Boqueirão",
      "lat": -3.695,
      "lng": -43.4775
    },
    {
      "cityName": "Boqueirão do Fabrício",
      "lat": -3.582222,
      "lng": -43.301944
    },
    {
      "cityName": "Boqueirão do Gado",
      "lat": -3.577778,
      "lng": -43.255278
    },
    {
      "cityName": "Boqueirãozinho",
      "lat": -3.685278,
      "lng": -43.495833
    },
    {
      "cityName": "Borá",
      "lat": -9.833333,
      "lng": -46.1
    },
    {
      "cityName": "Borges",
      "lat": -5.25,
      "lng": -43.116667
    },
    {
      "cityName": "Borracha",
      "lat": -3.083889,
      "lng": -42.296111
    },
    {
      "cityName": "Borrachudo",
      "lat": -3.294444,
      "lng": -42.347778
    },
    {
      "cityName": "Bracinho",
      "lat": -3.31,
      "lng": -43.089722
    },
    {
      "cityName": "Brandura",
      "lat": -3.033333,
      "lng": -43.45
    },
    {
      "cityName": "Brasília",
      "lat": -3.443889,
      "lng": -42.485556
    },
    {
      "cityName": "Breio de São Félix",
      "lat": -5.483333,
      "lng": -43.5
    },
    {
      "cityName": "Brejão",
      "lat": -3.512222,
      "lng": -43.195833
    },
    {
      "cityName": "Brejinho",
      "lat": -3.511111,
      "lng": -43.178611
    },
    {
      "cityName": "Brejinho do Ismael",
      "lat": -5.883333,
      "lng": -43.283333
    },
    {
      "cityName": "Brejo",
      "lat": -3.683333,
      "lng": -42.783333
    },
    {
      "cityName": "Brejo da Porta",
      "lat": -8.499722,
      "lng": -45.738056
    },
    {
      "cityName": "Brejo de São Félix",
      "lat": -5.4,
      "lng": -43.4
    },
    {
      "cityName": "Brejo Escuro",
      "lat": -9,
      "lng": -46.016667
    },
    {
      "cityName": "Brejo Redondo",
      "lat": -6.45,
      "lng": -46.95
    },
    {
      "cityName": "Brilhante",
      "lat": -6.316667,
      "lng": -43.1
    },
    {
      "cityName": "Brocós",
      "lat": -5.083333,
      "lng": -43.816667
    },
    {
      "cityName": "Buenos Aires",
      "lat": -2.85,
      "lng": -43.533333
    },
    {
      "cityName": "Buriti Bravo",
      "lat": -5.833333,
      "lng": -43.833333
    },
    {
      "cityName": "Buriti",
      "lat": -3.916667,
      "lng": -42.95
    },
    {
      "cityName": "Buriti Cercado",
      "lat": -6.533333,
      "lng": -43.083333
    },
    {
      "cityName": "Buriti Cortado",
      "lat": -5.183333,
      "lng": -43.1
    },
    {
      "cityName": "Buriti da Aurora",
      "lat": -3.991389,
      "lng": -43.435278
    },
    {
      "cityName": "Buriti do Estevam",
      "lat": -3.783333,
      "lng": -43.259722
    },
    {
      "cityName": "Buriti dos Correias",
      "lat": -3.908056,
      "lng": -43.358889
    },
    {
      "cityName": "Buriti Frio",
      "lat": -5.333333,
      "lng": -43.45
    },
    {
      "cityName": "Buriti Grande",
      "lat": -6.166667,
      "lng": -47.166667
    },
    {
      "cityName": "Buritirana",
      "lat": -3.368611,
      "lng": -43.021111
    },
    {
      "cityName": "Buriti Redondo",
      "lat": -3.082778,
      "lng": -42.258333
    },
    {
      "cityName": "Buriti Seco",
      "lat": -3.266389,
      "lng": -42.788889
    },
    {
      "cityName": "Buriti Torto",
      "lat": -5.283333,
      "lng": -46.016667
    },
    {
      "cityName": "Buritizal",
      "lat": -3.407222,
      "lng": -43.413333
    },
    {
      "cityName": "Buritizeiro",
      "lat": -3.810278,
      "lng": -43.363333
    },
    {
      "cityName": "Buritizinho",
      "lat": -2.95,
      "lng": -42.183333
    },
    {
      "cityName": "Buritizinho I",
      "lat": -3.570556,
      "lng": -43.088611
    },
    {
      "cityName": "Buritizinho II",
      "lat": -3.315833,
      "lng": -43.134722
    },
    {
      "cityName": "Cabeça",
      "lat": -5,
      "lng": -43.4
    },
    {
      "cityName": "Cabeça do Cavalo",
      "lat": -3.878889,
      "lng": -42.989444
    },
    {
      "cityName": "Cabeça Quebrada",
      "lat": -3.695278,
      "lng": -42.785
    },
    {
      "cityName": "Cabeceira",
      "lat": -3.098056,
      "lng": -42.940833
    },
    {
      "cityName": "Cabeceira da Bacaba",
      "lat": -5.1,
      "lng": -43.15
    },
    {
      "cityName": "Cabeceira da Boa Hora",
      "lat": -3.284722,
      "lng": -42.931944
    },
    {
      "cityName": "Cabeceira da Laje",
      "lat": -7.216667,
      "lng": -47.25
    },
    {
      "cityName": "Cabeceira do Corda",
      "lat": -6.55,
      "lng": -43.216667
    },
    {
      "cityName": "Cabeceirinha",
      "lat": -6.983333,
      "lng": -47.05
    },
    {
      "cityName": "Caboba",
      "lat": -3.009444,
      "lng": -42.577778
    },
    {
      "cityName": "Caboré",
      "lat": -3.795833,
      "lng": -42.756944
    },
    {
      "cityName": "Caburé",
      "lat": -3.573889,
      "lng": -43.275833
    },
    {
      "cityName": "Cacaual",
      "lat": -1.983333,
      "lng": -46.216667
    },
    {
      "cityName": "Cacete",
      "lat": -5.1,
      "lng": -45.333333
    },
    {
      "cityName": "Cachimbo",
      "lat": -5.883333,
      "lng": -44.316667
    },
    {
      "cityName": "Cachirimbu",
      "lat": -5.083333,
      "lng": -43.416667
    },
    {
      "cityName": "Cachoeira",
      "lat": -3.057222,
      "lng": -42.755278
    },
    {
      "cityName": "Cachoeirinha",
      "lat": -1.616667,
      "lng": -45.1
    },
    {
      "cityName": "Cachucha",
      "lat": -4.2,
      "lng": -44.516667
    },
    {
      "cityName": "Cacimba I",
      "lat": -3.941667,
      "lng": -43.041389
    },
    {
      "cityName": "Cacimba II",
      "lat": -3.957222,
      "lng": -43.038333
    },
    {
      "cityName": "Cacimbinha",
      "lat": -3.248056,
      "lng": -43.325
    },
    {
      "cityName": "Caçozinho",
      "lat": -3.015278,
      "lng": -43.304444
    },
    {
      "cityName": "Cadoz",
      "lat": -3.444722,
      "lng": -42.723056
    },
    {
      "cityName": "Caetano",
      "lat": -9.566667,
      "lng": -45.85
    },
    {
      "cityName": "Cafèzal",
      "lat": -3,
      "lng": -44.983333
    },
    {
      "cityName": "Cafundó",
      "lat": -3.605,
      "lng": -43.442778
    },
    {
      "cityName": "Cágado",
      "lat": -5.883333,
      "lng": -43.966667
    },
    {
      "cityName": "Caiana",
      "lat": -3.835833,
      "lng": -42.829722
    },
    {
      "cityName": "Caieira",
      "lat": -4.9,
      "lng": -42.983333
    },
    {
      "cityName": "Caiteuara",
      "lat": -1.683333,
      "lng": -45.5
    },
    {
      "cityName": "Cajari",
      "lat": -3.333333,
      "lng": -45.016667
    },
    {
      "cityName": "Cajàzeira",
      "lat": -5.05,
      "lng": -43.45
    },
    {
      "cityName": "Cajazeiras",
      "lat": -3.117222,
      "lng": -42.376389
    },
    {
      "cityName": "Caju",
      "lat": -6.066667,
      "lng": -43.183333
    },
    {
      "cityName": "Cajueiro",
      "lat": -2.833333,
      "lng": -46.566667
    },
    {
      "cityName": "Cajuí",
      "lat": -3.715278,
      "lng": -43.458333
    },
    {
      "cityName": "Calabar",
      "lat": -3.354444,
      "lng": -43.421944
    },
    {
      "cityName": "Calabouço",
      "lat": -1.866667,
      "lng": -44.7
    },
    {
      "cityName": "Calçados",
      "lat": -3.639167,
      "lng": -42.718333
    },
    {
      "cityName": "Caldeirão",
      "lat": -3.675278,
      "lng": -43.448056
    },
    {
      "cityName": "Caldeirão de Baixo",
      "lat": -3.961667,
      "lng": -43.345833
    },
    {
      "cityName": "Caldeirão de Cima",
      "lat": -3.962222,
      "lng": -43.364722
    },
    {
      "cityName": "Califórnia",
      "lat": -3.216667,
      "lng": -46.766667
    },
    {
      "cityName": "Calumbi",
      "lat": -3.902222,
      "lng": -43.036389
    },
    {
      "cityName": "Camacaoca",
      "lat": -3.666667,
      "lng": -45.633333
    },
    {
      "cityName": "Camaçari",
      "lat": -5.266667,
      "lng": -47.366667
    },
    {
      "cityName": "Camboatá",
      "lat": -3.744444,
      "lng": -42.794167
    },
    {
      "cityName": "Cambotá",
      "lat": -3.448333,
      "lng": -42.7925
    },
    {
      "cityName": "Cambotas",
      "lat": -3.133333,
      "lng": -42.75
    },
    {
      "cityName": "Cambuí",
      "lat": -9.173889,
      "lng": -46.2
    },
    {
      "cityName": "Cametá",
      "lat": -8.983333,
      "lng": -46.4
    },
    {
      "cityName": "Caminho Novo",
      "lat": -3.8475,
      "lng": -42.766944
    },
    {
      "cityName": "Campanha",
      "lat": -3.483333,
      "lng": -44.45
    },
    {
      "cityName": "Campeira",
      "lat": -9.492222,
      "lng": -45.931389
    },
    {
      "cityName": "Campeiro",
      "lat": -9.316667,
      "lng": -45.95
    },
    {
      "cityName": "Campelo",
      "lat": -4.433333,
      "lng": -44.7
    },
    {
      "cityName": "Campestre",
      "lat": -3.536667,
      "lng": -43.134722
    },
    {
      "cityName": "Campestre I",
      "lat": -3.8025,
      "lng": -42.780833
    },
    {
      "cityName": "Campestre II",
      "lat": -3.868611,
      "lng": -42.780278
    },
    {
      "cityName": "Campina",
      "lat": -7.65,
      "lng": -46.566667
    },
    {
      "cityName": "Campineira I",
      "lat": -3.43,
      "lng": -43.035278
    },
    {
      "cityName": "Campinho",
      "lat": -1.716667,
      "lng": -46.216667
    },
    {
      "cityName": "Campo Alegre",
      "lat": -5.283333,
      "lng": -46.366667
    },
    {
      "cityName": "Campo",
      "lat": -5,
      "lng": -43.466667
    },
    {
      "cityName": "Campo Comprido",
      "lat": -3.966667,
      "lng": -42.884444
    },
    {
      "cityName": "Campo Grande",
      "lat": -3.663056,
      "lng": -42.726111
    },
    {
      "cityName": "Campo Largo",
      "lat": -6.383333,
      "lng": -44.983333
    },
    {
      "cityName": "Campo Novo",
      "lat": -4.7,
      "lng": -45.9
    },
    {
      "cityName": "Campo Redondo",
      "lat": -3.703889,
      "lng": -43.378333
    },
    {
      "cityName": "Campos Novos",
      "lat": -3.770278,
      "lng": -43.369722
    },
    {
      "cityName": "Cana Brava",
      "lat": -3.080556,
      "lng": -42.228333
    },
    {
      "cityName": "Cana-Brava",
      "lat": -6.283333,
      "lng": -42.983333
    },
    {
      "cityName": "Cana Brava II",
      "lat": -3.0775,
      "lng": -42.280556
    },
    {
      "cityName": "Cana Brava III",
      "lat": -3.205,
      "lng": -42.193333
    },
    {
      "cityName": "Cana",
      "lat": -6.65,
      "lng": -42.916667
    },
    {
      "cityName": "Canadá",
      "lat": -1.65,
      "lng": -44.9
    },
    {
      "cityName": "Canafístula",
      "lat": -3.866944,
      "lng": -43.468611
    },
    {
      "cityName": "Cananéa",
      "lat": -4.516667,
      "lng": -44.35
    },
    {
      "cityName": "Canarana",
      "lat": -4.45,
      "lng": -44.533333
    },
    {
      "cityName": "Canárias",
      "lat": -2.766944,
      "lng": -41.850833
    },
    {
      "cityName": "Cancela",
      "lat": -3.1,
      "lng": -42.978611
    },
    {
      "cityName": "Candeias",
      "lat": -3.101389,
      "lng": -42.092222
    },
    {
      "cityName": "Cândido Mendes",
      "lat": -1.45,
      "lng": -45.716667
    },
    {
      "cityName": "Cangica",
      "lat": -7.966667,
      "lng": -46.95
    },
    {
      "cityName": "Cangote",
      "lat": -3.733333,
      "lng": -44.966667
    },
    {
      "cityName": "Canoa",
      "lat": -5.283333,
      "lng": -43.083333
    },
    {
      "cityName": "Canoa Grande",
      "lat": -5.366667,
      "lng": -46.016667
    },
    {
      "cityName": "Cantanhede",
      "lat": -3.65,
      "lng": -44.4
    },
    {
      "cityName": "Cantão",
      "lat": -9.733333,
      "lng": -46.383333
    },
    {
      "cityName": "Cantinho",
      "lat": -3.412778,
      "lng": -42.6325
    },
    {
      "cityName": "Cantinho II",
      "lat": -3.856111,
      "lng": -43.274722
    },
    {
      "cityName": "Canto Alegre",
      "lat": -5.083333,
      "lng": -42.95
    },
    {
      "cityName": "Canto Bom",
      "lat": -3.818056,
      "lng": -43.328333
    },
    {
      "cityName": "Canto da Passagem",
      "lat": -3.364722,
      "lng": -42.464444
    },
    {
      "cityName": "Canto da Porta",
      "lat": -3.425556,
      "lng": -42.456944
    },
    {
      "cityName": "Canto da Serra",
      "lat": -6.283333,
      "lng": -43.383333
    },
    {
      "cityName": "Canto de Areia",
      "lat": -7.366667,
      "lng": -44.8
    },
    {
      "cityName": "Canto do Araçá",
      "lat": -3.731111,
      "lng": -43.410833
    },
    {
      "cityName": "Canto do Boi",
      "lat": -3.847222,
      "lng": -43.456389
    },
    {
      "cityName": "Canto do Morcego",
      "lat": -3.391111,
      "lng": -42.188333
    },
    {
      "cityName": "Canto do Rodeio",
      "lat": -3.444444,
      "lng": -42.524444
    },
    {
      "cityName": "Canto do Saco",
      "lat": -3.146111,
      "lng": -42.019444
    },
    {
      "cityName": "Canto dos Bois",
      "lat": -3.773889,
      "lng": -43.360278
    },
    {
      "cityName": "Canto dos Negros",
      "lat": -3.670278,
      "lng": -42.975
    },
    {
      "cityName": "Canto Fundo",
      "lat": -3.766111,
      "lng": -43.285
    },
    {
      "cityName": "Canto Grande",
      "lat": -3.105833,
      "lng": -43.425
    },
    {
      "cityName": "Canto Grande III",
      "lat": -3.271944,
      "lng": -42.238333
    },
    {
      "cityName": "Canto Sujo",
      "lat": -3.160556,
      "lng": -42.544722
    },
    {
      "cityName": "Capão",
      "lat": -3.8525,
      "lng": -43.086667
    },
    {
      "cityName": "Capão Grande",
      "lat": -3.671944,
      "lng": -43.161667
    },
    {
      "cityName": "Capão I",
      "lat": -3.373889,
      "lng": -43.248056
    },
    {
      "cityName": "Capão II",
      "lat": -3.329167,
      "lng": -42.975278
    },
    {
      "cityName": "Capãozinho",
      "lat": -3.346111,
      "lng": -42.812778
    },
    {
      "cityName": "Capim-Açu",
      "lat": -3.116667,
      "lng": -43.666667
    },
    {
      "cityName": "Capinal",
      "lat": -3.355278,
      "lng": -43.4775
    },
    {
      "cityName": "Capínal I",
      "lat": -3.630556,
      "lng": -43.481944
    },
    {
      "cityName": "Capínal II",
      "lat": -3.826667,
      "lng": -43.217222
    },
    {
      "cityName": "Capira",
      "lat": -3.136667,
      "lng": -43.393333
    },
    {
      "cityName": "Capitão de Campo",
      "lat": -3.903333,
      "lng": -43.496389
    },
    {
      "cityName": "Capitão de Campos",
      "lat": -3.989167,
      "lng": -42.873333
    },
    {
      "cityName": "Capoeira",
      "lat": -3.25,
      "lng": -45.25
    },
    {
      "cityName": "Capoeira Grande",
      "lat": -1.85,
      "lng": -45.433333
    },
    {
      "cityName": "Caraíba",
      "lat": -3.067222,
      "lng": -42.178333
    },
    {
      "cityName": "Caraíba do Norte",
      "lat": -6.416667,
      "lng": -42.883333
    },
    {
      "cityName": "Caraíbas",
      "lat": -3.433333,
      "lng": -42.983333
    },
    {
      "cityName": "Caranandiua",
      "lat": -1.45,
      "lng": -46.15
    },
    {
      "cityName": "Carao",
      "lat": -6.45,
      "lng": -42.866667
    },
    {
      "cityName": "Carará",
      "lat": -3.5,
      "lng": -45.25
    },
    {
      "cityName": "Caratatiua",
      "lat": -1.633333,
      "lng": -45.233333
    },
    {
      "cityName": "Caridade",
      "lat": -3.592222,
      "lng": -43.276389
    },
    {
      "cityName": "Carioca",
      "lat": -3.057778,
      "lng": -42.425556
    },
    {
      "cityName": "Carmo",
      "lat": -3.483333,
      "lng": -44.833333
    },
    {
      "cityName": "Carnaíba",
      "lat": -3.934167,
      "lng": -43.429444
    },
    {
      "cityName": "Carnaúba Amarela",
      "lat": -3.861667,
      "lng": -43.326944
    },
    {
      "cityName": "Carnaúba",
      "lat": -3.619444,
      "lng": -42.985278
    },
    {
      "cityName": "Carnaúba de Pedra",
      "lat": -5.016667,
      "lng": -42.966667
    },
    {
      "cityName": "Carnaubal",
      "lat": -3.366667,
      "lng": -44.783333
    },
    {
      "cityName": "Carnaubeira",
      "lat": -2.833611,
      "lng": -41.964167
    },
    {
      "cityName": "Carnaubinha",
      "lat": -3.775,
      "lng": -43.389167
    },
    {
      "cityName": "Caroará",
      "lat": -4.133333,
      "lng": -43.3
    },
    {
      "cityName": "Carobinha",
      "lat": -3.8125,
      "lng": -42.761944
    },
    {
      "cityName": "Carolina",
      "lat": -7.333333,
      "lng": -47.466667
    },
    {
      "cityName": "Carranca",
      "lat": -3.911944,
      "lng": -43.033611
    },
    {
      "cityName": "Carrapato",
      "lat": -3.661389,
      "lng": -42.840833
    },
    {
      "cityName": "Carrascão",
      "lat": -3.636944,
      "lng": -43.225556
    },
    {
      "cityName": "Carretão",
      "lat": -9.45,
      "lng": -46.166667
    },
    {
      "cityName": "Caruara",
      "lat": -3.4425,
      "lng": -42.652222
    },
    {
      "cityName": "Caruru",
      "lat": -4.766667,
      "lng": -46.583333
    },
    {
      "cityName": "Carutapera",
      "lat": -1.216667,
      "lng": -46.016667
    },
    {
      "cityName": "Cascata",
      "lat": -8.709444,
      "lng": -46.720556
    },
    {
      "cityName": "Cascudo",
      "lat": -3.125,
      "lng": -43.388889
    },
    {
      "cityName": "Cassó",
      "lat": -3.016667,
      "lng": -43.35
    },
    {
      "cityName": "Castelo",
      "lat": -3.5,
      "lng": -45.533333
    },
    {
      "cityName": "Catete",
      "lat": -5.583333,
      "lng": -45.4
    },
    {
      "cityName": "Catinguinha",
      "lat": -3.346944,
      "lng": -42.374167
    },
    {
      "cityName": "Catipé",
      "lat": -3.119167,
      "lng": -42.403333
    },
    {
      "cityName": "Cauarrú",
      "lat": -5.1,
      "lng": -43.85
    },
    {
      "cityName": "Cavaca",
      "lat": -3.826944,
      "lng": -43.419722
    },
    {
      "cityName": "Cavalos",
      "lat": -9.9,
      "lng": -46.316667
    },
    {
      "cityName": "Cavianã",
      "lat": -3.561944,
      "lng": -42.705
    },
    {
      "cityName": "Caxias",
      "lat": -4.833333,
      "lng": -43.35
    },
    {
      "cityName": "Caxingó",
      "lat": -3.620556,
      "lng": -42.655278
    },
    {
      "cityName": "Ceará",
      "lat": -1.75,
      "lng": -44.833333
    },
    {
      "cityName": "Cedro",
      "lat": -2.533333,
      "lng": -43.55
    },
    {
      "cityName": "Centro",
      "lat": -3.125278,
      "lng": -42.7375
    },
    {
      "cityName": "Centro da Água Branca",
      "lat": -3.902778,
      "lng": -43.261944
    },
    {
      "cityName": "Centro da Água Rica",
      "lat": -3.7025,
      "lng": -43.036667
    },
    {
      "cityName": "Centro da Mata da Varjota",
      "lat": -3.986389,
      "lng": -43.415278
    },
    {
      "cityName": "Centro da Sabina",
      "lat": -3.428333,
      "lng": -43.143333
    },
    {
      "cityName": "Centro do Diamante",
      "lat": -5.283333,
      "lng": -43.333333
    },
    {
      "cityName": "Centro dos Abreus",
      "lat": -3.671667,
      "lng": -42.847222
    },
    {
      "cityName": "Centro do Santo Antônio",
      "lat": -3.375278,
      "lng": -43.495556
    },
    {
      "cityName": "Centro dos Boas",
      "lat": -4.066667,
      "lng": -45.166667
    },
    {
      "cityName": "Centro dos Ferreiras",
      "lat": -3.639722,
      "lng": -43.443333
    },
    {
      "cityName": "Centro dos Gomes",
      "lat": -3.744722,
      "lng": -43.183611
    },
    {
      "cityName": "Centro dos Jerônímos",
      "lat": -3.656944,
      "lng": -43.311667
    },
    {
      "cityName": "Centro dos Jonas",
      "lat": -3.666389,
      "lng": -43.320556
    },
    {
      "cityName": "Centro dos Lopes",
      "lat": -3.673889,
      "lng": -43.330278
    },
    {
      "cityName": "Centro dos Messias",
      "lat": -3.813333,
      "lng": -43.232778
    },
    {
      "cityName": "Centro dos Montéis",
      "lat": -3.7275,
      "lng": -43.196667
    },
    {
      "cityName": "Centro dos Paulos",
      "lat": -3.578611,
      "lng": -43.453056
    },
    {
      "cityName": "Centro dos Teixeiras",
      "lat": -3.643333,
      "lng": -42.931944
    },
    {
      "cityName": "Centro Grande",
      "lat": -3.216667,
      "lng": -43.766667
    },
    {
      "cityName": "Centro I",
      "lat": -3.169167,
      "lng": -43.209722
    },
    {
      "cityName": "Centro II",
      "lat": -3.183889,
      "lng": -43.229444
    },
    {
      "cityName": "Centro III",
      "lat": -3.196944,
      "lng": -43.249167
    },
    {
      "cityName": "Centro José Machado",
      "lat": -4.366667,
      "lng": -45.033333
    },
    {
      "cityName": "Centro Novo",
      "lat": -4.233333,
      "lng": -44.183333
    },
    {
      "cityName": "Centro Sêco",
      "lat": -3.216667,
      "lng": -43.8
    },
    {
      "cityName": "Centro Velho",
      "lat": -3.775,
      "lng": -43.316944
    },
    {
      "cityName": "Chapada",
      "lat": -3.696389,
      "lng": -43.044722
    },
    {
      "cityName": "Chapada do Meio",
      "lat": -3.718889,
      "lng": -43.333333
    },
    {
      "cityName": "Chapada III",
      "lat": -3.385556,
      "lng": -42.4175
    },
    {
      "cityName": "Chapadão",
      "lat": -3.688333,
      "lng": -43.369444
    },
    {
      "cityName": "Chapadinha",
      "lat": -3.733333,
      "lng": -43.35
    },
    {
      "cityName": "Chapéu de Couro",
      "lat": -3.443056,
      "lng": -42.354722
    },
    {
      "cityName": "Chico Dias",
      "lat": -3.963889,
      "lng": -43.322222
    },
    {
      "cityName": "Chico Manoel",
      "lat": -3.828333,
      "lng": -43.450556
    },
    {
      "cityName": "Chinela",
      "lat": -7.766667,
      "lng": -46.033333
    },
    {
      "cityName": "Chiqueiro",
      "lat": -3.850278,
      "lng": -43.063056
    },
    {
      "cityName": "Chumbado",
      "lat": -6.116667,
      "lng": -43
    },
    {
      "cityName": "Cidade Nova",
      "lat": -3.688889,
      "lng": -43.286944
    },
    {
      "cityName": "Cigana",
      "lat": -2.583333,
      "lng": -45.366667
    },
    {
      "cityName": "Cigano",
      "lat": -3.956389,
      "lng": -43.248611
    },
    {
      "cityName": "Cinzeiro",
      "lat": -3.441111,
      "lng": -42.73
    },
    {
      "cityName": "Cipó",
      "lat": -3.968056,
      "lng": -43.342778
    },
    {
      "cityName": "Cipo de Fogo",
      "lat": -3.325,
      "lng": -43.489722
    },
    {
      "cityName": "Cipó III",
      "lat": -3.658056,
      "lng": -43.405
    },
    {
      "cityName": "Cláudio",
      "lat": -3.531944,
      "lng": -42.975833
    },
    {
      "cityName": "Cobra",
      "lat": -3.860556,
      "lng": -43.451389
    },
    {
      "cityName": "Cocal Grande",
      "lat": -3.796667,
      "lng": -43.337778
    },
    {
      "cityName": "Cocal I",
      "lat": -3.259167,
      "lng": -43.473889
    },
    {
      "cityName": "Cocal II",
      "lat": -3.494722,
      "lng": -43.448056
    },
    {
      "cityName": "Cocal III",
      "lat": -3.531944,
      "lng": -43.475278
    },
    {
      "cityName": "Cocalinho",
      "lat": -3.109167,
      "lng": -43.438889
    },
    {
      "cityName": "Cocal IV",
      "lat": -3.233611,
      "lng": -43.293611
    },
    {
      "cityName": "Cocal V",
      "lat": -3.047222,
      "lng": -43.380278
    },
    {
      "cityName": "Cocal VI",
      "lat": -3.486944,
      "lng": -43.225833
    },
    {
      "cityName": "Cocal VII",
      "lat": -3.255556,
      "lng": -43.457222
    },
    {
      "cityName": "Coceira",
      "lat": -3.390556,
      "lng": -42.940556
    },
    {
      "cityName": "Coceira de Baixo",
      "lat": -3.411667,
      "lng": -42.946111
    },
    {
      "cityName": "Côcos",
      "lat": -4.583333,
      "lng": -43.666667
    },
    {
      "cityName": "Codó",
      "lat": -4.483333,
      "lng": -43.883333
    },
    {
      "cityName": "Codòzinho",
      "lat": -4.766667,
      "lng": -44.166667
    },
    {
      "cityName": "Coelho Neto",
      "lat": -4.25,
      "lng": -43
    },
    {
      "cityName": "Coivara",
      "lat": -3.8,
      "lng": -44.583333
    },
    {
      "cityName": "Colinas",
      "lat": -6.033333,
      "lng": -44.233333
    },
    {
      "cityName": "Colônia Amélia",
      "lat": -1.7,
      "lng": -45.583333
    },
    {
      "cityName": "Colônia Militar",
      "lat": -1.8,
      "lng": -46.2
    },
    {
      "cityName": "Colônia Osório",
      "lat": -1.816667,
      "lng": -46.1
    },
    {
      "cityName": "Combuti",
      "lat": -3.147222,
      "lng": -43.114167
    },
    {
      "cityName": "Cometa",
      "lat": -8.960833,
      "lng": -46.302222
    },
    {
      "cityName": "Conceição",
      "lat": -2.75,
      "lng": -43.666667
    },
    {
      "cityName": "Conceição II",
      "lat": -3.778056,
      "lng": -43.298056
    },
    {
      "cityName": "Conduru",
      "lat": -5.566667,
      "lng": -44.333333
    },
    {
      "cityName": "Conserva",
      "lat": -2.75,
      "lng": -44.95
    },
    {
      "cityName": "Coqueiro",
      "lat": -3.083333,
      "lng": -42.4
    },
    {
      "cityName": "Corisco",
      "lat": -3.308056,
      "lng": -42.335833
    },
    {
      "cityName": "Coroatá",
      "lat": -4.133333,
      "lng": -44.133333
    },
    {
      "cityName": "Corredores",
      "lat": -5.783333,
      "lng": -43.116667
    },
    {
      "cityName": "Correntão",
      "lat": -7.916667,
      "lng": -45.983333
    },
    {
      "cityName": "Corrente",
      "lat": -3.5725,
      "lng": -42.849722
    },
    {
      "cityName": "Cotia",
      "lat": -9.533333,
      "lng": -46.116667
    },
    {
      "cityName": "Cotia Fria",
      "lat": -2.533333,
      "lng": -45.35
    },
    {
      "cityName": "Cotia Gorda",
      "lat": -3.548056,
      "lng": -43.375
    },
    {
      "cityName": "Cotias",
      "lat": -3.166667,
      "lng": -45.166667
    },
    {
      "cityName": "Cotó",
      "lat": -3.266667,
      "lng": -42.883333
    },
    {
      "cityName": "Criméa",
      "lat": -5.416667,
      "lng": -43.4
    },
    {
      "cityName": "Criminoso",
      "lat": -3.981111,
      "lng": -42.94
    },
    {
      "cityName": "Crioli",
      "lat": -4.35,
      "lng": -43.35
    },
    {
      "cityName": "Crioli da Sinhá",
      "lat": -5.4,
      "lng": -44.366667
    },
    {
      "cityName": "Cruz",
      "lat": -3.696667,
      "lng": -42.976944
    },
    {
      "cityName": "Cruz I",
      "lat": -3.454722,
      "lng": -43.102778
    },
    {
      "cityName": "Cruz II",
      "lat": -3.450833,
      "lng": -43.088611
    },
    {
      "cityName": "Cruzilândia",
      "lat": -3.920833,
      "lng": -43.376389
    },
    {
      "cityName": "Cumã",
      "lat": -2.116667,
      "lng": -44.6
    },
    {
      "cityName": "Cumbe",
      "lat": -3.878889,
      "lng": -43.396389
    },
    {
      "cityName": "Cumbre",
      "lat": -3.867222,
      "lng": -43.285278
    },
    {
      "cityName": "Cupim Grande",
      "lat": -6.416667,
      "lng": -43.116667
    },
    {
      "cityName": "Cura",
      "lat": -3.0725,
      "lng": -42.220556
    },
    {
      "cityName": "Currais",
      "lat": -3.383056,
      "lng": -42.503611
    },
    {
      "cityName": "Curral da Igreja",
      "lat": -3.383333,
      "lng": -44.8
    },
    {
      "cityName": "Curral do Meio",
      "lat": -3.108611,
      "lng": -42.11
    },
    {
      "cityName": "Curralinho",
      "lat": -3.342222,
      "lng": -42.178611
    },
    {
      "cityName": "Curral Velho",
      "lat": -3.567778,
      "lng": -42.605833
    },
    {
      "cityName": "Curupá",
      "lat": -9.9,
      "lng": -45.9
    },
    {
      "cityName": "Cururupu",
      "lat": -1.833333,
      "lng": -44.866667
    },
    {
      "cityName": "Curuzu",
      "lat": -3.333333,
      "lng": -43.583333
    },
    {
      "cityName": "Curva",
      "lat": -1.366667,
      "lng": -45.933333
    },
    {
      "cityName": "Curva Grande",
      "lat": -2.616667,
      "lng": -45.45
    },
    {
      "cityName": "Custódio",
      "lat": -3.200833,
      "lng": -43.329444
    },
    {
      "cityName": "Custódio Lima",
      "lat": -3.25,
      "lng": -42.066667
    },
    {
      "cityName": "Cutia",
      "lat": -1.883333,
      "lng": -45.45
    },
    {
      "cityName": "Damásio",
      "lat": -2.916667,
      "lng": -42.383333
    },
    {
      "cityName": "Danguer",
      "lat": -6.133333,
      "lng": -43.766667
    },
    {
      "cityName": "Degrêdo",
      "lat": -4.266667,
      "lng": -43.166667
    },
    {
      "cityName": "Descanço",
      "lat": -6.1,
      "lng": -43.05
    },
    {
      "cityName": "Deserto",
      "lat": -2.516667,
      "lng": -44.8
    },
    {
      "cityName": "Deserto I",
      "lat": -3.472778,
      "lng": -43.475833
    },
    {
      "cityName": "Deserto II",
      "lat": -3.081667,
      "lng": -43.428611
    },
    {
      "cityName": "Destino",
      "lat": -3.904722,
      "lng": -43.48
    },
    {
      "cityName": "Deus Quer",
      "lat": -3.418889,
      "lng": -43.476667
    },
    {
      "cityName": "Diamantina",
      "lat": -4.216667,
      "lng": -44.2
    },
    {
      "cityName": "Dique",
      "lat": -6.183333,
      "lng": -42.95
    },
    {
      "cityName": "Dois Irmãos",
      "lat": -6.583333,
      "lng": -43.45
    },
    {
      "cityName": "Dois Paus",
      "lat": -3.146389,
      "lng": -43.462778
    },
    {
      "cityName": "Domingos",
      "lat": -3.058056,
      "lng": -43.4875
    },
    {
      "cityName": "Dom Pedro",
      "lat": -4.483333,
      "lng": -44.45
    },
    {
      "cityName": "Duas Antas",
      "lat": -1.8,
      "lng": -45.733333
    },
    {
      "cityName": "Dula",
      "lat": -3.7425,
      "lng": -43.278611
    },
    {
      "cityName": "Duque Bacelar",
      "lat": -4.15,
      "lng": -42.95
    },
    {
      "cityName": "Ema",
      "lat": -3.945833,
      "lng": -43.408611
    },
    {
      "cityName": "Embiral",
      "lat": -5.383333,
      "lng": -47.716667
    },
    {
      "cityName": "Empatação",
      "lat": -6.383333,
      "lng": -42.983333
    },
    {
      "cityName": "Encantado",
      "lat": -6.15,
      "lng": -43.15
    },
    {
      "cityName": "Encruzilhada",
      "lat": -3.411944,
      "lng": -42.414444
    },
    {
      "cityName": "Engenhoca",
      "lat": -3.860556,
      "lng": -43.361111
    },
    {
      "cityName": "Engenho Central",
      "lat": -3.616667,
      "lng": -45.35
    },
    {
      "cityName": "Engenho d'Agua",
      "lat": -4.866667,
      "lng": -43.183333
    },
    {
      "cityName": "Engenho",
      "lat": -4.416667,
      "lng": -44.75
    },
    {
      "cityName": "Engenho Velho",
      "lat": -3.266667,
      "lng": -42.683333
    },
    {
      "cityName": "Enxu",
      "lat": -3.320833,
      "lng": -42.587222
    },
    {
      "cityName": "Escalvados",
      "lat": -3.751944,
      "lng": -42.706667
    },
    {
      "cityName": "Escondido",
      "lat": -3.2725,
      "lng": -43.205
    },
    {
      "cityName": "Escuta",
      "lat": -3.255,
      "lng": -43.424167
    },
    {
      "cityName": "Eslivas",
      "lat": -4.666667,
      "lng": -45.75
    },
    {
      "cityName": "Esperança",
      "lat": -9.783333,
      "lng": -46.283333
    },
    {
      "cityName": "Espingarda",
      "lat": -3.866944,
      "lng": -43.051111
    },
    {
      "cityName": "Espinhaço",
      "lat": -3.993611,
      "lng": -43.371667
    },
    {
      "cityName": "Espinha",
      "lat": -7.4,
      "lng": -44.7
    },
    {
      "cityName": "Espírito Santo",
      "lat": -6.983333,
      "lng": -44.233333
    },
    {
      "cityName": "Esquia",
      "lat": -3.990278,
      "lng": -43.023889
    },
    {
      "cityName": "Estandarte",
      "lat": -1.433333,
      "lng": -45.533333
    },
    {
      "cityName": "Estiva da Gangati",
      "lat": -3.183611,
      "lng": -43.451389
    },
    {
      "cityName": "Estiva da Josefa",
      "lat": -3.121667,
      "lng": -43.419722
    },
    {
      "cityName": "Estiva do Arraial",
      "lat": -2.75,
      "lng": -44.333333
    },
    {
      "cityName": "Estiva I",
      "lat": -3.144722,
      "lng": -42.380556
    },
    {
      "cityName": "Estiva II",
      "lat": -3.113056,
      "lng": -42.429167
    },
    {
      "cityName": "Estivas",
      "lat": -6.233333,
      "lng": -35.216667
    },
    {
      "cityName": "Estopa",
      "lat": -3.150833,
      "lng": -42.953889
    },
    {
      "cityName": "Estreito",
      "lat": -5.783333,
      "lng": -43.25
    },
    {
      "cityName": "Estrêla dos Anapurus",
      "lat": -3.666667,
      "lng": -43.1
    },
    {
      "cityName": "Estrela",
      "lat": -3.891389,
      "lng": -43.479444
    },
    {
      "cityName": "Estrema",
      "lat": -6.283333,
      "lng": -43.966667
    },
    {
      "cityName": "Fação",
      "lat": -3.421389,
      "lng": -42.961944
    },
    {
      "cityName": "Falha",
      "lat": -9.283333,
      "lng": -46.801389
    },
    {
      "cityName": "Faustino",
      "lat": -3.359167,
      "lng": -43.432778
    },
    {
      "cityName": "Faveira",
      "lat": -3.787222,
      "lng": -42.822778
    },
    {
      "cityName": "Faveirinha",
      "lat": -3.136667,
      "lng": -42.203889
    },
    {
      "cityName": "Fazenda Goncalinho",
      "lat": -6.766667,
      "lng": -43.383333
    },
    {
      "cityName": "Fazenda Inhuma",
      "lat": -8.746667,
      "lng": -45.968889
    },
    {
      "cityName": "Fazenda Nova",
      "lat": -3.9525,
      "lng": -43.006667
    },
    {
      "cityName": "Fazenda Riachão",
      "lat": -6.2,
      "lng": -43.25
    },
    {
      "cityName": "Fazenda Vertente",
      "lat": -5.25,
      "lng": -42.833333
    },
    {
      "cityName": "Fazendinha",
      "lat": -5.316667,
      "lng": -42.833333
    },
    {
      "cityName": "Feijão",
      "lat": -3.492222,
      "lng": -43.485556
    },
    {
      "cityName": "Feira",
      "lat": -6.45,
      "lng": -44.2
    },
    {
      "cityName": "Felipe Camarão",
      "lat": -2.85,
      "lng": -46.6
    },
    {
      "cityName": "Felisberto",
      "lat": -3.514167,
      "lng": -42.720556
    },
    {
      "cityName": "Férias",
      "lat": -3.242778,
      "lng": -42.208889
    },
    {
      "cityName": "Fernandes",
      "lat": -3.529167,
      "lng": -43.399444
    },
    {
      "cityName": "Ferrugem",
      "lat": -9.883333,
      "lng": -46.466667
    },
    {
      "cityName": "Fidié",
      "lat": -4.283333,
      "lng": -43.316667
    },
    {
      "cityName": "Fim do Pasto",
      "lat": -3.555,
      "lng": -42.991944
    },
    {
      "cityName": "Flecheira",
      "lat": -3.530556,
      "lng": -42.72
    },
    {
      "cityName": "Flor do Tempo",
      "lat": -5.7,
      "lng": -43.2
    },
    {
      "cityName": "Flores",
      "lat": -3.6,
      "lng": -44.866667
    },
    {
      "cityName": "Folha Larga",
      "lat": -3.96,
      "lng": -43.216111
    },
    {
      "cityName": "Fonte Rica",
      "lat": -5.966667,
      "lng": -43.35
    },
    {
      "cityName": "Fontinha",
      "lat": -3.131944,
      "lng": -42.478056
    },
    {
      "cityName": "Formiga",
      "lat": -2.316667,
      "lng": -45.383333
    },
    {
      "cityName": "Formosa",
      "lat": -3.436667,
      "lng": -42.393333
    },
    {
      "cityName": "Forninho",
      "lat": -3.768611,
      "lng": -42.791944
    },
    {
      "cityName": "Forquilha",
      "lat": -3.621389,
      "lng": -42.821667
    },
    {
      "cityName": "Fortaleza dos Nogueira",
      "lat": -6.9,
      "lng": -46.15
    },
    {
      "cityName": "Fortaleza",
      "lat": -1.316667,
      "lng": -46.133333
    },
    {
      "cityName": "Fortuna",
      "lat": -5.683333,
      "lng": -44.066667
    },
    {
      "cityName": "Frades",
      "lat": -5.216667,
      "lng": -47.966667
    },
    {
      "cityName": "Frecheira",
      "lat": -2.633333,
      "lng": -43.55
    },
    {
      "cityName": "Freicheiras",
      "lat": -2.85,
      "lng": -42.083333
    },
    {
      "cityName": "Frigideira",
      "lat": -3.977222,
      "lng": -43.214722
    },
    {
      "cityName": "Fugida",
      "lat": -3.35,
      "lng": -44.416667
    },
    {
      "cityName": "Fugido",
      "lat": -3.45,
      "lng": -46.083333
    },
    {
      "cityName": "Fundo",
      "lat": -6.1,
      "lng": -44.25
    },
    {
      "cityName": "Funil",
      "lat": -3.448611,
      "lng": -42.866667
    },
    {
      "cityName": "Furnas",
      "lat": -3.664444,
      "lng": -43.245278
    },
    {
      "cityName": "Fuzil",
      "lat": -7.833333,
      "lng": -46.983333
    },
    {
      "cityName": "Gado Brabo",
      "lat": -6.316667,
      "lng": -42.966667
    },
    {
      "cityName": "Gado Manso",
      "lat": -3.881389,
      "lng": -43.494444
    },
    {
      "cityName": "Galheiro",
      "lat": -9.45,
      "lng": -45.8
    },
    {
      "cityName": "Galiléia",
      "lat": -9.983333,
      "lng": -46.366667
    },
    {
      "cityName": "Gamela",
      "lat": -3.974167,
      "lng": -42.927222
    },
    {
      "cityName": "Gameleira",
      "lat": -3.883333,
      "lng": -45.183333
    },
    {
      "cityName": "Gameleira I",
      "lat": -3.807222,
      "lng": -42.813333
    },
    {
      "cityName": "Gameleira II",
      "lat": -3.886389,
      "lng": -42.805278
    },
    {
      "cityName": "Gancho",
      "lat": -3.516667,
      "lng": -44.766667
    },
    {
      "cityName": "Garaiber",
      "lat": -6.416667,
      "lng": -42.866667
    },
    {
      "cityName": "Garamparo",
      "lat": -3.048611,
      "lng": -43.397222
    },
    {
      "cityName": "Garrote",
      "lat": -8.25,
      "lng": -46.083333
    },
    {
      "cityName": "Gato",
      "lat": -5.95,
      "lng": -46.416667
    },
    {
      "cityName": "Gaupó",
      "lat": -2.833333,
      "lng": -45.033333
    },
    {
      "cityName": "Gavião",
      "lat": -3.080833,
      "lng": -42.287222
    },
    {
      "cityName": "Geribués",
      "lat": -3.510278,
      "lng": -43.135
    },
    {
      "cityName": "Giramundo de Baixo",
      "lat": -3.013611,
      "lng": -42.825
    },
    {
      "cityName": "Giramundo",
      "lat": -3.013333,
      "lng": -42.861111
    },
    {
      "cityName": "Glória",
      "lat": -1.683333,
      "lng": -46.216667
    },
    {
      "cityName": "Gonçalo",
      "lat": -3.044167,
      "lng": -43.231667
    },
    {
      "cityName": "Gonçalves Dias",
      "lat": -3.666667,
      "lng": -45.783333
    },
    {
      "cityName": "Governador Archer",
      "lat": -4.933333,
      "lng": -44.383333
    },
    {
      "cityName": "Graça Aranha",
      "lat": -5.383333,
      "lng": -44.333333
    },
    {
      "cityName": "Grajahú",
      "lat": -5.816667,
      "lng": -46.133333
    },
    {
      "cityName": "Grossos",
      "lat": -3.065556,
      "lng": -42.168611
    },
    {
      "cityName": "Gruta Funda",
      "lat": -6.183333,
      "lng": -46.933333
    },
    {
      "cityName": "Guabiraba",
      "lat": -3.530833,
      "lng": -43.233333
    },
    {
      "cityName": "Guadalupe",
      "lat": -3.545,
      "lng": -43.253889
    },
    {
      "cityName": "Guariba",
      "lat": -6.283333,
      "lng": -43.116667
    },
    {
      "cityName": "Guaribas",
      "lat": -5.216667,
      "lng": -45.916667
    },
    {
      "cityName": "Guaribas I",
      "lat": -3.163333,
      "lng": -43.245
    },
    {
      "cityName": "Guaribas II",
      "lat": -3.148889,
      "lng": -43.211944
    },
    {
      "cityName": "Guaribas III",
      "lat": -3.115278,
      "lng": -43.191944
    },
    {
      "cityName": "Guaribas IV",
      "lat": -3.083611,
      "lng": -43.146667
    },
    {
      "cityName": "Guaribas V",
      "lat": -3.440833,
      "lng": -43.370833
    },
    {
      "cityName": "Guariguari",
      "lat": -3.316667,
      "lng": -45.833333
    },
    {
      "cityName": "Guarimã Grande",
      "lat": -3.1725,
      "lng": -42.850278
    },
    {
      "cityName": "Guarimã",
      "lat": -3.331111,
      "lng": -43.388611
    },
    {
      "cityName": "Guarimanzal",
      "lat": -3.090278,
      "lng": -43.494167
    },
    {
      "cityName": "Guarimãzinho",
      "lat": -3.149722,
      "lng": -42.795833
    },
    {
      "cityName": "Guariramã",
      "lat": -2.366667,
      "lng": -45.5
    },
    {
      "cityName": "Guerreira",
      "lat": -5.65,
      "lng": -43.35
    },
    {
      "cityName": "Guido",
      "lat": -9.2,
      "lng": -46.566667
    },
    {
      "cityName": "Guimarães",
      "lat": -2.133333,
      "lng": -44.6
    },
    {
      "cityName": "Há-Mais-Tempo",
      "lat": -4.333333,
      "lng": -44.933333
    },
    {
      "cityName": "Herculanópolis",
      "lat": -3.680556,
      "lng": -42.682778
    },
    {
      "cityName": "Hora",
      "lat": -3.15,
      "lng": -44.05
    },
    {
      "cityName": "Horror",
      "lat": -3.6,
      "lng": -45.016667
    },
    {
      "cityName": "Humberto de Campos",
      "lat": -2.616667,
      "lng": -43.45
    },
    {
      "cityName": "Ibicuituba",
      "lat": -2.55,
      "lng": -43.233333
    },
    {
      "cityName": "Ibipeuara",
      "lat": -2.966667,
      "lng": -44.85
    },
    {
      "cityName": "Ibipira",
      "lat": -6.516667,
      "lng": -44.633333
    },
    {
      "cityName": "Icatu",
      "lat": -2.766667,
      "lng": -44.066667
    },
    {
      "cityName": "Igarapé Grande",
      "lat": -4.683333,
      "lng": -44.966667
    },
    {
      "cityName": "Igaraú",
      "lat": -2.75,
      "lng": -44.316667
    },
    {
      "cityName": "Iguaíba",
      "lat": -2.466667,
      "lng": -44.1
    },
    {
      "cityName": "Iguaratinga",
      "lat": -6.25,
      "lng": -42.866667
    },
    {
      "cityName": "Ilha",
      "lat": -6.633333,
      "lng": -42.866667
    },
    {
      "cityName": "Imperatriz",
      "lat": -5.533333,
      "lng": -47.483333
    },
    {
      "cityName": "Independência",
      "lat": -4.35,
      "lng": -44.333333
    },
    {
      "cityName": "Inês",
      "lat": -3.65,
      "lng": -45.366667
    },
    {
      "cityName": "Infinito",
      "lat": -5.333333,
      "lng": -43.333333
    },
    {
      "cityName": "Ingá",
      "lat": -3.216667,
      "lng": -43.716667
    },
    {
      "cityName": "Ipané",
      "lat": -9.55,
      "lng": -46.15
    },
    {
      "cityName": "Ipixuna",
      "lat": -4.366667,
      "lng": -44.566667
    },
    {
      "cityName": "Ipu",
      "lat": -5.783333,
      "lng": -45.983333
    },
    {
      "cityName": "Irajá",
      "lat": -5.133333,
      "lng": -43.1
    },
    {
      "cityName": "Itaguará",
      "lat": -5.183333,
      "lng": -42.916667
    },
    {
      "cityName": "Itaipava",
      "lat": -5.1,
      "lng": -45.816667
    },
    {
      "cityName": "Itamataré",
      "lat": -2.266667,
      "lng": -46.4
    },
    {
      "cityName": "Itapecuru-Mirim",
      "lat": -3.4,
      "lng": -44.333333
    },
    {
      "cityName": "Itapera",
      "lat": -2.533333,
      "lng": -43.783333
    },
    {
      "cityName": "Itapeua",
      "lat": -2.883333,
      "lng": -44.683333
    },
    {
      "cityName": "Itapiranga",
      "lat": -2.2,
      "lng": -44.633333
    },
    {
      "cityName": "Itaqui",
      "lat": -2.6,
      "lng": -44.35
    },
    {
      "cityName": "Itararé",
      "lat": -9.2,
      "lng": -46.166667
    },
    {
      "cityName": "Itauna",
      "lat": -6.2,
      "lng": -43.266667
    },
    {
      "cityName": "Itererê",
      "lat": -1.566667,
      "lng": -45.1
    },
    {
      "cityName": "Jabotá Ferrado",
      "lat": -6.516667,
      "lng": -42.966667
    },
    {
      "cityName": "Jaboti",
      "lat": -3.227778,
      "lng": -42.584444
    },
    {
      "cityName": "Jaburu",
      "lat": -5.55,
      "lng": -46.2
    },
    {
      "cityName": "Jabuti",
      "lat": -3.030556,
      "lng": -42.114167
    },
    {
      "cityName": "Jacama",
      "lat": -4.533333,
      "lng": -43.816667
    },
    {
      "cityName": "Jacarandá",
      "lat": -3.606667,
      "lng": -43.080278
    },
    {
      "cityName": "Jacaré",
      "lat": -2.766667,
      "lng": -44.7
    },
    {
      "cityName": "Jacarèquara",
      "lat": -2.016667,
      "lng": -44.583333
    },
    {
      "cityName": "Jacu III",
      "lat": -3.622778,
      "lng": -43.148611
    },
    {
      "cityName": "Jacu II",
      "lat": -3.632778,
      "lng": -43.1525
    },
    {
      "cityName": "Jacu I",
      "lat": -3.648333,
      "lng": -43.151667
    },
    {
      "cityName": "Jacu IV",
      "lat": -3.600833,
      "lng": -43.147778
    },
    {
      "cityName": "Jacu",
      "lat": -3.914722,
      "lng": -43.098889
    },
    {
      "cityName": "Jacu VII",
      "lat": -3.049444,
      "lng": -43.245556
    },
    {
      "cityName": "Jacu VI",
      "lat": -3.573056,
      "lng": -43.148333
    },
    {
      "cityName": "Jacu V",
      "lat": -3.588611,
      "lng": -43.144444
    },
    {
      "cityName": "Jandiritiua",
      "lat": -2.1,
      "lng": -44.633333
    },
    {
      "cityName": "Januário",
      "lat": -1.833333,
      "lng": -46.2
    },
    {
      "cityName": "Japão",
      "lat": -3.483333,
      "lng": -42.6
    },
    {
      "cityName": "Japeco",
      "lat": -5.15,
      "lng": -42.933333
    },
    {
      "cityName": "Jaqueira",
      "lat": -3.326667,
      "lng": -43.120556
    },
    {
      "cityName": "Jararaitá",
      "lat": -2.416667,
      "lng": -44.683333
    },
    {
      "cityName": "Jardim",
      "lat": -3.922222,
      "lng": -43.435833
    },
    {
      "cityName": "Jatobá",
      "lat": -3.133056,
      "lng": -42.191667
    },
    {
      "cityName": "Jeitosa",
      "lat": -5.95,
      "lng": -46.55
    },
    {
      "cityName": "Jenipapo III",
      "lat": -3.101389,
      "lng": -42.328056
    },
    {
      "cityName": "Jenipapo II",
      "lat": -3.381111,
      "lng": -42.448611
    },
    {
      "cityName": "Jenipapo",
      "lat": -3.8175,
      "lng": -43.299444
    },
    {
      "cityName": "Jenipaúba",
      "lat": -2.066667,
      "lng": -44.566667
    },
    {
      "cityName": "Jequiri",
      "lat": -3.406944,
      "lng": -42.562222
    },
    {
      "cityName": "Jibóia",
      "lat": -3.513611,
      "lng": -42.979722
    },
    {
      "cityName": "Jipuba",
      "lat": -2.066667,
      "lng": -44.666667
    },
    {
      "cityName": "Jiquiri",
      "lat": -3.056111,
      "lng": -42.140556
    },
    {
      "cityName": "Joaninha",
      "lat": -3.136667,
      "lng": -43.341944
    },
    {
      "cityName": "João de Sousa",
      "lat": -3.942222,
      "lng": -42.996944
    },
    {
      "cityName": "João Estêvão",
      "lat": -5.583333,
      "lng": -43.333333
    },
    {
      "cityName": "João Lisboa",
      "lat": -5.366667,
      "lng": -47.283333
    },
    {
      "cityName": "João Peres",
      "lat": -2.929167,
      "lng": -41.910833
    },
    {
      "cityName": "José Paulo",
      "lat": -3.533333,
      "lng": -42.716667
    },
    {
      "cityName": "Jucá",
      "lat": -3.566667,
      "lng": -44.583333
    },
    {
      "cityName": "Juçara",
      "lat": -1.883333,
      "lng": -44.65
    },
    {
      "cityName": "Juçaral",
      "lat": -3.040833,
      "lng": -43.053333
    },
    {
      "cityName": "Jucás",
      "lat": -9.966667,
      "lng": -46.1
    },
    {
      "cityName": "Juissara",
      "lat": -5.933333,
      "lng": -46.25
    },
    {
      "cityName": "Jurubeba",
      "lat": -3.129722,
      "lng": -43.043611
    },
    {
      "cityName": "Jussara",
      "lat": -6.683333,
      "lng": -44.283333
    },
    {
      "cityName": "Jussaral",
      "lat": -3.515,
      "lng": -43.326667
    },
    {
      "cityName": "Lacre",
      "lat": -3.863611,
      "lng": -43.416111
    },
    {
      "cityName": "Ladeira",
      "lat": -2.3,
      "lng": -44.616667
    },
    {
      "cityName": "Ladeira Vermelha",
      "lat": -5.6,
      "lng": -47.166667
    },
    {
      "cityName": "Lageado",
      "lat": -7.75,
      "lng": -46.883333
    },
    {
      "cityName": "Laginha",
      "lat": -7.783333,
      "lng": -47.033333
    },
    {
      "cityName": "Lagoa Amarela",
      "lat": -3.562222,
      "lng": -43.429444
    },
    {
      "cityName": "Lagoa Bonita",
      "lat": -4.8,
      "lng": -44.883333
    },
    {
      "cityName": "Lagoa Comprida",
      "lat": -4.366667,
      "lng": -45.916667
    },
    {
      "cityName": "Lagoa d'Agua",
      "lat": -3.598889,
      "lng": -43.063889
    },
    {
      "cityName": "Lagoa da Onça",
      "lat": -3.290278,
      "lng": -42.405833
    },
    {
      "cityName": "Lagoa de Cima",
      "lat": -5.766667,
      "lng": -43.783333
    },
    {
      "cityName": "Lagoa de Dentro",
      "lat": -5.616667,
      "lng": -43.283333
    },
    {
      "cityName": "Lagoa de Pedra",
      "lat": -4.333333,
      "lng": -45.166667
    },
    {
      "cityName": "Lagoa do Barro",
      "lat": -3.088889,
      "lng": -42.288611
    },
    {
      "cityName": "Lagoa do Casco",
      "lat": -3.066667,
      "lng": -43.35
    },
    {
      "cityName": "Lagoa do Cigano",
      "lat": -3.482778,
      "lng": -43.080833
    },
    {
      "cityName": "Lagoa do Enchu",
      "lat": -4.016667,
      "lng": -43.05
    },
    {
      "cityName": "Lagoa do Marco",
      "lat": -5.366667,
      "lng": -42.966667
    },
    {
      "cityName": "Lagoa do Mato",
      "lat": -2.466667,
      "lng": -44.7
    },
    {
      "cityName": "Lagoa do Silvestre",
      "lat": -3.594167,
      "lng": -43.175
    },
    {
      "cityName": "Lagoa dos Patos",
      "lat": -3.4075,
      "lng": -42.631111
    },
    {
      "cityName": "Lagoa Grande",
      "lat": -2.916667,
      "lng": -43.466667
    },
    {
      "cityName": "Lagoa",
      "lat": -3.305833,
      "lng": -43.212778
    },
    {
      "cityName": "Lagoa Nova",
      "lat": -5.616667,
      "lng": -44.416667
    },
    {
      "cityName": "Lagoa Sêca",
      "lat": -5.783333,
      "lng": -46.1
    },
    {
      "cityName": "Lagoa Verde",
      "lat": -4.066667,
      "lng": -45.733333
    },
    {
      "cityName": "Lagoinha",
      "lat": -3.783333,
      "lng": -43.833333
    },
    {
      "cityName": "Laguinho",
      "lat": -4.283333,
      "lng": -44.5
    },
    {
      "cityName": "Laje Grande",
      "lat": -3.8,
      "lng": -45.233333
    },
    {
      "cityName": "Laje",
      "lat": -3.016667,
      "lng": -46.65
    },
    {
      "cityName": "Lajes",
      "lat": -6.466667,
      "lng": -42.983333
    },
    {
      "cityName": "Lameiro",
      "lat": -3.6325,
      "lng": -42.684722
    },
    {
      "cityName": "Lapela",
      "lat": -3.733333,
      "lng": -44.75
    },
    {
      "cityName": "Laranjeiras II",
      "lat": -3.493889,
      "lng": -43.418889
    },
    {
      "cityName": "Laranjeiras I",
      "lat": -3.496111,
      "lng": -43.383056
    },
    {
      "cityName": "Laranjeiras",
      "lat": -3.506389,
      "lng": -43.390556
    },
    {
      "cityName": "Largo do Forno",
      "lat": -5.3,
      "lng": -43.233333
    },
    {
      "cityName": "Largo do Mariano",
      "lat": -5.3,
      "lng": -43.45
    },
    {
      "cityName": "Lavadeira",
      "lat": -3.183333,
      "lng": -45.016667
    },
    {
      "cityName": "Lavagem dos Patos",
      "lat": -3.035278,
      "lng": -42.132222
    },
    {
      "cityName": "Lavajinha",
      "lat": -3.027222,
      "lng": -42.081111
    },
    {
      "cityName": "Lavras",
      "lat": -5.166667,
      "lng": -43.433333
    },
    {
      "cityName": "Leandro",
      "lat": -3.8425,
      "lng": -43.487778
    },
    {
      "cityName": "Leque",
      "lat": -2.516667,
      "lng": -45.183333
    },
    {
      "cityName": "Liberato",
      "lat": -4.75,
      "lng": -44.533333
    },
    {
      "cityName": "Limoeiro",
      "lat": -3.070278,
      "lng": -42.186667
    },
    {
      "cityName": "Limpeza",
      "lat": -6.7,
      "lng": -43.666667
    },
    {
      "cityName": "Liso",
      "lat": -6.6,
      "lng": -44.566667
    },
    {
      "cityName": "Livramento",
      "lat": -1.266667,
      "lng": -45.866667
    },
    {
      "cityName": "Lôbo",
      "lat": -1.716667,
      "lng": -45.233333
    },
    {
      "cityName": "Loreto",
      "lat": -7.083333,
      "lng": -45.15
    },
    {
      "cityName": "Lucena",
      "lat": -9.283333,
      "lng": -45.916667
    },
    {
      "cityName": "Luís Domingues",
      "lat": -1.3,
      "lng": -45.866667
    },
    {
      "cityName": "Macacoeira",
      "lat": -1.216667,
      "lng": -46.1
    },
    {
      "cityName": "Macaco",
      "lat": -10.05,
      "lng": -45.95
    },
    {
      "cityName": "Macajatuba",
      "lat": -2.483333,
      "lng": -44.15
    },
    {
      "cityName": "Macajuba",
      "lat": -3.97,
      "lng": -43.154444
    },
    {
      "cityName": "Macambira",
      "lat": -3.074722,
      "lng": -43.415278
    },
    {
      "cityName": "Macapá",
      "lat": -2.633333,
      "lng": -44.9
    },
    {
      "cityName": "Macaúba",
      "lat": -6.65,
      "lng": -44.016667
    },
    {
      "cityName": "Macenas",
      "lat": -3.869722,
      "lng": -42.803056
    },
    {
      "cityName": "Machado",
      "lat": -6.35,
      "lng": -44.4
    },
    {
      "cityName": "Macunã",
      "lat": -3.632778,
      "lng": -43.093056
    },
    {
      "cityName": "Madail",
      "lat": -4.933333,
      "lng": -45.616667
    },
    {
      "cityName": "Madalena",
      "lat": -4.15,
      "lng": -44.883333
    },
    {
      "cityName": "Madeira Cortada III",
      "lat": -3.293889,
      "lng": -42.320833
    },
    {
      "cityName": "Madeira Cortada I",
      "lat": -3.271667,
      "lng": -42.26
    },
    {
      "cityName": "Madeira Cortada",
      "lat": -3.819444,
      "lng": -43.305556
    },
    {
      "cityName": "Madeira",
      "lat": -4.3,
      "lng": -42.983333
    },
    {
      "cityName": "Madragoa",
      "lat": -1.783333,
      "lng": -45.05
    },
    {
      "cityName": "Madre-de-Deus",
      "lat": -6.566667,
      "lng": -43.45
    },
    {
      "cityName": "Madre",
      "lat": -6.383333,
      "lng": -43.383333
    },
    {
      "cityName": "Magalhães de Almeida",
      "lat": -3.4,
      "lng": -42.2
    },
    {
      "cityName": "Malhada das Pedras",
      "lat": -3.558056,
      "lng": -42.587222
    },
    {
      "cityName": "Malhada dos Cavalos",
      "lat": -3.434444,
      "lng": -42.571111
    },
    {
      "cityName": "Malhada",
      "lat": -3.470833,
      "lng": -42.471389
    },
    {
      "cityName": "Malhadinha",
      "lat": -3.246111,
      "lng": -42.08
    },
    {
      "cityName": "Malícia",
      "lat": -4.466667,
      "lng": -43.283333
    },
    {
      "cityName": "Malva do Meio",
      "lat": -3.739444,
      "lng": -43.257778
    },
    {
      "cityName": "Malva",
      "lat": -3.723889,
      "lng": -43.270833
    },
    {
      "cityName": "Mamede",
      "lat": -3.135,
      "lng": -42.901944
    },
    {
      "cityName": "Mamoí",
      "lat": -5.55,
      "lng": -45.533333
    },
    {
      "cityName": "Mamuí",
      "lat": -3.023889,
      "lng": -42.347222
    },
    {
      "cityName": "Manaus",
      "lat": -1.5,
      "lng": -46.183333
    },
    {
      "cityName": "Mandacaru",
      "lat": -2.6,
      "lng": -42.7
    },
    {
      "cityName": "Mandioca",
      "lat": -3.905,
      "lng": -43.468889
    },
    {
      "cityName": "Mangaba",
      "lat": -3.861667,
      "lng": -43.272222
    },
    {
      "cityName": "Mangabeira",
      "lat": -3.818611,
      "lng": -43.412778
    },
    {
      "cityName": "Mangabeira Velha",
      "lat": -3.194167,
      "lng": -43.147778
    },
    {
      "cityName": "Mangabeirinha",
      "lat": -3.299167,
      "lng": -43.228333
    },
    {
      "cityName": "Manga",
      "lat": -3.516667,
      "lng": -43.95
    },
    {
      "cityName": "Mangueira II",
      "lat": -3.158056,
      "lng": -43.122222
    },
    {
      "cityName": "Mangueira I",
      "lat": -3.226111,
      "lng": -43.417778
    },
    {
      "cityName": "Mangueira",
      "lat": -3.033333,
      "lng": -43.033333
    },
    {
      "cityName": "Mangue",
      "lat": -1.15,
      "lng": -45.716667
    },
    {
      "cityName": "Mangunça",
      "lat": -1.616667,
      "lng": -44.666667
    },
    {
      "cityName": "Manoel Lopes",
      "lat": -3.8675,
      "lng": -43.393056
    },
    {
      "cityName": "Mansinho",
      "lat": -3.716111,
      "lng": -42.778611
    },
    {
      "cityName": "Maracaçumé",
      "lat": -2.05,
      "lng": -45.933333
    },
    {
      "cityName": "Maracajá",
      "lat": -3.916667,
      "lng": -44.2
    },
    {
      "cityName": "Maracoeira",
      "lat": -1.233333,
      "lng": -46.1
    },
    {
      "cityName": "Marajá",
      "lat": -3.046389,
      "lng": -43.436111
    },
    {
      "cityName": "Maranhão",
      "lat": -2.516667,
      "lng": -44.266667
    },
    {
      "cityName": "Marçal II",
      "lat": -3.363611,
      "lng": -43.348333
    },
    {
      "cityName": "Marçal I",
      "lat": -3.326667,
      "lng": -43.459722
    },
    {
      "cityName": "Marçal",
      "lat": -3,
      "lng": -45.083333
    },
    {
      "cityName": "Marco",
      "lat": -3.951944,
      "lng": -43.329167
    },
    {
      "cityName": "Marcos",
      "lat": -3.734722,
      "lng": -42.792222
    },
    {
      "cityName": "Marfim",
      "lat": -4,
      "lng": -44.783333
    },
    {
      "cityName": "Marfinzeiro",
      "lat": -3.800833,
      "lng": -43.429444
    },
    {
      "cityName": "Marianópolis",
      "lat": -4.783333,
      "lng": -44.633333
    },
    {
      "cityName": "Marmelo",
      "lat": -2.966667,
      "lng": -45.366667
    },
    {
      "cityName": "Marques",
      "lat": -3.872222,
      "lng": -43.117778
    },
    {
      "cityName": "Marreca",
      "lat": -3.324722,
      "lng": -42.365556
    },
    {
      "cityName": "Marroa",
      "lat": -6.366667,
      "lng": -43.433333
    },
    {
      "cityName": "Martim",
      "lat": -3.9325,
      "lng": -43.4025
    },
    {
      "cityName": "Martins",
      "lat": -3.488889,
      "lng": -42.719444
    },
    {
      "cityName": "Massena",
      "lat": -3.856111,
      "lng": -43.430833
    },
    {
      "cityName": "Mata Alta",
      "lat": -3.638611,
      "lng": -43.309167
    },
    {
      "cityName": "Mata Catíngada",
      "lat": -3.933889,
      "lng": -43.334444
    },
    {
      "cityName": "Mata da Varjota",
      "lat": -3.976944,
      "lng": -43.410278
    },
    {
      "cityName": "Mata de Cima",
      "lat": -3.483889,
      "lng": -42.9225
    },
    {
      "cityName": "Mata Dentro",
      "lat": -9.316667,
      "lng": -46.583333
    },
    {
      "cityName": "Mata do Boi",
      "lat": -3.45,
      "lng": -45.2
    },
    {
      "cityName": "Mata do Irigadeiro",
      "lat": -3.715278,
      "lng": -43.224167
    },
    {
      "cityName": "Mata Escura",
      "lat": -3.604444,
      "lng": -42.811389
    },
    {
      "cityName": "Mata Grande",
      "lat": -3.009167,
      "lng": -43.271667
    },
    {
      "cityName": "Mata",
      "lat": -2.583333,
      "lng": -44.183333
    },
    {
      "cityName": "Matão",
      "lat": -6.716667,
      "lng": -44.183333
    },
    {
      "cityName": "Mata Roma",
      "lat": -3.623611,
      "lng": -43.111667
    },
    {
      "cityName": "Mata Velha",
      "lat": -3.221111,
      "lng": -42.343611
    },
    {
      "cityName": "Matinha de Dentro",
      "lat": -3.87,
      "lng": -43.1825
    },
    {
      "cityName": "Matinha",
      "lat": -3.1,
      "lng": -45.033333
    },
    {
      "cityName": "Mato Aberto",
      "lat": -3.31,
      "lng": -42.741667
    },
    {
      "cityName": "Matões dos Caboclos",
      "lat": -4.716667,
      "lng": -44.383333
    },
    {
      "cityName": "Mato Grosso",
      "lat": -3.566667,
      "lng": -44.95
    },
    {
      "cityName": "Mato Seco",
      "lat": -3.911667,
      "lng": -43.0675
    },
    {
      "cityName": "Mato Verde",
      "lat": -8.05,
      "lng": -45.6
    },
    {
      "cityName": "Melancia",
      "lat": -3.0375,
      "lng": -42.103611
    },
    {
      "cityName": "Mel",
      "lat": -3.633333,
      "lng": -45.116667
    },
    {
      "cityName": "Memori",
      "lat": -5.916667,
      "lng": -44.083333
    },
    {
      "cityName": "Mendes",
      "lat": -3.070278,
      "lng": -43.281389
    },
    {
      "cityName": "Mendonça",
      "lat": -4.533333,
      "lng": -44.35
    },
    {
      "cityName": "Meoas",
      "lat": -3.316667,
      "lng": -44.983333
    },
    {
      "cityName": "Mesqueira",
      "lat": -3.117222,
      "lng": -43.47
    },
    {
      "cityName": "Milagres",
      "lat": -3.581111,
      "lng": -42.609444
    },
    {
      "cityName": "Milhões",
      "lat": -6.6,
      "lng": -43.85
    },
    {
      "cityName": "Mimoso",
      "lat": -6.166667,
      "lng": -43.083333
    },
    {
      "cityName": "Mineiro",
      "lat": -5.133333,
      "lng": -43.45
    },
    {
      "cityName": "Mirador",
      "lat": -6.366667,
      "lng": -44.366667
    },
    {
      "cityName": "Miranda",
      "lat": -3.55,
      "lng": -44.516667
    },
    {
      "cityName": "Mirim",
      "lat": -3.351111,
      "lng": -43.071944
    },
    {
      "cityName": "Mirinsal",
      "lat": -2.016667,
      "lng": -44.716667
    },
    {
      "cityName": "Miroró",
      "lat": -5.95,
      "lng": -43.166667
    },
    {
      "cityName": "Mocambinho",
      "lat": -3.133333,
      "lng": -43.316667
    },
    {
      "cityName": "Mocambo de Baixo",
      "lat": -3.15,
      "lng": -42.024722
    },
    {
      "cityName": "Mocambo de Cima",
      "lat": -3.159722,
      "lng": -42.05
    },
    {
      "cityName": "Mocambo",
      "lat": -3.471389,
      "lng": -42.408889
    },
    {
      "cityName": "Mocós",
      "lat": -4.3,
      "lng": -44.866667
    },
    {
      "cityName": "Moitas",
      "lat": -3.183333,
      "lng": -44.833333
    },
    {
      "cityName": "Mombaca I",
      "lat": -3.293889,
      "lng": -42.370833
    },
    {
      "cityName": "Mondubim",
      "lat": -6.483333,
      "lng": -43.266667
    },
    {
      "cityName": "Monte Alegre",
      "lat": -2.466667,
      "lng": -44.816667
    },
    {
      "cityName": "Monte Alto",
      "lat": -5.833333,
      "lng": -47.066667
    },
    {
      "cityName": "Montevidéo",
      "lat": -5.316667,
      "lng": -43.916667
    },
    {
      "cityName": "Montevidéu",
      "lat": -3.016667,
      "lng": -45.083333
    },
    {
      "cityName": "Moquém",
      "lat": -3.742778,
      "lng": -43.217222
    },
    {
      "cityName": "Morada Nova",
      "lat": -3.378056,
      "lng": -42.470833
    },
    {
      "cityName": "Moraes",
      "lat": -3.541667,
      "lng": -43.063056
    },
    {
      "cityName": "Morcego",
      "lat": -3.664444,
      "lng": -43.270833
    },
    {
      "cityName": "Morcêgos",
      "lat": -6.05,
      "lng": -43.933333
    },
    {
      "cityName": "Moreira",
      "lat": -3.5,
      "lng": -44.316667
    },
    {
      "cityName": "Morrão",
      "lat": -6.666667,
      "lng": -43.783333
    },
    {
      "cityName": "Morro Alegre",
      "lat": -3.678056,
      "lng": -42.873333
    },
    {
      "cityName": "Morro Branco",
      "lat": -4.2,
      "lng": -43.666667
    },
    {
      "cityName": "Morro de Pedra",
      "lat": -3.029722,
      "lng": -42.091944
    },
    {
      "cityName": "Morro do Sal",
      "lat": -6.016667,
      "lng": -46.75
    },
    {
      "cityName": "Morro do Veridiano",
      "lat": -3.1,
      "lng": -43.533333
    },
    {
      "cityName": "Morro",
      "lat": -3.579167,
      "lng": -43.088611
    },
    {
      "cityName": "Morro Redondo",
      "lat": -6.5,
      "lng": -43.5
    },
    {
      "cityName": "Morros",
      "lat": -9.446667,
      "lng": -46.300278
    },
    {
      "cityName": "Morro Vermelho",
      "lat": -3.260278,
      "lng": -42.262222
    },
    {
      "cityName": "Mosquito",
      "lat": -3.049444,
      "lng": -43.3525
    },
    {
      "cityName": "Moura",
      "lat": -3.504722,
      "lng": -43.043889
    },
    {
      "cityName": "Mucambo",
      "lat": -6.266667,
      "lng": -43.5
    },
    {
      "cityName": "Mucanã",
      "lat": -6.083333,
      "lng": -43.166667
    },
    {
      "cityName": "Mucuim",
      "lat": -3.652778,
      "lng": -43.254444
    },
    {
      "cityName": "Mucunã",
      "lat": -1.183333,
      "lng": -45.75
    },
    {
      "cityName": "Muiraneu",
      "lat": -2,
      "lng": -44.55
    },
    {
      "cityName": "Mundo Novo",
      "lat": -2.866667,
      "lng": -43.133333
    },
    {
      "cityName": "Munguba",
      "lat": -3.020556,
      "lng": -42.392778
    },
    {
      "cityName": "Munim",
      "lat": -3.06,
      "lng": -43.065278
    },
    {
      "cityName": "Muquém",
      "lat": -5.383333,
      "lng": -43.1
    },
    {
      "cityName": "Murici",
      "lat": -3.262222,
      "lng": -42.148056
    },
    {
      "cityName": "Muriçoca",
      "lat": -4.416667,
      "lng": -45.716667
    },
    {
      "cityName": "Mururu",
      "lat": -4.133333,
      "lng": -45.133333
    },
    {
      "cityName": "Mutum",
      "lat": -3.083333,
      "lng": -43.933333
    },
    {
      "cityName": "Nambu",
      "lat": -3.795,
      "lng": -43.035
    },
    {
      "cityName": "Naru",
      "lat": -5.466667,
      "lng": -45.566667
    },
    {
      "cityName": "Nazaré",
      "lat": -1.316667,
      "lng": -46.15
    },
    {
      "cityName": "Negro",
      "lat": -3.8725,
      "lng": -43.1275
    },
    {
      "cityName": "Nicolau",
      "lat": -3.595,
      "lng": -43.091667
    },
    {
      "cityName": "Nina",
      "lat": -3.611389,
      "lng": -43.498611
    },
    {
      "cityName": "Nogueira",
      "lat": -4.283333,
      "lng": -44.166667
    },
    {
      "cityName": "Nova Aurora",
      "lat": -5.566667,
      "lng": -43.166667
    },
    {
      "cityName": "Nova Belém",
      "lat": -4.233333,
      "lng": -43.366667
    },
    {
      "cityName": "Nova Fé",
      "lat": -3.888889,
      "lng": -42.939167
    },
    {
      "cityName": "Nova Iorque",
      "lat": -2.933333,
      "lng": -44.933333
    },
    {
      "cityName": "Nova Olinda",
      "lat": -6.7,
      "lng": -43.466667
    },
    {
      "cityName": "Nova Santa Quitéria",
      "lat": -3.501389,
      "lng": -42.563056
    },
    {
      "cityName": "Nova Vida",
      "lat": -5.15,
      "lng": -44.966667
    },
    {
      "cityName": "Nova York",
      "lat": -6.75,
      "lng": -44.05
    },
    {
      "cityName": "Novilha II",
      "lat": -3.305833,
      "lng": -43.436111
    },
    {
      "cityName": "Novilha I",
      "lat": -3.319722,
      "lng": -43.441944
    },
    {
      "cityName": "Novo",
      "lat": -8.5,
      "lng": -46.466667
    },
    {
      "cityName": "Novo Oriente",
      "lat": -3.023333,
      "lng": -42.065278
    },
    {
      "cityName": "Novo Recreio",
      "lat": -8.116667,
      "lng": -46.35
    },
    {
      "cityName": "Novo Sítio",
      "lat": -6.016667,
      "lng": -43.616667
    },
    {
      "cityName": "Nunes Freire",
      "lat": -5.416667,
      "lng": -46.783333
    },
    {
      "cityName": "Oiteiro",
      "lat": -3.623889,
      "lng": -43.418889
    },
    {
      "cityName": "Oitis",
      "lat": -3.249722,
      "lng": -42.222778
    },
    {
      "cityName": "Oitiua",
      "lat": -2.433333,
      "lng": -44.633333
    },
    {
      "cityName": "Olaria",
      "lat": -3.673611,
      "lng": -42.727778
    },
    {
      "cityName": "Olho-d'Agua do Abraao",
      "lat": -3.688889,
      "lng": -43.2375
    },
    {
      "cityName": "Olho d'Agua do Noga",
      "lat": -5.85,
      "lng": -43.483333
    },
    {
      "cityName": "Olho d'Agua Grande",
      "lat": -4.716667,
      "lng": -44.566667
    },
    {
      "cityName": "Olho d'Agua",
      "lat": -2.516667,
      "lng": -44.233333
    },
    {
      "cityName": "Olho-d'Agua",
      "lat": -3.017778,
      "lng": -42.053889
    },
    {
      "cityName": "Onça do Salvador",
      "lat": -3.12,
      "lng": -42.885
    },
    {
      "cityName": "Onça dos Paneiros",
      "lat": -3.149722,
      "lng": -42.928889
    },
    {
      "cityName": "Onça",
      "lat": -3.341389,
      "lng": -42.655556
    },
    {
      "cityName": "Oriental",
      "lat": -3.166667,
      "lng": -45.133333
    },
    {
      "cityName": "Ouro",
      "lat": -8.163056,
      "lng": -46.235
    },
    {
      "cityName": "Ouro Prêto",
      "lat": -4.933333,
      "lng": -44.366667
    },
    {
      "cityName": "Outeira",
      "lat": -2.016667,
      "lng": -44.516667
    },
    {
      "cityName": "Pacas",
      "lat": -2.583333,
      "lng": -45.116667
    },
    {
      "cityName": "Pachecão",
      "lat": -3.543611,
      "lng": -43.215556
    },
    {
      "cityName": "Pacheco",
      "lat": -3.116667,
      "lng": -45.283333
    },
    {
      "cityName": "Pachequinho",
      "lat": -3.529444,
      "lng": -43.225556
    },
    {
      "cityName": "Pacoti",
      "lat": -3.698889,
      "lng": -42.838889
    },
    {
      "cityName": "Pacova",
      "lat": -3.218611,
      "lng": -43.068611
    },
    {
      "cityName": "Pai João",
      "lat": -3.782778,
      "lng": -43.366111
    },
    {
      "cityName": "Paiol",
      "lat": -3.733333,
      "lng": -45.05
    },
    {
      "cityName": "Pajeú",
      "lat": -3.242778,
      "lng": -42.036667
    },
    {
      "cityName": "Palestina",
      "lat": -3.689722,
      "lng": -42.993889
    },
    {
      "cityName": "Palmeira do Norte",
      "lat": -4.4,
      "lng": -43.516667
    },
    {
      "cityName": "Palmeira",
      "lat": -3.041667,
      "lng": -42.851667
    },
    {
      "cityName": "Palmeiras Juntas",
      "lat": -3.649722,
      "lng": -42.839722
    },
    {
      "cityName": "Palmeiras",
      "lat": -2.566667,
      "lng": -44.866667
    },
    {
      "cityName": "Palmeira Torta",
      "lat": -4.616667,
      "lng": -45.383333
    },
    {
      "cityName": "Palmeirinha II",
      "lat": -3.09,
      "lng": -42.063056
    },
    {
      "cityName": "Palmeirinha I",
      "lat": -3.096667,
      "lng": -42.3175
    },
    {
      "cityName": "Palmeirinha",
      "lat": -3.063333,
      "lng": -42.8975
    },
    {
      "cityName": "Palmira",
      "lat": -3.083333,
      "lng": -43.05
    },
    {
      "cityName": "Panela",
      "lat": -3.492778,
      "lng": -42.86
    },
    {
      "cityName": "Pão de Ouro",
      "lat": -4.916667,
      "lng": -44.383333
    },
    {
      "cityName": "Papagaio",
      "lat": -6.016667,
      "lng": -45.35
    },
    {
      "cityName": "Parafuso",
      "lat": -3.570833,
      "lng": -43.200833
    },
    {
      "cityName": "Paraibano",
      "lat": -6.5,
      "lng": -44.016667
    },
    {
      "cityName": "Paraíso",
      "lat": -3.300833,
      "lng": -42.400278
    },
    {
      "cityName": "Para-Mirim",
      "lat": -3.984722,
      "lng": -42.959722
    },
    {
      "cityName": "Paranaidji",
      "lat": -6.55,
      "lng": -47.45
    },
    {
      "cityName": "Parelhas",
      "lat": -8.45,
      "lng": -46.333333
    },
    {
      "cityName": "Parnarama",
      "lat": -5.683333,
      "lng": -43.1
    },
    {
      "cityName": "Parnaso",
      "lat": -4.283333,
      "lng": -43.45
    },
    {
      "cityName": "Pá Serrada",
      "lat": -3.207222,
      "lng": -43.014722
    },
    {
      "cityName": "Passa Bem",
      "lat": -3.554722,
      "lng": -43.325556
    },
    {
      "cityName": "Passagem da Canoa",
      "lat": -3.371667,
      "lng": -42.473889
    },
    {
      "cityName": "Passagem do Gado",
      "lat": -3.1475,
      "lng": -42.984167
    },
    {
      "cityName": "Passagem do Magu",
      "lat": -3.091389,
      "lng": -42.303333
    },
    {
      "cityName": "Passagem Franca",
      "lat": -6.166667,
      "lng": -43.783333
    },
    {
      "cityName": "Passagem",
      "lat": -1.55,
      "lng": -46.166667
    },
    {
      "cityName": "Passagem Santo Antônio",
      "lat": -5.383333,
      "lng": -42.9
    },
    {
      "cityName": "Passagem Velha",
      "lat": -3.024444,
      "lng": -42.475
    },
    {
      "cityName": "Passa Tempo",
      "lat": -5.45,
      "lng": -43.333333
    },
    {
      "cityName": "Passe-Bem",
      "lat": -2.466667,
      "lng": -45.216667
    },
    {
      "cityName": "Pastos Bons",
      "lat": -6.6,
      "lng": -44.083333
    },
    {
      "cityName": "Patí",
      "lat": -3.051667,
      "lng": -43.125
    },
    {
      "cityName": "Patrocínio",
      "lat": -4.466667,
      "lng": -44.733333
    },
    {
      "cityName": "Pau-d'Agua",
      "lat": -3.413889,
      "lng": -42.249722
    },
    {
      "cityName": "Pau d'Arco",
      "lat": -3.157778,
      "lng": -43.094167
    },
    {
      "cityName": "Pau-d'Arco",
      "lat": -3.783056,
      "lng": -43.463333
    },
    {
      "cityName": "Pau Ferrado",
      "lat": -3.159167,
      "lng": -43.453889
    },
    {
      "cityName": "Pau Lavrado",
      "lat": -3.243611,
      "lng": -42.243056
    },
    {
      "cityName": "Paulino Neves",
      "lat": -2.716667,
      "lng": -42.55
    },