{
  "name": "Unnamed region 10",
  "cities": [
    {
      "cityName": "Becharky",
      "lat": 50.3,
      "lng": 15.3
    },
    {
      "cityName": "Chodovice",
      "lat": 50.3833333,
      "lng": 15.5833333
    },
    {
      "cityName": "Chomutice",
      "lat": 50.3666667,
      "lng": 15.5
    },
    {
      "cityName": "Chomuticky",
      "lat": 50.3666667,
      "lng": 15.4833333
    },
    {
      "cityName": "Chotesice",
      "lat": 50.2833333,
      "lng": 15.2666667
    },
    {
      "cityName": "Chroustov",
      "lat": 50.2833333,
      "lng": 15.35
    },
    {
      "cityName": "Domoslavice",
      "lat": 50.3666667,
      "lng": 15.55
    },
    {
      "cityName": "Dubecno",
      "lat": 50.2666667,
      "lng": 15.3166667
    },
    {
      "cityName": "Gross-Hluschitz",
      "lat": 50.2666667,
      "lng": 15.4
    },
    {
      "cityName": "Kamilov",
      "lat": 50.2333333,
      "lng": 15.35
    },
    {
      "cityName": "Knezice",
      "lat": 50.2711111,
      "lng": 15.3244444
    },
    {
      "cityName": "Konecchlumí",
      "lat": 50.4,
      "lng": 15.4833333
    },
    {
      "cityName": "Kovac",
      "lat": 50.4,
      "lng": 15.4666667
    },
    {
      "cityName": "Libín",
      "lat": 50.4,
      "lng": 15.55
    },
    {
      "cityName": "Lískovice",
      "lat": 50.3333333,
      "lng": 15.55
    },
    {
      "cityName": "Loucna Hora",
      "lat": 50.3,
      "lng": 15.5
    },
    {
      "cityName": "Malá Strana",
      "lat": 50.2666667,
      "lng": 15.2833333
    },
    {
      "cityName": "Nevratice",
      "lat": 50.35,
      "lng": 15.5
    },
    {
      "cityName": "Nová Ves",
      "lat": 50.2666667,
      "lng": 15.3
    },
    {
      "cityName": "Ohnistany",
      "lat": 50.3283333,
      "lng": 15.5105556
    },
    {
      "cityName": "Osek",
      "lat": 50.2666667,
      "lng": 15.3666667
    },
    {
      "cityName": "Ostromer",
      "lat": 50.3727778,
      "lng": 15.5455556
    },
    {
      "cityName": "Podhorní Újezd",
      "lat": 50.3833333,
      "lng": 15.5166667
    },
    {
      "cityName": "Saplava",
      "lat": 50.3166667,
      "lng": 15.5333333
    },
    {
      "cityName": "Sekerice",
      "lat": 50.2833333,
      "lng": 15.3833333
    },
    {
      "cityName": "Slavhostice",
      "lat": 50.3166667,
      "lng": 15.35
    },
    {
      "cityName": "Smidar",
      "lat": 50.3,
      "lng": 15.4833333
    },
    {
      "cityName": "Sobcice",
      "lat": 50.3666667,
      "lng": 15.5166667
    },
    {
      "cityName": "Staré Smrkovice",
      "lat": 50.3333333,
      "lng": 15.5
    },
    {
      "cityName": "Strihov",
      "lat": 50.2333333,
      "lng": 15.3666667
    },
    {
      "cityName": "Sukorady",
      "lat": 50.3333333,
      "lng": 15.5833333
    },
    {
      "cityName": "Sylvaruv Ujezd",
      "lat": 50.35,
      "lng": 15.55
    },
    {
      "cityName": "Tereziny Dary",
      "lat": 50.3333333,
      "lng": 15.5333333
    },
    {
      "cityName": "Trtenice",
      "lat": 50.3833333,
      "lng": 15.4666667
    },
    {
      "cityName": "Vojice",
      "lat": 50.3833333,
      "lng": 15.5
    },
    {
      "cityName": "Záhornice",
      "lat": 50.25,
      "lng": 15.2833333
    },
    {
      "cityName": "Zidovice",
      "lat": 50.3,
      "lng": 15.3166667
    }
  ]
}