{
  "name": "Midtjylland",
  "cities": [
    {
      "cityName": "Aabo",
      "lat": 56.116667,
      "lng": 10.05
    },
    {
      "cityName": "Aaby",
      "lat": 56.15,
      "lng": 10.166667
    },
    {
      "cityName": "Aakær",
      "lat": 56.466667,
      "lng": 9
    },
    {
      "cityName": "Aalbæk",
      "lat": 56.616667,
      "lng": 8.75
    },
    {
      "cityName": "Aale",
      "lat": 55.883333,
      "lng": 9.566667
    },
    {
      "cityName": "Aaleskov",
      "lat": 56.5,
      "lng": 8.783333
    },
    {
      "cityName": "Aalsö",
      "lat": 56.366667,
      "lng": 10.85
    },
    {
      "cityName": "Aalsrode",
      "lat": 56.35,
      "lng": 10.866667
    },
    {
      "cityName": "Aalstrup",
      "lat": 55.9,
      "lng": 10.133333
    },
    {
      "cityName": "Aalum",
      "lat": 56.45,
      "lng": 9.85
    },
    {
      "cityName": "Aanum",
      "lat": 55.95,
      "lng": 8.55
    },
    {
      "cityName": "Aarestrup",
      "lat": 56.283333,
      "lng": 9.25
    },
    {
      "cityName": "Aargab",
      "lat": 55.966667,
      "lng": 8.15
    },
    {
      "cityName": "Aarhus",
      "lat": 56.15,
      "lng": 10.216667
    },
    {
      "cityName": "Aarslev",
      "lat": 56.15,
      "lng": 10.083333
    },
    {
      "cityName": "Aas",
      "lat": 55.916667,
      "lng": 9.983333
    },
    {
      "cityName": "Aasted",
      "lat": 56.766667,
      "lng": 8.983333
    },
    {
      "cityName": "Aasted Bro",
      "lat": 55.9,
      "lng": 9.616667
    },
    {
      "cityName": "Aastrup",
      "lat": 55.766667,
      "lng": 9.983333
    },
    {
      "cityName": "Abildaa",
      "lat": 56.166667,
      "lng": 8.616667
    },
    {
      "cityName": "Abildholt",
      "lat": 56.366667,
      "lng": 8.9
    },
    {
      "cityName": "Abildskov",
      "lat": 56.15,
      "lng": 9.433333
    },
    {
      "cityName": "Åbling",
      "lat": 55.816667,
      "lng": 8.3
    },
    {
      "cityName": "Addit",
      "lat": 56.033333,
      "lng": 9.616667
    },
    {
      "cityName": "Adslev",
      "lat": 56.1,
      "lng": 10
    },
    {
      "cityName": "Ådum",
      "lat": 55.866667,
      "lng": 8.6
    },
    {
      "cityName": "Æbeltoft",
      "lat": 56.2,
      "lng": 10.683333
    },
    {
      "cityName": "Agerfeld",
      "lat": 56.25,
      "lng": 8.616667
    },
    {
      "cityName": "Agersbæk",
      "lat": 56.15,
      "lng": 8.266667
    },
    {
      "cityName": "Agerskov",
      "lat": 56.25,
      "lng": 9.2
    },
    {
      "cityName": "Agestrup",
      "lat": 55.916667,
      "lng": 10
    },
    {
      "cityName": "Agri",
      "lat": 56.233333,
      "lng": 10.533333
    },
    {
      "cityName": "Ahl",
      "lat": 56.166667,
      "lng": 10.65
    },
    {
      "cityName": "Aidt",
      "lat": 56.316667,
      "lng": 9.8
    },
    {
      "cityName": "Ajstrup",
      "lat": 56.033333,
      "lng": 10.25
    },
    {
      "cityName": "Ajstrup Strand",
      "lat": 56.05,
      "lng": 10.266667
    },
    {
      "cityName": "Ål",
      "lat": 56.5,
      "lng": 8.816667
    },
    {
      "cityName": "Albæk",
      "lat": 56.483333,
      "lng": 10.166667
    },
    {
      "cityName": "Albæk Hede",
      "lat": 56,
      "lng": 8.8
    },
    {
      "cityName": "Albøge",
      "lat": 56.366667,
      "lng": 10.716667
    },
    {
      "cityName": "Alderslyst",
      "lat": 56.183333,
      "lng": 9.566667
    },
    {
      "cityName": "Alkærsig",
      "lat": 55.983333,
      "lng": 8.483333
    },
    {
      "cityName": "Alken",
      "lat": 56.05,
      "lng": 9.85
    },
    {
      "cityName": "Alle",
      "lat": 56.133333,
      "lng": 8.733333
    },
    {
      "cityName": "Allelev",
      "lat": 56.383333,
      "lng": 10.766667
    },
    {
      "cityName": "Allestrup",
      "lat": 56.466667,
      "lng": 10.4
    },
    {
      "cityName": "Allingaabro",
      "lat": 56.466667,
      "lng": 10.333333
    },
    {
      "cityName": "Alling",
      "lat": 56.1,
      "lng": 9.733333
    },
    {
      "cityName": "Almind",
      "lat": 56.366667,
      "lng": 9.4
    },
    {
      "cityName": "Almtoft",
      "lat": 56.283333,
      "lng": 9.45
    },
    {
      "cityName": "Alrø By",
      "lat": 55.866667,
      "lng": 10.083333
    },
    {
      "cityName": "Alrum",
      "lat": 56.183333,
      "lng": 8.233333
    },
    {
      "cityName": "Alstrup",
      "lat": 55.883333,
      "lng": 10.633333
    },
    {
      "cityName": "Ammelhede",
      "lat": 56.433333,
      "lng": 10.216667
    },
    {
      "cityName": "Amstrup",
      "lat": 55.883333,
      "lng": 10.133333
    },
    {
      "cityName": "Anbæk",
      "lat": 56.233333,
      "lng": 9.866667
    },
    {
      "cityName": "Andi",
      "lat": 56.366667,
      "lng": 10.3
    },
    {
      "cityName": "Andrup",
      "lat": 56.233333,
      "lng": 10.5
    },
    {
      "cityName": "Anholt",
      "lat": 56.7,
      "lng": 11.55
    },
    {
      "cityName": "Ans",
      "lat": 56.316667,
      "lng": 9.6
    },
    {
      "cityName": "Aptrup",
      "lat": 56.266667,
      "lng": 9.8
    },
    {
      "cityName": "Arnborg",
      "lat": 56.016667,
      "lng": 8.983333
    },
    {
      "cityName": "Asbækhede",
      "lat": 56.233333,
      "lng": 8.8
    },
    {
      "cityName": "Asfærg",
      "lat": 56.55,
      "lng": 9.933333
    },
    {
      "cityName": "Ask",
      "lat": 56.033333,
      "lng": 10.133333
    },
    {
      "cityName": "Askildrup",
      "lat": 56.4,
      "lng": 10.066667
    },
    {
      "cityName": "Asklev",
      "lat": 56.083333,
      "lng": 9.483333
    },
    {
      "cityName": "Askov",
      "lat": 56.183333,
      "lng": 8.583333
    },
    {
      "cityName": "Asløkke",
      "lat": 55.733333,
      "lng": 10
    },
    {
      "cityName": "Asp",
      "lat": 56.433333,
      "lng": 8.516667
    },
    {
      "cityName": "Assedrup",
      "lat": 56,
      "lng": 10.2
    },
    {
      "cityName": "Assendrup",
      "lat": 55.966667,
      "lng": 10.016667
    },
    {
      "cityName": "Assentoft",
      "lat": 56.433333,
      "lng": 10.15
    },
    {
      "cityName": "Assing",
      "lat": 56.016667,
      "lng": 8.85
    },
    {
      "cityName": "Attrup",
      "lat": 56.316667,
      "lng": 10.75
    },
    {
      "cityName": "Aulum",
      "lat": 56.266667,
      "lng": 8.8
    },
    {
      "cityName": "Auning",
      "lat": 56.433333,
      "lng": 10.383333
    },
    {
      "cityName": "Baastrup",
      "lat": 55.783333,
      "lng": 9.65
    },
    {
      "cityName": "Bækbo",
      "lat": 56.033333,
      "lng": 8.416667
    },
    {
      "cityName": "Bækkelund",
      "lat": 56.366667,
      "lng": 9.35
    },
    {
      "cityName": "Bækmarksbro",
      "lat": 56.416667,
      "lng": 8.316667
    },
    {
      "cityName": "Bærs",
      "lat": 56.5,
      "lng": 8.966667
    },
    {
      "cityName": "Bajlum",
      "lat": 56.7,
      "lng": 8.95
    },
    {
      "cityName": "Bakbjærg",
      "lat": 56.083333,
      "lng": 9.616667
    },
    {
      "cityName": "Bale",
      "lat": 56.316667,
      "lng": 10.383333
    },
    {
      "cityName": "Balle",
      "lat": 56,
      "lng": 10.116667
    },
    {
      "cityName": "Ballebo",
      "lat": 55.933333,
      "lng": 10.016667
    },
    {
      "cityName": "Balle By",
      "lat": 56.183333,
      "lng": 9.516667
    },
    {
      "cityName": "Balleby",
      "lat": 56.55,
      "lng": 8.25
    },
    {
      "cityName": "Balle Kirkeby",
      "lat": 56.2,
      "lng": 9.533333
    },
    {
      "cityName": "Ballen",
      "lat": 55.816667,
      "lng": 10.65
    },
    {
      "cityName": "Balling",
      "lat": 56.633333,
      "lng": 8.883333
    },
    {
      "cityName": "Bandsbøl",
      "lat": 55.85,
      "lng": 8.35
    },
    {
      "cityName": "Bandsby",
      "lat": 56.133333,
      "lng": 8.216667
    },
    {
      "cityName": "Barde",
      "lat": 56.116667,
      "lng": 8.7
    },
    {
      "cityName": "Barret",
      "lat": 55.716667,
      "lng": 9.9
    },
    {
      "cityName": "Barrithule",
      "lat": 55.7,
      "lng": 9.883333
    },
    {
      "cityName": "Barritskov By",
      "lat": 55.7,
      "lng": 9.9
    },
    {
      "cityName": "Barslev",
      "lat": 56.65,
      "lng": 8.5
    },
    {
      "cityName": "Bartum",
      "lat": 56.5,
      "lng": 9.483333
    },
    {
      "cityName": "Basballe",
      "lat": 56.25,
      "lng": 10.566667
    },
    {
      "cityName": "Battrup",
      "lat": 56.066667,
      "lng": 10.133333
    },
    {
      "cityName": "Beder",
      "lat": 56.066667,
      "lng": 10.216667
    },
    {
      "cityName": "Begtrup",
      "lat": 56.183333,
      "lng": 10.516667
    },
    {
      "cityName": "Belle",
      "lat": 55.716667,
      "lng": 9.766667
    },
    {
      "cityName": "Bendstrup",
      "lat": 56.283333,
      "lng": 10.25
    },
    {
      "cityName": "Benslehøj",
      "lat": 56.35,
      "lng": 9.233333
    },
    {
      "cityName": "Bering",
      "lat": 56.1,
      "lng": 10.066667
    },
    {
      "cityName": "Besser",
      "lat": 55.866667,
      "lng": 10.65
    },
    {
      "cityName": "Bigum",
      "lat": 56.533333,
      "lng": 9.666667
    },
    {
      "cityName": "Bilstrup",
      "lat": 56.55,
      "lng": 9.016667
    },
    {
      "cityName": "Binderup",
      "lat": 56.65,
      "lng": 10.25
    },
    {
      "cityName": "Birk",
      "lat": 56.133333,
      "lng": 9.05
    },
    {
      "cityName": "Birkild",
      "lat": 56.433333,
      "lng": 8.483333
    },
    {
      "cityName": "Birkkær",
      "lat": 56.166667,
      "lng": 8.316667
    },
    {
      "cityName": "Birkmose",
      "lat": 56.15,
      "lng": 8.75
    },
    {
      "cityName": "Birkmose Gårde",
      "lat": 56.066667,
      "lng": 8.583333
    },
    {
      "cityName": "Bisholt",
      "lat": 55.816667,
      "lng": 9.966667
    },
    {
      "cityName": "Bjærgager",
      "lat": 55.966667,
      "lng": 10.216667
    },
    {
      "cityName": "Bjærgby",
      "lat": 56.516667,
      "lng": 10.016667
    },
    {
      "cityName": "Bjærge",
      "lat": 55.783333,
      "lng": 9.866667
    },
    {
      "cityName": "Bjærgegravhede",
      "lat": 56.6,
      "lng": 9.5
    },
    {
      "cityName": "Bjærggaard",
      "lat": 55.866667,
      "lng": 8.183333
    },
    {
      "cityName": "Bjærggårde",
      "lat": 56.083333,
      "lng": 8.85
    },
    {
      "cityName": "Bjært",
      "lat": 56.466667,
      "lng": 8.783333
    },
    {
      "cityName": "Bjedstrup",
      "lat": 56.066667,
      "lng": 9.866667
    },
    {
      "cityName": "Bjerregårde",
      "lat": 56.066667,
      "lng": 8.85
    },
    {
      "cityName": "Bjerregrav",
      "lat": 56.583333,
      "lng": 9.516667
    },
    {
      "cityName": "Bjerring",
      "lat": 56.383333,
      "lng": 9.616667
    },
    {
      "cityName": "Bjerringbro",
      "lat": 56.383333,
      "lng": 9.666667
    },
    {
      "cityName": "Bjertrup",
      "lat": 56.083333,
      "lng": 10
    },
    {
      "cityName": "Bjödstrup",
      "lat": 56.1,
      "lng": 10.166667
    },
    {
      "cityName": "Bjørndal",
      "lat": 56.616667,
      "lng": 8.533333
    },
    {
      "cityName": "Bjørnholt",
      "lat": 56.2,
      "lng": 9.566667
    },
    {
      "cityName": "Blaahöj",
      "lat": 55.85,
      "lng": 9.016667
    },
    {
      "cityName": "Blaakær",
      "lat": 56.183333,
      "lng": 10.416667
    },
    {
      "cityName": "Blæsbjærg",
      "lat": 56.3,
      "lng": 8.45
    },
    {
      "cityName": "Blåhøj Stationsby",
      "lat": 55.866667,
      "lng": 9.033333
    },
    {
      "cityName": "Blegind",
      "lat": 56.066667,
      "lng": 10.083333
    },
    {
      "cityName": "Bleld",
      "lat": 55.916667,
      "lng": 9.9
    },
    {
      "cityName": "Blenstrup",
      "lat": 56.6,
      "lng": 10.116667
    },
    {
      "cityName": "Blirup",
      "lat": 55.883333,
      "lng": 9.933333
    },
    {
      "cityName": "Bode",
      "lat": 56.483333,
      "lng": 10.316667
    },
    {
      "cityName": "Bodholt",
      "lat": 56.133333,
      "lng": 9.283333
    },
    {
      "cityName": "Bödstrup",
      "lat": 56.283333,
      "lng": 10.55
    },
    {
      "cityName": "Boes",
      "lat": 56.05,
      "lng": 9.8
    },
    {
      "cityName": "Boeslum",
      "lat": 56.2,
      "lng": 10.716667
    },
    {
      "cityName": "Boest",
      "lat": 55.983333,
      "lng": 9.45
    },
    {
      "cityName": "Bøgballe",
      "lat": 55.833333,
      "lng": 9.633333
    },
    {
      "cityName": "Bøgelund",
      "lat": 56.233333,
      "lng": 9.216667
    },
    {
      "cityName": "Bogens",
      "lat": 56.216667,
      "lng": 10.566667
    },
    {
      "cityName": "Bøgeskov",
      "lat": 56.016667,
      "lng": 10.1
    },
    {
      "cityName": "Bøgildgård",
      "lat": 56.266667,
      "lng": 9.4
    },
    {
      "cityName": "Bøjen",
      "lat": 56.383333,
      "lng": 10.35
    },
    {
      "cityName": "Bøjstrup",
      "lat": 56.4,
      "lng": 10.5
    },
    {
      "cityName": "Bøl",
      "lat": 56.666667,
      "lng": 8.633333
    },
    {
      "cityName": "Boller",
      "lat": 55.833333,
      "lng": 9.916667
    },
    {
      "cityName": "Bølling",
      "lat": 55.983333,
      "lng": 8.55
    },
    {
      "cityName": "Böndergaarde",
      "lat": 56.1,
      "lng": 8.216667
    },
    {
      "cityName": "Bønnerup",
      "lat": 56.516667,
      "lng": 10.733333
    },
    {
      "cityName": "Bønnerup Strand",
      "lat": 56.533333,
      "lng": 10.716667
    },
    {
      "cityName": "Bonnet",
      "lat": 56.516667,
      "lng": 8.233333
    },
    {
      "cityName": "Borbjærg",
      "lat": 56.4,
      "lng": 8.766667
    },
    {
      "cityName": "Bording",
      "lat": 56.15,
      "lng": 9.283333
    },
    {
      "cityName": "Bording Kirkeby",
      "lat": 56.166667,
      "lng": 9.25
    },
    {
      "cityName": "Bording Mark",
      "lat": 56.183333,
      "lng": 9.2
    },
    {
      "cityName": "Boring",
      "lat": 55.866667,
      "lng": 9.6
    },
    {
      "cityName": "Borre",
      "lat": 56.316667,
      "lng": 9.7
    },
    {
      "cityName": "Borridsø",
      "lat": 56.333333,
      "lng": 9.75
    },
    {
      "cityName": "Borris",
      "lat": 55.966667,
      "lng": 8.65
    },
    {
      "cityName": "Borum",
      "lat": 56.183333,
      "lng": 10.016667
    },
    {
      "cityName": "Borup",
      "lat": 55.966667,
      "lng": 9.116667
    },
    {
      "cityName": "Bøstrup",
      "lat": 56.316667,
      "lng": 9.883333
    },
    {
      "cityName": "Bottrup",
      "lat": 55.816667,
      "lng": 9.75
    },
    {
      "cityName": "Bövlingbærg",
      "lat": 56.433333,
      "lng": 8.216667
    },
    {
      "cityName": "Bovlstrup",
      "lat": 55.95,
      "lng": 10.233333
    },
    {
      "cityName": "Braa",
      "lat": 55.766667,
      "lng": 9.833333
    },
    {
      "cityName": "Braarup",
      "lat": 56.316667,
      "lng": 9.666667
    },
    {
      "cityName": "Braaskov",
      "lat": 55.75,
      "lng": 9.85
    },
    {
      "cityName": "Brabrand",
      "lat": 56.15,
      "lng": 10.116667
    },
    {
      "cityName": "Brædstrup",
      "lat": 55.966667,
      "lng": 9.616667
    },
    {
      "cityName": "Bramstrup",
      "lat": 56.35,
      "lng": 10.166667
    },
    {
      "cityName": "Brandborg",
      "lat": 56.416667,
      "lng": 8.266667
    },
    {
      "cityName": "Brande",
      "lat": 55.95,
      "lng": 9.116667
    },
    {
      "cityName": "Branden",
      "lat": 56.8,
      "lng": 9.033333
    },
    {
      "cityName": "Brande Ure",
      "lat": 55.933333,
      "lng": 9.05
    },
    {
      "cityName": "Brandlund",
      "lat": 55.933333,
      "lng": 9.116667
    },
    {
      "cityName": "Brandstrup",
      "lat": 56.283333,
      "lng": 10.283333
    },
    {
      "cityName": "Bredholt",
      "lat": 56.333333,
      "lng": 9.666667
    },
    {
      "cityName": "Bregning",
      "lat": 56.1,
      "lng": 8.5
    },
    {
      "cityName": "Bremdal",
      "lat": 56.516667,
      "lng": 8.616667
    },
    {
      "cityName": "Brendstrup",
      "lat": 56.183333,
      "lng": 10.166667
    },
    {
      "cityName": "Brestenbro",
      "lat": 55.933333,
      "lng": 9.666667
    },
    {
      "cityName": "Bret",
      "lat": 55.733333,
      "lng": 9.883333
    },
    {
      "cityName": "Breum",
      "lat": 56.683333,
      "lng": 9.066667
    },
    {
      "cityName": "Brigsted",
      "lat": 55.883333,
      "lng": 10.016667
    },
    {
      "cityName": "Brokkedal",
      "lat": 56.4,
      "lng": 10.733333
    },
    {
      "cityName": "Brøndstrup",
      "lat": 56.516667,
      "lng": 10.8
    },
    {
      "cityName": "Brøndum",
      "lat": 56.583333,
      "lng": 8.916667
    },
    {
      "cityName": "Brorstrup",
      "lat": 56.1,
      "lng": 8.416667
    },
    {
      "cityName": "Brørup",
      "lat": 55.983333,
      "lng": 9.933333
    },
    {
      "cityName": "Brunbjerg",
      "lat": 56.2,
      "lng": 8.166667
    },
    {
      "cityName": "Brunby",
      "lat": 55.816667,
      "lng": 10.616667
    },
    {
      "cityName": "Brundbymark",
      "lat": 55.833333,
      "lng": 10.65
    },
    {
      "cityName": "Brundt",
      "lat": 56.3,
      "lng": 9.966667
    },
    {
      "cityName": "Brunmose",
      "lat": 56.416667,
      "lng": 10.433333
    },
    {
      "cityName": "Brunshaab",
      "lat": 56.416667,
      "lng": 9.466667
    },
    {
      "cityName": "Bryrup",
      "lat": 56.016667,
      "lng": 9.516667
    },
    {
      "cityName": "Bugtrup",
      "lat": 56.366667,
      "lng": 10.583333
    },
    {
      "cityName": "Bukkær",
      "lat": 55.983333,
      "lng": 8.833333
    },
    {
      "cityName": "Buksager",
      "lat": 56.65,
      "lng": 8.866667
    },
    {
      "cityName": "Bundsgård",
      "lat": 55.883333,
      "lng": 8.633333
    },
    {
      "cityName": "Bur",
      "lat": 56.366667,
      "lng": 8.433333
    },
    {
      "cityName": "Burgaarde",
      "lat": 56,
      "lng": 9.6
    },
    {
      "cityName": "Busk",
      "lat": 56.15,
      "lng": 9.1
    },
    {
      "cityName": "Bysted",
      "lat": 56.75,
      "lng": 8.916667
    },
    {
      "cityName": "Bystrup",
      "lat": 56.666667,
      "lng": 9.366667
    },
    {
      "cityName": "Christiansbjerg",
      "lat": 56.183333,
      "lng": 10.2
    },
    {
      "cityName": "Christianshede",
      "lat": 56.116667,
      "lng": 9.35
    },
    {
      "cityName": "Christianshede Stationsby",
      "lat": 56.116667,
      "lng": 9.4
    },
    {
      "cityName": "Christrup",
      "lat": 56.45,
      "lng": 10.066667
    },
    {
      "cityName": "Dagbjærg",
      "lat": 56.433333,
      "lng": 9.15
    },
    {
      "cityName": "Dagnæs",
      "lat": 55.843056,
      "lng": 9.858889
    },
    {
      "cityName": "Dagstrup",
      "lat": 56.35,
      "lng": 10.433333
    },
    {
      "cityName": "Dagsvad",
      "lat": 56.416667,
      "lng": 9.883333
    },
    {
      "cityName": "Dalby",
      "lat": 56.216667,
      "lng": 9.766667
    },
    {
      "cityName": "Dalbyneder",
      "lat": 56.633333,
      "lng": 10.233333
    },
    {
      "cityName": "Dalbyover",
      "lat": 56.616667,
      "lng": 10.2
    },
    {
      "cityName": "Dallerup",
      "lat": 56.166667,
      "lng": 9.8
    },
    {
      "cityName": "Dalsgaard",
      "lat": 56.283333,
      "lng": 9.55
    },
    {
      "cityName": "Dalsgaarde",
      "lat": 56.216667,
      "lng": 9.65
    },
    {
      "cityName": "Dalstrup",
      "lat": 56.716667,
      "lng": 8.916667
    },
    {
      "cityName": "Danstrup",
      "lat": 56.366667,
      "lng": 9.75
    },
    {
      "cityName": "Dauding",
      "lat": 55.983333,
      "lng": 9.583333
    },
    {
      "cityName": "Daugaard",
      "lat": 55.733333,
      "lng": 9.716667
    },
    {
      "cityName": "Debel",
      "lat": 56.816667,
      "lng": 9
    },
    {
      "cityName": "Debelmose",
      "lat": 55.966667,
      "lng": 8.616667
    },
    {
      "cityName": "Dejbjærg",
      "lat": 55.983333,
      "lng": 8.416667
    },
    {
      "cityName": "Dejgret",
      "lat": 56.2,
      "lng": 10.416667
    },
    {
      "cityName": "Dellerup",
      "lat": 56.4,
      "lng": 8.6
    },
    {
      "cityName": "Demstrup",
      "lat": 56.333333,
      "lng": 9.433333
    },
    {
      "cityName": "Dield",
      "lat": 56.433333,
      "lng": 8.866667
    },
    {
      "cityName": "Dölby",
      "lat": 56.6,
      "lng": 8.983333
    },
    {
      "cityName": "Dollerup",
      "lat": 56.366667,
      "lng": 9.316667
    },
    {
      "cityName": "Dolmer",
      "lat": 56.433333,
      "lng": 10.866667
    },
    {
      "cityName": "Dommerby",
      "lat": 56.55,
      "lng": 9.1
    },
    {
      "cityName": "Dørslund",
      "lat": 55.966667,
      "lng": 9.15
    },
    {
      "cityName": "Dorteasminde",
      "lat": 55.85,
      "lng": 9.6
    },
    {
      "cityName": "Dørup",
      "lat": 56.033333,
      "lng": 9.766667
    },
    {
      "cityName": "Døvling",
      "lat": 55.916667,
      "lng": 8.916667
    },
    {
      "cityName": "Draaby",
      "lat": 56.233333,
      "lng": 10.716667
    },
    {
      "cityName": "Drammelsbæk",
      "lat": 55.95,
      "lng": 10.183333
    },
    {
      "cityName": "Drammelstrup",
      "lat": 56.316667,
      "lng": 10.7
    },
    {
      "cityName": "Drantum",
      "lat": 55.916667,
      "lng": 9.1
    },
    {
      "cityName": "Drastrup",
      "lat": 56.45,
      "lng": 10.183333
    },
    {
      "cityName": "Drongstrup",
      "lat": 55.95,
      "lng": 8.816667
    },
    {
      "cityName": "Dronningborg",
      "lat": 56.483333,
      "lng": 10.083333
    },
    {
      "cityName": "Durup",
      "lat": 56.75,
      "lng": 8.95
    },
    {
      "cityName": "Dybebjerg",
      "lat": 56.516667,
      "lng": 8.2
    },
    {
      "cityName": "Dybe",
      "lat": 56.5,
      "lng": 8.166667
    },
    {
      "cityName": "Dyngby",
      "lat": 55.95,
      "lng": 10.25
    },
    {
      "cityName": "Dyrby",
      "lat": 56.583333,
      "lng": 10.033333
    },
    {
      "cityName": "Dyrvig",
      "lat": 55.866667,
      "lng": 8.75
    },
    {
      "cityName": "Dystrup",
      "lat": 56.3,
      "lng": 8.383333
    },
    {
      "cityName": "Ebdrup",
      "lat": 56.333333,
      "lng": 10.55
    },
    {
      "cityName": "Ebstrup",
      "lat": 56.216667,
      "lng": 9.516667
    },
    {
      "cityName": "Edslev",
      "lat": 56.116667,
      "lng": 10.033333
    },
    {
      "cityName": "Egaa",
      "lat": 56.216667,
      "lng": 10.266667
    },
    {
      "cityName": "Egebjærg",
      "lat": 55.916667,
      "lng": 9.85
    },
    {
      "cityName": "Eg",
      "lat": 56.183333,
      "lng": 10.433333
    },
    {
      "cityName": "Egelund",
      "lat": 56.35,
      "lng": 9.083333
    },
    {
      "cityName": "Egens",
      "lat": 56.266667,
      "lng": 10.516667
    },
    {
      "cityName": "Egeris",
      "lat": 56.55,
      "lng": 9.033333
    },
    {
      "cityName": "Egsmark",
      "lat": 56.233333,
      "lng": 10.666667
    },
    {
      "cityName": "Egsmark Strand",
      "lat": 56.216667,
      "lng": 10.666667
    },
    {
      "cityName": "Ejer",
      "lat": 55.983333,
      "lng": 9.833333
    },
    {
      "cityName": "Ejsing",
      "lat": 56.516667,
      "lng": 8.783333
    },
    {
      "cityName": "Ejsingholm",
      "lat": 56.533333,
      "lng": 8.75
    },
    {
      "cityName": "Ejstrup",
      "lat": 55.983333,
      "lng": 9.283333
    },
    {
      "cityName": "Eldrup",
      "lat": 55.95,
      "lng": 9.866667
    },
    {
      "cityName": "Elev",
      "lat": 56.25,
      "lng": 10.2
    },
    {
      "cityName": "Elkær",
      "lat": 56.266667,
      "lng": 9.166667
    },
    {
      "cityName": "Ellerup",
      "lat": 56.233333,
      "lng": 9.766667
    },
    {
      "cityName": "Elling",
      "lat": 55.966667,
      "lng": 9.833333
    },
    {
      "cityName": "Elsborg",
      "lat": 56.333333,
      "lng": 9.483333
    },
    {
      "cityName": "Elsegaarde",
      "lat": 56.166667,
      "lng": 10.733333
    },
    {
      "cityName": "Elsted",
      "lat": 56.25,
      "lng": 10.233333
    },
    {
      "cityName": "Emborg",
      "lat": 56.05,
      "lng": 9.766667
    },
    {
      "cityName": "Emmelev",
      "lat": 56.633333,
      "lng": 10.8
    },
    {
      "cityName": "Endelave By",
      "lat": 55.75,
      "lng": 10.283333
    },
    {
      "cityName": "Engedal",
      "lat": 56.433333,
      "lng": 9.116667
    },
    {
      "cityName": "Engels",
      "lat": 56.816667,
      "lng": 9.066667
    },
    {
      "cityName": "Engesvang",
      "lat": 56.166667,
      "lng": 9.35
    },
    {
      "cityName": "Engesvangkrat",
      "lat": 56.15,
      "lng": 9.316667
    },
    {
      "cityName": "Enner",
      "lat": 55.916667,
      "lng": 9.733333
    },
    {
      "cityName": "Enslev",
      "lat": 56.1,
      "lng": 10.083333
    },
    {
      "cityName": "Eriknauer",
      "lat": 55.833333,
      "lng": 9.75
    },
    {
      "cityName": "Erslev",
      "lat": 56.366667,
      "lng": 10.083333
    },
    {
      "cityName": "Esbøl",
      "lat": 55.816667,
      "lng": 8.416667
    },
    {
      "cityName": "Esby",
      "lat": 56.133333,
      "lng": 10.55
    },
    {
      "cityName": "Eskerod",
      "lat": 56.3,
      "lng": 10.35
    },
    {
      "cityName": "Essig",
      "lat": 56.3,
      "lng": 10.566667
    },
    {
      "cityName": "Estrup",
      "lat": 56.35,
      "lng": 8.483333
    },
    {
      "cityName": "Estrupgaarde",
      "lat": 56.333333,
      "lng": 10.25
    },
    {
      "cityName": "Estvad",
      "lat": 56.533333,
      "lng": 8.983333
    },
    {
      "cityName": "Faarbæk",
      "lat": 56.366667,
      "lng": 9.083333
    },
    {
      "cityName": "Faare",
      "lat": 56.45,
      "lng": 8.266667
    },
    {
      "cityName": "Faarup",
      "lat": 56.216667,
      "lng": 10.083333
    },
    {
      "cityName": "Faarvang",
      "lat": 56.266667,
      "lng": 9.733333
    },
    {
      "cityName": "Fabjærg",
      "lat": 56.5,
      "lng": 8.383333
    },
    {
      "cityName": "Fajstrup",
      "lat": 56.233333,
      "lng": 9.966667
    },
    {
      "cityName": "Fakkegrav",
      "lat": 55.683333,
      "lng": 9.783333
    },
    {
      "cityName": "Falen",
      "lat": 55.833333,
      "lng": 8.266667
    },
    {
      "cityName": "Falkærgaarde",
      "lat": 56.333333,
      "lng": 10.416667
    },
    {
      "cityName": "Fallesgaarde",
      "lat": 56.366667,
      "lng": 9.283333
    },
    {
      "cityName": "Falling",
      "lat": 55.9,
      "lng": 10.15
    },
    {
      "cityName": "Fannerup",
      "lat": 56.4,
      "lng": 10.716667
    },
    {
      "cityName": "Farre",
      "lat": 56.216667,
      "lng": 9.85
    },
    {
      "cityName": "Farre Hede",
      "lat": 56.2,
      "lng": 9.883333
    },
    {
      "cityName": "Faster",
      "lat": 55.983333,
      "lng": 8.6
    },
    {
      "cityName": "Fasterholt",
      "lat": 56.016667,
      "lng": 9.116667
    },
    {
      "cityName": "Fasterkær",
      "lat": 55.983333,
      "lng": 8.616667
    },
    {
      "cityName": "Fasterlund",
      "lat": 56.016667,
      "lng": 8.616667
    },
    {
      "cityName": "Fastrup",
      "lat": 56.033333,
      "lng": 10.066667
    },
    {
      "cityName": "Fausing",
      "lat": 56.45,
      "lng": 10.283333
    },
    {
      "cityName": "Favrholt",
      "lat": 56.183333,
      "lng": 9.133333
    },
    {
      "cityName": "Favrskov",
      "lat": 56.333333,
      "lng": 9.983333
    },
    {
      "cityName": "Fejrskov Huse",
      "lat": 56.1,
      "lng": 9.016667
    },
    {
      "cityName": "Fejrup",
      "lat": 56.133333,
      "lng": 10.5
    },
    {
      "cityName": "Feldballe",
      "lat": 56.283333,
      "lng": 10.6
    },
    {
      "cityName": "Feldingbjærg",
      "lat": 56.5,
      "lng": 9.133333
    },
    {
      "cityName": "Femmøller",
      "lat": 56.233333,
      "lng": 10.583333
    },
    {
      "cityName": "Fensholt",
      "lat": 55.983333,
      "lng": 10.083333
    },
    {
      "cityName": "Fensten",
      "lat": 55.9,
      "lng": 10.2
    },
    {
      "cityName": "Ferring",
      "lat": 56.533333,
      "lng": 8.133333
    },
    {
      "cityName": "Fillerup",
      "lat": 55.966667,
      "lng": 10.116667
    },
    {
      "cityName": "Finderup",
      "lat": 56.066667,
      "lng": 8.516667
    },
    {
      "cityName": "Firehuse",
      "lat": 56.35,
      "lng": 9.216667
    },
    {
      "cityName": "Firgaarde",
      "lat": 56.083333,
      "lng": 9.816667
    },
    {
      "cityName": "Fiskbæk",
      "lat": 56.05,
      "lng": 8.633333
    },
    {
      "cityName": "Fjaltring",
      "lat": 56.466667,
      "lng": 8.133333
    },
    {
      "cityName": "Fjande",
      "lat": 56.316667,
      "lng": 8.15
    },
    {
      "cityName": "Fjellerup",
      "lat": 56.5,
      "lng": 10.6
    },
    {
      "cityName": "Fjellerup Mark",
      "lat": 56.483333,
      "lng": 10.6
    },
    {
      "cityName": "Fjellerup Strand",
      "lat": 56.516667,
      "lng": 10.633333
    },
    {
      "cityName": "Fjerbæk",
      "lat": 55.883333,
      "lng": 8.416667
    },
    {
      "cityName": "Fjerupgaarde",
      "lat": 56.466667,
      "lng": 10.55
    },
    {
      "cityName": "Fladbjerg",
      "lat": 56.116667,
      "lng": 8.316667
    },
    {
      "cityName": "Fladstrup",
      "lat": 56.383333,
      "lng": 10.783333
    },
    {
      "cityName": "Flavlev",
      "lat": 56.633333,
      "lng": 8.516667
    },
    {
      "cityName": "Flemming",
      "lat": 55.866667,
      "lng": 9.666667
    },
    {
      "cityName": "Flensted",
      "lat": 56.15,
      "lng": 9.783333
    },
    {
      "cityName": "Floes",
      "lat": 56.45,
      "lng": 10.25
    },
    {
      "cityName": "Fløjstrup",
      "lat": 56.416667,
      "lng": 10.266667
    },
    {
      "cityName": "Flovtrup",
      "lat": 56.783333,
      "lng": 9.083333
    },
    {
      "cityName": "Fly",
      "lat": 56.5,
      "lng": 9.016667
    },
    {
      "cityName": "Foersum",
      "lat": 55.85,
      "lng": 8.55
    },
    {
      "cityName": "Fogstrup",
      "lat": 56.066667,
      "lng": 9.5
    },
    {
      "cityName": "Folby",
      "lat": 56.25,
      "lng": 10.033333
    },
    {
      "cityName": "Følle",
      "lat": 56.316667,
      "lng": 10.45
    },
    {
      "cityName": "Forlev",
      "lat": 56.066667,
      "lng": 9.9
    },
    {
      "cityName": "Formyre",
      "lat": 56.5,
      "lng": 9.6
    },
    {
      "cityName": "Foulum",
      "lat": 56.5,
      "lng": 9.583333
    },
    {
      "cityName": "Føvling",
      "lat": 55.933333,
      "lng": 9.633333
    },
    {
      "cityName": "Fovsing",
      "lat": 56.466667,
      "lng": 8.516667
    },
    {
      "cityName": "Framlev",
      "lat": 56.15,
      "lng": 10.016667
    },
    {
      "cityName": "Frammerslev",
      "lat": 56.666667,
      "lng": 8.933333
    },
    {
      "cityName": "Frederiksberg",
      "lat": 56.45,
      "lng": 10.05
    },
    {
      "cityName": "Frederiksbjærg",
      "lat": 56.133333,
      "lng": 10.216667
    },
    {
      "cityName": "Frederiksdal",
      "lat": 56.233333,
      "lng": 9.383333
    },
    {
      "cityName": "Frederiks",
      "lat": 56.35,
      "lng": 9.25
    },
    {
      "cityName": "Frederikshede",
      "lat": 56.316667,
      "lng": 9.266667
    },
    {
      "cityName": "Frederikshöj",
      "lat": 56.366667,
      "lng": 9.216667
    },
    {
      "cityName": "Frederiksmose",
      "lat": 56.233333,
      "lng": 9.4
    },
    {
      "cityName": "Fregerslev",
      "lat": 56.066667,
      "lng": 10.033333
    },
    {
      "cityName": "Frisenvold",
      "lat": 56.416667,
      "lng": 9.983333
    },
    {
      "cityName": "Fristrup",
      "lat": 56.616667,
      "lng": 9.616667
    },
    {
      "cityName": "Frølund",
      "lat": 56.166667,
      "lng": 9.083333
    },
    {
      "cityName": "Fruering",
      "lat": 56.033333,
      "lng": 10
    },
    {
      "cityName": "Fuglbjærg",
      "lat": 56.2,
      "lng": 8.183333
    },
    {
      "cityName": "Fuglsang",
      "lat": 56.383333,
      "lng": 10.9
    },
    {
      "cityName": "Fuglslev",
      "lat": 56.283333,
      "lng": 10.733333
    },
    {
      "cityName": "Fuglsø",
      "lat": 56.2,
      "lng": 10.55
    },
    {
      "cityName": "Fulden",
      "lat": 56.083333,
      "lng": 10.233333
    },
    {
      "cityName": "Funder",
      "lat": 56.15,
      "lng": 9.483333
    },
    {
      "cityName": "Funder Kirkeby",
      "lat": 56.15,
      "lng": 9.45
    },
    {
      "cityName": "Funder Nørhede",
      "lat": 56.166667,
      "lng": 9.466667
    },
    {
      "cityName": "Fusager",
      "lat": 56.45,
      "lng": 9.233333
    },
    {
      "cityName": "Futting",
      "lat": 56.283333,
      "lng": 9.8
    },
    {
      "cityName": "Gaarsdal",
      "lat": 56.433333,
      "lng": 9.316667
    },
    {
      "cityName": "Galten",
      "lat": 56.35,
      "lng": 10.05
    },
    {
      "cityName": "Gamle Asmild",
      "lat": 56.45,
      "lng": 9.466667
    },
    {
      "cityName": "Gamle Rye",
      "lat": 56.083333,
      "lng": 9.716667
    },
    {
      "cityName": "Gamle Tørring",
      "lat": 55.866667,
      "lng": 9.5
    },
    {
      "cityName": "Gammelby",
      "lat": 55.716667,
      "lng": 9.8
    },
    {
      "cityName": "Gammel Hampen",
      "lat": 56,
      "lng": 9.366667
    },
    {
      "cityName": "Gammel Hvam",
      "lat": 56.666667,
      "lng": 9.483333
    },
    {
      "cityName": "Gammel Rønbjerg",
      "lat": 56.533333,
      "lng": 8.866667
    },
    {
      "cityName": "Gammelstrup",
      "lat": 55.983333,
      "lng": 9.683333
    },
    {
      "cityName": "Gammel Vejlby",
      "lat": 56.2,
      "lng": 10.216667
    },
    {
      "cityName": "Gamstrup",
      "lat": 56.7,
      "lng": 9
    },
    {
      "cityName": "Gangsted",
      "lat": 55.933333,
      "lng": 10
    },
    {
      "cityName": "Gantrup",
      "lat": 56,
      "lng": 9.733333
    },
    {
      "cityName": "Gassum",
      "lat": 56.566667,
      "lng": 10
    },
    {
      "cityName": "Geddal",
      "lat": 56.533333,
      "lng": 8.766667
    },
    {
      "cityName": "Gedeløkke",
      "lat": 56.683333,
      "lng": 8.9
    },
    {
      "cityName": "Geding",
      "lat": 56.216667,
      "lng": 10.1
    },
    {
      "cityName": "Gedsö",
      "lat": 56.116667,
      "lng": 9.5
    },
    {
      "cityName": "Gedved",
      "lat": 55.933333,
      "lng": 9.85
    },
    {
      "cityName": "Gellerup",
      "lat": 56.15,
      "lng": 10.15
    },
    {
      "cityName": "Gelleruplund",
      "lat": 56.15,
      "lng": 9.033333
    },
    {
      "cityName": "Gerlev",
      "lat": 56.583333,
      "lng": 10.133333
    },
    {
      "cityName": "Gern",
      "lat": 56.233333,
      "lng": 9.75
    },
    {
      "cityName": "Gerning",
      "lat": 56.35,
      "lng": 9.733333
    },
    {
      "cityName": "Gerrild",
      "lat": 56.5,
      "lng": 10.85
    },
    {
      "cityName": "Gesager",
      "lat": 55.783333,
      "lng": 9.683333
    },
    {
      "cityName": "Gesing",
      "lat": 55.983333,
      "lng": 10.016667
    },
    {
      "cityName": "Gimming",
      "lat": 56.5,
      "lng": 10.1
    },
    {
      "cityName": "Ginnerup",
      "lat": 56.383333,
      "lng": 10.116667
    },
    {
      "cityName": "Gjandrup",
      "lat": 56.466667,
      "lng": 9.9
    },
    {
      "cityName": "Gjellerup",
      "lat": 56.15,
      "lng": 9.05
    },
    {
      "cityName": "Gjödstrup",
      "lat": 56.15,
      "lng": 8.9
    },
    {
      "cityName": "Gjørup",
      "lat": 56.65,
      "lng": 9.366667
    },
    {
      "cityName": "Glæsborg",
      "lat": 56.483333,
      "lng": 10.733333
    },
    {
      "cityName": "Glattrup",
      "lat": 55.783333,
      "lng": 9.933333
    },
    {
      "cityName": "Glatved",
      "lat": 56.316667,
      "lng": 10.833333
    },
    {
      "cityName": "Glibstrup",
      "lat": 55.783333,
      "lng": 8.466667
    },
    {
      "cityName": "Glud",
      "lat": 55.816667,
      "lng": 10
    },
    {
      "cityName": "Gludsted",
      "lat": 56.033333,
      "lng": 9.316667
    },
    {
      "cityName": "Glynge",
      "lat": 56.75,
      "lng": 8.933333
    },
    {
      "cityName": "Godthaab",
      "lat": 56.416667,
      "lng": 10.75
    },
    {
      "cityName": "Gødvad",
      "lat": 56.183333,
      "lng": 9.616667
    },
    {
      "cityName": "Gosmer",
      "lat": 55.933333,
      "lng": 10.2
    },
    {
      "cityName": "Graahede",
      "lat": 55.866667,
      "lng": 8.566667
    },
    {
      "cityName": "Graamose",
      "lat": 56.233333,
      "lng": 9.316667
    },
    {
      "cityName": "Graaskov",
      "lat": 56.266667,
      "lng": 9.35
    },
    {
      "cityName": "Grædstrup",
      "lat": 55.966667,
      "lng": 9.55
    },
    {
      "cityName": "Grættrup",
      "lat": 55.966667,
      "lng": 9.383333
    },
    {
      "cityName": "Gram",
      "lat": 55.783333,
      "lng": 9.9
    },
    {
      "cityName": "Gramrode",
      "lat": 55.75,
      "lng": 9.916667
    },
    {
      "cityName": "Grandslev",
      "lat": 56.333333,
      "lng": 9.916667
    },
    {
      "cityName": "Grauballe",
      "lat": 56.216667,
      "lng": 9.633333
    },
    {
      "cityName": "Gravlev",
      "lat": 56.266667,
      "lng": 10.75
    },
    {
      "cityName": "Gravl",
      "lat": 55.9,
      "lng": 8.7
    },
    {
      "cityName": "Green",
      "lat": 56,
      "lng": 9.016667
    },
    {
      "cityName": "Grenaa",
      "lat": 56.416667,
      "lng": 10.883333
    },
    {
      "cityName": "Grenå Strand",
      "lat": 56.4,
      "lng": 10.916667
    },
    {
      "cityName": "Grendsten",
      "lat": 56.416667,
      "lng": 9.933333
    },
    {
      "cityName": "Grettrup",
      "lat": 56.75,
      "lng": 9.116667
    },
    {
      "cityName": "Gribstrup",
      "lat": 55.95,
      "lng": 9.483333
    },
    {
      "cityName": "Grimstrup",
      "lat": 56.133333,
      "lng": 8.333333
    },
    {
      "cityName": "Grinderslev",
      "lat": 56.7,
      "lng": 9.066667
    },
    {
      "cityName": "Grødde",
      "lat": 56.133333,
      "lng": 9.183333
    },
    {
      "cityName": "Grølsted",
      "lat": 56.283333,
      "lng": 9.766667
    },
    {
      "cityName": "Grønbæk",
      "lat": 56.266667,
      "lng": 9.616667
    },
    {
      "cityName": "Grønbæk Huse",
      "lat": 56.283333,
      "lng": 9.6
    },
    {
      "cityName": "Gronbjærg",
      "lat": 56.183333,
      "lng": 8.55
    },
    {
      "cityName": "Grönning",
      "lat": 56.65,
      "lng": 9.066667
    },
    {
      "cityName": "Grøttrup",
      "lat": 56.266667,
      "lng": 10.25
    },
    {
      "cityName": "Grove",
      "lat": 56.316667,
      "lng": 9.05
    },
    {
      "cityName": "Grumstrup",
      "lat": 55.966667,
      "lng": 9.983333
    },
    {
      "cityName": "Grundfør",
      "lat": 56.266667,
      "lng": 10.1
    },
    {
      "cityName": "Grund",
      "lat": 55.7,
      "lng": 9.766667
    },
    {
      "cityName": "Grynderup",
      "lat": 56.783333,
      "lng": 8.933333
    },
    {
      "cityName": "Gudumbro",
      "lat": 56.516667,
      "lng": 8.483333
    },
    {
      "cityName": "Guldforhoved",
      "lat": 56.116667,
      "lng": 9.3
    },
    {
      "cityName": "Gulev",
      "lat": 56.35,
      "lng": 9.683333
    },
    {
      "cityName": "Gullestrup",
      "lat": 56.166667,
      "lng": 8.966667
    },
    {
      "cityName": "Gundelund",
      "lat": 56.466667,
      "lng": 9.183333
    },
    {
      "cityName": "Gunderup",
      "lat": 56.083333,
      "lng": 9.016667
    },
    {
      "cityName": "Gundesbøl",
      "lat": 55.883333,
      "lng": 8.666667
    },
    {
      "cityName": "Gundestrup",
      "lat": 56.416667,
      "lng": 10.183333
    },
    {
      "cityName": "Gylling",
      "lat": 55.883333,
      "lng": 10.183333
    },
    {
      "cityName": "Haarby",
      "lat": 56.083333,
      "lng": 9.916667
    },
    {
      "cityName": "Haardmark",
      "lat": 55.816667,
      "lng": 10.566667
    },
    {
      "cityName": "Haar",
      "lat": 56.283333,
      "lng": 10.083333
    },
    {
      "cityName": "Haarup",
      "lat": 55.916667,
      "lng": 9.616667
    },
    {
      "cityName": "Haasum",
      "lat": 56.583333,
      "lng": 8.85
    },
    {
      "cityName": "Haasum Torp",
      "lat": 56.583333,
      "lng": 8.833333
    },
    {
      "cityName": "Hadbjærg",
      "lat": 56.333333,
      "lng": 10.116667
    },
    {
      "cityName": "Haderup",
      "lat": 56.383333,
      "lng": 9
    },
    {
      "cityName": "Hadrup",
      "lat": 55.933333,
      "lng": 10.05
    },
    {
      "cityName": "Hadsten",
      "lat": 56.333333,
      "lng": 10.05
    },
    {
      "cityName": "Hærup",
      "lat": 56.583333,
      "lng": 9.6
    },
    {
      "cityName": "Hage",
      "lat": 55.9,
      "lng": 9.433333
    },
    {
      "cityName": "Halbgårde",
      "lat": 56,
      "lng": 8.316667
    },
    {
      "cityName": "Hald Ege",
      "lat": 56.4,
      "lng": 9.366667
    },
    {
      "cityName": "Hald",
      "lat": 56.55,
      "lng": 10.116667
    },
    {
      "cityName": "Haldrup",
      "lat": 55.883333,
      "lng": 9.966667
    },
    {
      "cityName": "Haldum",
      "lat": 56.283333,
      "lng": 10.05
    },
    {
      "cityName": "Halkær",
      "lat": 56.216667,
      "lng": 8.183333
    },
    {
      "cityName": "Hallendrup",
      "lat": 56.35,
      "lng": 10.7
    },
    {
      "cityName": "Halling",
      "lat": 55.933333,
      "lng": 10.233333
    },
    {
      "cityName": "Hallundbæk",
      "lat": 56.016667,
      "lng": 9.216667
    },
    {
      "cityName": "Haltenæs",
      "lat": 56.15,
      "lng": 9.583333
    },
    {
      "cityName": "Halved",
      "lat": 56.15,
      "lng": 9.683333
    },
    {
      "cityName": "Hamaa",
      "lat": 56.366667,
      "lng": 10.816667
    },
    {
      "cityName": "Hammelev",
      "lat": 56.45,
      "lng": 10.9
    },
    {
      "cityName": "Hammel",
      "lat": 56.25,
      "lng": 9.866667
    },
    {
      "cityName": "Hammelsvang",
      "lat": 56.116667,
      "lng": 8.4
    },
    {
      "cityName": "Hammer",
      "lat": 55.9,
      "lng": 9.45
    },
    {
      "cityName": "Hammershøj",
      "lat": 56.5,
      "lng": 9.75
    },
    {
      "cityName": "Hammerum",
      "lat": 56.133333,
      "lng": 9.066667
    },
    {
      "cityName": "Hampen",
      "lat": 56.016667,
      "lng": 9.366667
    },
    {
      "cityName": "Hanbjerg",
      "lat": 56.466667,
      "lng": 8.733333
    },
    {
      "cityName": "Handrup",
      "lat": 56.233333,
      "lng": 10.65
    },
    {
      "cityName": "Hanning",
      "lat": 56.016667,
      "lng": 8.516667
    },
    {
      "cityName": "Hansted",
      "lat": 55.9,
      "lng": 9.85
    },
    {
      "cityName": "Harboøre",
      "lat": 56.616667,
      "lng": 8.2
    },
    {
      "cityName": "Hareskov",
      "lat": 56.033333,
      "lng": 8.916667
    },
    {
      "cityName": "Harlev",
      "lat": 56.15,
      "lng": 10
    },
    {
      "cityName": "Harre",
      "lat": 56.716667,
      "lng": 8.933333
    },
    {
      "cityName": "Harreslev",
      "lat": 56.5,
      "lng": 10.133333
    },
    {
      "cityName": "Hasle",
      "lat": 56.166667,
      "lng": 10.166667
    },
    {
      "cityName": "Haslum",
      "lat": 56.416667,
      "lng": 10.033333
    },
    {
      "cityName": "Hasselager",
      "lat": 56.1,
      "lng": 10.116667
    },
    {
      "cityName": "Hasselholt",
      "lat": 56.483333,
      "lng": 8.8
    },
    {
      "cityName": "Hastrup",
      "lat": 56.533333,
      "lng": 10
    },
    {
      "cityName": "Hatting",
      "lat": 55.85,
      "lng": 9.766667
    },
    {
      "cityName": "Hauge",
      "lat": 56.25,
      "lng": 9.366667
    },
    {
      "cityName": "Haunstrup",
      "lat": 56.116667,
      "lng": 8.816667
    },
    {
      "cityName": "Haurum",
      "lat": 56.3,
      "lng": 9.866667
    },
    {
      "cityName": "Havhuse",
      "lat": 56.283333,
      "lng": 10.516667
    },
    {
      "cityName": "Havndal",
      "lat": 56.65,
      "lng": 10.2
    },
    {
      "cityName": "Havrum",
      "lat": 55.833333,
      "lng": 9.666667
    },
    {
      "cityName": "Havrvig",
      "lat": 55.933333,
      "lng": 8.166667
    },
    {
      "cityName": "Heager",
      "lat": 56.116667,
      "lng": 8.283333
    },
    {
      "cityName": "Hedegaarde",
      "lat": 55.95,
      "lng": 9.3
    },
    {
      "cityName": "Hedegaard",
      "lat": 56.483333,
      "lng": 10.683333
    },
    {
      "cityName": "Hedensted",
      "lat": 55.766667,
      "lng": 9.7
    },
    {
      "cityName": "Hee",
      "lat": 56.15,
      "lng": 8.3
    },
    {
      "cityName": "Hejlskov",
      "lat": 56.383333,
      "lng": 10.333333
    },
    {
      "cityName": "Hejring",
      "lat": 56.616667,
      "lng": 9.65
    },
    {
      "cityName": "Heldum",
      "lat": 56.55,
      "lng": 8.283333
    },
    {
      "cityName": "Hellerød",
      "lat": 56.633333,
      "lng": 8.583333
    },
    {
      "cityName": "Helligkilde",
      "lat": 56.633333,
      "lng": 8.566667
    },
    {
      "cityName": "Helsted",
      "lat": 56.483333,
      "lng": 9.983333
    },
    {
      "cityName": "Helstrup",
      "lat": 56.433333,
      "lng": 9.9
    },
    {
      "cityName": "Hem",
      "lat": 56.016667,
      "lng": 9.783333
    },
    {
      "cityName": "Hemmed",
      "lat": 56.5,
      "lng": 10.75
    },
    {
      "cityName": "Hemmet",
      "lat": 55.85,
      "lng": 8.383333
    },
    {
      "cityName": "Hemstok",
      "lat": 56.083333,
      "lng": 9.883333
    },
    {
      "cityName": "Herborg",
      "lat": 56.066667,
      "lng": 8.616667
    },
    {
      "cityName": "Herning",
      "lat": 56.133333,
      "lng": 8.983333
    },
    {
      "cityName": "Herrup",
      "lat": 56.4,
      "lng": 8.916667
    },
    {
      "cityName": "Herskind",
      "lat": 56.183333,
      "lng": 9.966667
    },
    {
      "cityName": "Hersom",
      "lat": 56.55,
      "lng": 9.566667
    },
    {
      "cityName": "Hesselballe",
      "lat": 55.833333,
      "lng": 9.566667
    },
    {
      "cityName": "Hestbæk",
      "lat": 56.416667,
      "lng": 8.433333
    },
    {
      "cityName": "Hestbjærg",
      "lat": 56.316667,
      "lng": 8.533333
    },
    {
      "cityName": "Hestehave",
      "lat": 56.05,
      "lng": 9.916667
    },
    {
      "cityName": "Hestkær",
      "lat": 56.066667,
      "lng": 8.533333
    },
    {
      "cityName": "Hestlund",
      "lat": 56.15,
      "lng": 9.233333
    },
    {
      "cityName": "Hevring",
      "lat": 56.516667,
      "lng": 10.4
    },
    {
      "cityName": "Hierk",
      "lat": 56.683333,
      "lng": 8.916667
    },
    {
      "cityName": "Hillested",
      "lat": 56.283333,
      "lng": 10.766667
    },
    {
      "cityName": "Hindbjærg",
      "lat": 56.283333,
      "lng": 9.5
    },
    {
      "cityName": "Hindborg",
      "lat": 56.616667,
      "lng": 8.966667
    },
    {
      "cityName": "Hingeballe",
      "lat": 56.266667,
      "lng": 9.466667
    },
    {
      "cityName": "Hinge",
      "lat": 56.266667,
      "lng": 9.516667
    },
    {
      "cityName": "Hinnerup-Broby",
      "lat": 56.266667,
      "lng": 10.066667
    },
    {
      "cityName": "Hjarbæk",
      "lat": 56.533333,
      "lng": 9.316667
    },
    {
      "cityName": "Hjarnø By",
      "lat": 55.816667,
      "lng": 10.083333
    },
    {
      "cityName": "Hjelmager",
      "lat": 56.283333,
      "lng": 10.333333
    },
    {
      "cityName": "Hjerm",
      "lat": 56.433333,
      "lng": 8.65
    },
    {
      "cityName": "Hjermind",
      "lat": 56.4,
      "lng": 9.683333
    },
    {
      "cityName": "Hjøllund",
      "lat": 56.083333,
      "lng": 9.416667
    },
    {
      "cityName": "Hjoptarp",
      "lat": 55.966667,
      "lng": 8.666667
    },
    {
      "cityName": "Hjorthede",
      "lat": 56.416667,
      "lng": 9.716667
    },
    {
      "cityName": "Hjortsballe",
      "lat": 56.1,
      "lng": 9.516667
    },
    {
      "cityName": "Hjortshøj",
      "lat": 56.25,
      "lng": 10.266667
    },
    {
      "cityName": "Hjortsvang",
      "lat": 55.883333,
      "lng": 9.516667
    },
    {
      "cityName": "Hoager",
      "lat": 56.366667,
      "lng": 8.866667
    },
    {
      "cityName": "Höbjærg",
      "lat": 56.333333,
      "lng": 9.55
    },
    {
      "cityName": "Hodsager",
      "lat": 56.316667,
      "lng": 8.85
    },
    {
      "cityName": "Hoed",
      "lat": 56.316667,
      "lng": 10.816667
    },
    {
      "cityName": "Høgild",
      "lat": 56.066667,
      "lng": 9
    },
    {
      "cityName": "Höislev",
      "lat": 56.583333,
      "lng": 9.15
    },
    {
      "cityName": "Højbjerg",
      "lat": 56.116667,
      "lng": 10.233333
    },
    {
      "cityName": "Højmark",
      "lat": 56.05,
      "lng": 8.416667
    },
    {
      "cityName": "Højslev Stationsby",
      "lat": 56.55,
      "lng": 9.116667
    },
    {
      "cityName": "Holbæk",
      "lat": 56.55,
      "lng": 10.3
    },
    {
      "cityName": "Holing",
      "lat": 56.15,
      "lng": 8.966667
    },
    {
      "cityName": "Hollandsbjærg",
      "lat": 56.5,
      "lng": 10.283333
    },
    {
      "cityName": "Holme",
      "lat": 56.116667,
      "lng": 10.183333
    },
    {
      "cityName": "Holmgaarde",
      "lat": 56.283333,
      "lng": 8.333333
    },
    {
      "cityName": "Holmstol",
      "lat": 56.216667,
      "lng": 9.75
    },
    {
      "cityName": "Holmstrup Mark",
      "lat": 56.166667,
      "lng": 10.116667
    },
    {
      "cityName": "Holstebro",
      "lat": 56.35,
      "lng": 8.633333
    },
    {
      "cityName": "Honum",
      "lat": 55.883333,
      "lng": 9.65
    },
    {
      "cityName": "Hornbæk",
      "lat": 56.466667,
      "lng": 9.966667
    },
    {
      "cityName": "Hornborg",
      "lat": 55.85,
      "lng": 9.666667
    },
    {
      "cityName": "Horndrup",
      "lat": 56.016667,
      "lng": 9.866667
    },
    {
      "cityName": "Horn",
      "lat": 56.25,
      "lng": 9.716667
    },
    {
      "cityName": "Hørning",
      "lat": 56.083333,
      "lng": 10.05
    },
    {
      "cityName": "Hornslet",
      "lat": 56.316667,
      "lng": 10.333333
    },
    {
      "cityName": "Hornum",
      "lat": 55.75,
      "lng": 9.816667
    },
    {
      "cityName": "Hørret",
      "lat": 56.083333,
      "lng": 10.183333
    },
    {
      "cityName": "Horsens",
      "lat": 55.871944,
      "lng": 9.881111
    },
    {
      "cityName": "Hørslevbol",
      "lat": 56.166667,
      "lng": 9.983333
    },
    {
      "cityName": "Hørslev",
      "lat": 56.166667,
      "lng": 10
    },
    {
      "cityName": "Horstved",
      "lat": 56.333333,
      "lng": 10.666667
    },
    {
      "cityName": "Hosby",
      "lat": 55.75,
      "lng": 10.016667
    },
    {
      "cityName": "Hostrup",
      "lat": 55.733333,
      "lng": 9.783333
    },
    {
      "cityName": "Houlbjerg",
      "lat": 56.35,
      "lng": 9.883333
    },
    {
      "cityName": "Hovedgaard",
      "lat": 55.95,
      "lng": 9.966667
    },
    {
      "cityName": "Hove",
      "lat": 56.55,
      "lng": 8.233333
    },
    {
      "cityName": "Hoven",
      "lat": 55.85,
      "lng": 8.766667
    },
    {
      "cityName": "Hover",
      "lat": 56.133333,
      "lng": 8.416667
    },
    {
      "cityName": "Hov",
      "lat": 55.917778,
      "lng": 10.248611
    },
    {
      "cityName": "Hugby",
      "lat": 56.25,
      "lng": 8.183333
    },
    {
      "cityName": "Hulbæk",
      "lat": 56.483333,
      "lng": 9.683333
    },
    {
      "cityName": "Humlum",
      "lat": 56.533333,
      "lng": 8.566667
    },
    {
      "cityName": "Hummelure",
      "lat": 56.233333,
      "lng": 10.016667
    },
    {
      "cityName": "Hundslund",
      "lat": 55.916667,
      "lng": 10.066667
    },
    {
      "cityName": "Husby",
      "lat": 56.283333,
      "lng": 8.183333
    },
    {
      "cityName": "Hvallöse",
      "lat": 56.383333,
      "lng": 10.15
    },
    {
      "cityName": "Hvam",
      "lat": 56.416667,
      "lng": 8.716667
    },
    {
      "cityName": "Hvamme",
      "lat": 56.333333,
      "lng": 9.35
    },
    {
      "cityName": "Hvam Mejeriby",
      "lat": 56.4,
      "lng": 8.716667
    },
    {
      "cityName": "Hvedde",
      "lat": 56.016667,
      "lng": 8.9
    },
    {
      "cityName": "Hvidbierg",
      "lat": 56.65,
      "lng": 8.533333
    },
    {
      "cityName": "Hvidbjærg",
      "lat": 56.566667,
      "lng": 8.933333
    },
    {
      "cityName": "Hvidding",
      "lat": 56.533333,
      "lng": 9.783333
    },
    {
      "cityName": "Hvidemose",
      "lat": 56.516667,
      "lng": 8.866667
    },
    {
      "cityName": "Hvide Sande",
      "lat": 55.983333,
      "lng": 8.133333
    },
    {
      "cityName": "Hvidsten",
      "lat": 56.55,
      "lng": 10
    },
    {
      "cityName": "Hvilsager",
      "lat": 56.366667,
      "lng": 10.35
    },
    {
      "cityName": "Hvilsted",
      "lat": 56,
      "lng": 10.066667
    },
    {
      "cityName": "Hvingel",
      "lat": 56.166667,
      "lng": 8.333333
    },
    {
      "cityName": "Hvinningdal",
      "lat": 56.166667,
      "lng": 9.5
    },
    {
      "cityName": "Hvirpgade",
      "lat": 56.816667,
      "lng": 9.033333
    },
    {
      "cityName": "Hvirring",
      "lat": 55.883333,
      "lng": 9.666667
    },
    {
      "cityName": "Hvolbæk",
      "lat": 56.016667,
      "lng": 10.016667
    },
    {
      "cityName": "Hvorslev",
      "lat": 56.366667,
      "lng": 9.783333
    },
    {
      "cityName": "Hygild",
      "lat": 55.983333,
      "lng": 9.233333
    },
    {
      "cityName": "Hygom",
      "lat": 56.6,
      "lng": 8.233333
    },
    {
      "cityName": "Hylke",
      "lat": 56,
      "lng": 9.933333
    },
    {
      "cityName": "Hylken",
      "lat": 55.933333,
      "lng": 10.25
    },
    {
      "cityName": "Hyllested Skovgaarde",
      "lat": 56.266667,
      "lng": 10.8
    },
    {
      "cityName": "Hyrup",
      "lat": 55.716667,
      "lng": 9.833333
    },
    {
      "cityName": "Hytten",
      "lat": 56.483333,
      "lng": 10.65
    },
    {
      "cityName": "Ibsted",
      "lat": 56.65,
      "lng": 8.6
    },
    {
      "cityName": "Idom",
      "lat": 56.333333,
      "lng": 8.483333
    },
    {
      "cityName": "Idomlund",
      "lat": 56.35,
      "lng": 8.55
    },
    {
      "cityName": "Iglsø",
      "lat": 56.483333,
      "lng": 9.083333
    },
    {
      "cityName": "Ikast",
      "lat": 56.133333,
      "lng": 9.166667
    },
    {
      "cityName": "Ilbjærg",
      "lat": 56.7,
      "lng": 9.016667
    },
    {
      "cityName": "Iller Hede",
      "lat": 56.3,
      "lng": 9.566667
    },
    {
      "cityName": "Illerup",
      "lat": 56.066667,
      "lng": 9.883333
    },
    {
      "cityName": "Ilshøj",
      "lat": 56.566667,
      "lng": 10.2
    },
    {
      "cityName": "Ilskov",
      "lat": 56.233333,
      "lng": 9.1
    },
    {
      "cityName": "Impgaarde",
      "lat": 56.3,
      "lng": 9.35
    },
    {
      "cityName": "Ingerslev",
      "lat": 56.083333,
      "lng": 10.116667
    },
    {
      "cityName": "Intrup",
      "lat": 56.616667,
      "lng": 9.033333
    },
    {
      "cityName": "Isenvad",
      "lat": 56.1,
      "lng": 9.216667
    },
    {
      "cityName": "Javngyde",
      "lat": 56.116667,
      "lng": 9.833333
    },
    {
      "cityName": "Jebjærg",
      "lat": 56.4,
      "lng": 9.966667
    },
    {
      "cityName": "Jegind",
      "lat": 56.65,
      "lng": 8.633333
    },
    {
      "cityName": "Jeksen",
      "lat": 56.1,
      "lng": 9.983333
    },
    {
      "cityName": "Jennum",
      "lat": 56.533333,
      "lng": 10.05
    },
    {
      "cityName": "Jersild",
      "lat": 56.25,
      "lng": 8.783333
    },
    {
      "cityName": "Jestrup",
      "lat": 56.65,
      "lng": 8.45
    },
    {
      "cityName": "Juelsminde",
      "lat": 55.706667,
      "lng": 10.015278
    },
    {
      "cityName": "Junged",
      "lat": 56.766667,
      "lng": 9.1
    },
    {
      "cityName": "Kaastrup",
      "lat": 56.65,
      "lng": 8.966667
    },
    {
      "cityName": "Kaatrup",
      "lat": 56.566667,
      "lng": 9.95
    },
    {
      "cityName": "Kæpsmark",
      "lat": 56.516667,
      "lng": 9.75
    },
    {
      "cityName": "Kærby",
      "lat": 56.233333,
      "lng": 8.233333
    },
    {
      "cityName": "Kærende",
      "lat": 56.4,
      "lng": 10.55
    },
    {
      "cityName": "Kær",
      "lat": 56.65,
      "lng": 8.833333
    },
    {
      "cityName": "Kærsholm",
      "lat": 56.3,
      "lng": 10.766667
    },
    {
      "cityName": "Kahr",
      "lat": 56.533333,
      "lng": 10.366667
    },
    {
      "cityName": "Kalhave",
      "lat": 55.85,
      "lng": 9.633333
    },
    {
      "cityName": "Kallerup",
      "lat": 56.65,
      "lng": 8.483333
    },
    {
      "cityName": "Kankbølle",
      "lat": 56.25,
      "lng": 10.3
    },
    {
      "cityName": "Karlby",
      "lat": 56.35,
      "lng": 10.3
    },
    {
      "cityName": "Karleby",
      "lat": 56.483333,
      "lng": 10.866667
    },
    {
      "cityName": "Karlsmose",
      "lat": 56.216667,
      "lng": 8.833333
    },
    {
      "cityName": "Karsbæk",
      "lat": 56.066667,
      "lng": 8.4
    },
    {
      "cityName": "Karstoft",
      "lat": 55.933333,
      "lng": 8.95
    },
    {
      "cityName": "Karup",
      "lat": 56.3,
      "lng": 9.166667
    },
    {
      "cityName": "Kastbjærg",
      "lat": 56.466667,
      "lng": 10.766667
    },
    {
      "cityName": "Kasted",
      "lat": 56.216667,
      "lng": 10.15
    },
    {
      "cityName": "Kastrup",
      "lat": 56.383333,
      "lng": 10.366667
    },
    {
      "cityName": "Katballe",
      "lat": 56.35,
      "lng": 9.366667
    },
    {
      "cityName": "Katrinedal",
      "lat": 56.05,
      "lng": 9.533333
    },
    {
      "cityName": "Kattrup",
      "lat": 55.95,
      "lng": 9.933333
    },
    {
      "cityName": "Kejlstrup",
      "lat": 56.266667,
      "lng": 10.566667
    },
    {
      "cityName": "Keldbjærg",
      "lat": 56.466667,
      "lng": 9.066667
    },
    {
      "cityName": "Keldstrup",
      "lat": 56.366667,
      "lng": 10.633333
    },
    {
      "cityName": "Kellerup",
      "lat": 56.283333,
      "lng": 9.433333
    },
    {
      "cityName": "Kelstrup",
      "lat": 55.966667,
      "lng": 8.583333
    },
    {
      "cityName": "Kibæk",
      "lat": 56.033333,
      "lng": 8.85
    },
    {
      "cityName": "Kilde",
      "lat": 56.25,
      "lng": 8.75
    },
    {
      "cityName": "Kirial",
      "lat": 56.433333,
      "lng": 10.816667
    },
    {
      "cityName": "Kirkebæk",
      "lat": 56.483333,
      "lng": 9.35
    },
    {
      "cityName": "Kisum",
      "lat": 56.533333,
      "lng": 8.966667
    },
    {
      "cityName": "Kjölseng",
      "lat": 56.533333,
      "lng": 9.383333
    },
    {
      "cityName": "Kjufling",
      "lat": 55.9,
      "lng": 8.5
    },
    {
      "cityName": "Klakring",
      "lat": 55.716667,
      "lng": 9.983333
    },
    {
      "cityName": "Klank",
      "lat": 56.15,
      "lng": 9.9
    },
    {
      "cityName": "Klattrup",
      "lat": 56.666667,
      "lng": 10.216667
    },
    {
      "cityName": "Klegod",
      "lat": 56.083333,
      "lng": 8.133333
    },
    {
      "cityName": "Klejs",
      "lat": 55.75,
      "lng": 9.95
    },
    {
      "cityName": "Klejsmølle",
      "lat": 55.733333,
      "lng": 9.933333
    },
    {
      "cityName": "Klejtrup",
      "lat": 56.583333,
      "lng": 9.633333
    },
    {
      "cityName": "Klinkby",
      "lat": 56.566667,
      "lng": 8.233333
    },
    {
      "cityName": "Klintrup",
      "lat": 56.216667,
      "lng": 9.8
    },
    {
      "cityName": "Kloborg",
      "lat": 55.933333,
      "lng": 9.516667
    },
    {
      "cityName": "Klokmose",
      "lat": 56,
      "lng": 8.633333
    },
    {
      "cityName": "Klörup Gaarde",
      "lat": 56.466667,
      "lng": 9.95
    },
    {
      "cityName": "Klostergaarde",
      "lat": 56.283333,
      "lng": 8.3
    },
    {
      "cityName": "Kloster",
      "lat": 56.116667,
      "lng": 8.183333
    },
    {
      "cityName": "Knagstrup",
      "lat": 56.333333,
      "lng": 10.233333
    },
    {
      "cityName": "Knaplund",
      "lat": 55.883333,
      "lng": 8.8
    },
    {
      "cityName": "Knebel Bro",
      "lat": 56.216667,
      "lng": 10.5
    },
    {
      "cityName": "Knejsted",
      "lat": 56.6,
      "lng": 10.216667
    },
    {
      "cityName": "Knie",
      "lat": 56.433333,
      "lng": 10.716667
    },
    {
      "cityName": "Knopper",
      "lat": 56.666667,
      "lng": 8.183333
    },
    {
      "cityName": "Knud",
      "lat": 56.55,
      "lng": 9.266667
    },
    {
      "cityName": "Knudstrup",
      "lat": 56.283333,
      "lng": 9.316667
    },
    {
      "cityName": "Kodallund",
      "lat": 55.916667,
      "lng": 9.633333
    },
    {
      "cityName": "Koed",
      "lat": 56.383333,
      "lng": 10.583333
    },
    {
      "cityName": "Kokholm",
      "lat": 56.466667,
      "lng": 9.5
    },
    {
      "cityName": "Kolby Kaas",
      "lat": 55.8,
      "lng": 10.55
    },
    {
      "cityName": "Kolby",
      "lat": 55.796389,
      "lng": 10.555
    },
    {
      "cityName": "Kolind",
      "lat": 56.366667,
      "lng": 10.6
    },
    {
      "cityName": "Kølkær",
      "lat": 56.066667,
      "lng": 9.1
    },
    {
      "cityName": "Kollund",
      "lat": 56.1,
      "lng": 9.033333
    },
    {
      "cityName": "Kondrup",
      "lat": 56.516667,
      "lng": 9.983333
    },
    {
      "cityName": "Kongsgaarde",
      "lat": 56.15,
      "lng": 10.516667
    },
    {
      "cityName": "Kongstrup",
      "lat": 56.35,
      "lng": 9.916667
    },
    {
      "cityName": "Korning",
      "lat": 55.85,
      "lng": 9.7
    },
    {
      "cityName": "Korshøj",
      "lat": 55.716667,
      "lng": 9.716667
    },
    {
      "cityName": "Korsvej",
      "lat": 56.15,
      "lng": 9.816667
    },
    {
      "cityName": "Kørup",
      "lat": 55.883333,
      "lng": 9.75
    },
    {
      "cityName": "Kousted",
      "lat": 56.516667,
      "lng": 9.916667
    },
    {
      "cityName": "Kradbjerg",
      "lat": 56.3,
      "lng": 10.283333
    },
    {
      "cityName": "Kragelund",
      "lat": 55.8,
      "lng": 9.65
    },
    {
      "cityName": "Krarup",
      "lat": 56.333333,
      "lng": 10.616667
    },
    {
      "cityName": "Krejbjærg Gaarde",
      "lat": 55.95,
      "lng": 9.333333
    },
    {
      "cityName": "Krogsgaarde",
      "lat": 56.433333,
      "lng": 9.233333
    },
    {
      "cityName": "Krogshede",
      "lat": 56.433333,
      "lng": 8.183333
    },
    {
      "cityName": "Krogsteder",
      "lat": 56.433333,
      "lng": 9.683333
    },
    {
      "cityName": "Krogstrup",
      "lat": 55.983333,
      "lng": 10.033333
    },
    {
      "cityName": "Krollerup",
      "lat": 55.816667,
      "lng": 9.666667
    },
    {
      "cityName": "Kronborgdige",
      "lat": 56.433333,
      "lng": 8.6
    },
    {
      "cityName": "Krondal",
      "lat": 55.95,
      "lng": 9.45
    },
    {
      "cityName": "Krusborg",
      "lat": 56.45,
      "lng": 10.433333
    },
    {
      "cityName": "Kryle",
      "lat": 56.166667,
      "lng": 8.133333
    },
    {
      "cityName": "Kunnerup",
      "lat": 56.116667,
      "lng": 10.083333
    },
    {
      "cityName": "Kvium",
      "lat": 56.433333,
      "lng": 8.7
    },
    {
      "cityName": "Kvolbæk",
      "lat": 56.283333,
      "lng": 9.933333
    },
    {
      "cityName": "Kvols",
      "lat": 56.533333,
      "lng": 9.3
    },
    {
      "cityName": "Kvorning",
      "lat": 56.483333,
      "lng": 9.7
    },
    {
      "cityName": "Kysing",
      "lat": 56.016667,
      "lng": 10.266667
    },
    {
      "cityName": "Kytterup",
      "lat": 56.3,
      "lng": 8.316667
    },
    {
      "cityName": "Laanum",
      "lat": 56.45,
      "lng": 9.116667
    },
    {
      "cityName": "Laastrup",
      "lat": 56.583333,
      "lng": 9.383333
    },
    {
      "cityName": "Labing",
      "lat": 56.166667,
      "lng": 10.016667
    },
    {
      "cityName": "Lading",
      "lat": 56.233333,
      "lng": 9.983333
    },
    {
      "cityName": "Læn",
      "lat": 56.466667,
      "lng": 10.716667
    },
    {
      "cityName": "Læsten",
      "lat": 56.5,
      "lng": 9.816667
    },
    {
      "cityName": "Lambæk",
      "lat": 56.066667,
      "lng": 8.433333
    },
    {
      "cityName": "Landtind",
      "lat": 56.033333,
      "lng": 8.5
    },
    {
      "cityName": "Langaa",
      "lat": 56.383333,
      "lng": 9.9
    },
    {
      "cityName": "Langballe",
      "lat": 56.083333,
      "lng": 10.216667
    },
    {
      "cityName": "Langelund",
      "lat": 56.1,
      "lng": 9.083333
    },
    {
      "cityName": "Langemark",
      "lat": 55.85,
      "lng": 10.633333
    },
    {
      "cityName": "Langerhuse",
      "lat": 56.633333,
      "lng": 8.166667
    },
    {
      "cityName": "Langkær",
      "lat": 55.95,
      "lng": 8.416667
    },
    {
      "cityName": "Langkastrup",
      "lat": 56.45,
      "lng": 10.233333
    },
    {
      "cityName": "Langöre",
      "lat": 55.9,
      "lng": 10.666667
    },
    {
      "cityName": "Langskov",
      "lat": 55.816667,
      "lng": 9.533333
    },
    {
      "cityName": "Laurberg",
      "lat": 56.366667,
      "lng": 9.933333
    },
    {
      "cityName": "Laven",
      "lat": 56.116667,
      "lng": 9.716667
    },
    {
      "cityName": "Lavstrup",
      "lat": 55.9,
      "lng": 8.433333
    },
    {
      "cityName": "Lee",
      "lat": 56.416667,
      "lng": 9.683333
    },
    {
      "cityName": "Lem",
      "lat": 56.016667,
      "lng": 8.4
    },
    {
      "cityName": "Lemmer",
      "lat": 56.383333,
      "lng": 10.266667
    },
    {
      "cityName": "Lemming",
      "lat": 56.133333,
      "lng": 10.116667
    },
    {
      "cityName": "Lemtorp",
      "lat": 56.55,
      "lng": 8.333333
    },
    {
      "cityName": "Lemvig",
      "lat": 56.533333,
      "lng": 8.3
    },
    {
      "cityName": "Lendum",
      "lat": 56.766667,
      "lng": 9.05
    },
    {
      "cityName": "Lerbjærg",
      "lat": 56.35,
      "lng": 10
    },
    {
      "cityName": "Levring",
      "lat": 56.3,
      "lng": 9.466667
    },
    {
      "cityName": "Lihme",
      "lat": 56.6,
      "lng": 8.733333
    },
    {
      "cityName": "Lille Agersende",
      "lat": 56.4,
      "lng": 8.233333
    },
    {
      "cityName": "Lille Bredlund",
      "lat": 56.033333,
      "lng": 9.4
    },
    {
      "cityName": "Lille Dalby",
      "lat": 55.766667,
      "lng": 9.733333
    },
    {
      "cityName": "Lillelund",
      "lat": 56.316667,
      "lng": 8.366667
    },
    {
      "cityName": "Lillering",
      "lat": 56.15,
      "lng": 9.983333
    },
    {
      "cityName": "Lille Sjørup",
      "lat": 56.533333,
      "lng": 10.316667
    },
    {
      "cityName": "Lille Torup",
      "lat": 56.416667,
      "lng": 9.8
    },
    {
      "cityName": "Liltved",
      "lat": 56.433333,
      "lng": 10.333333
    },
    {
      "cityName": "Lime",
      "lat": 56.383333,
      "lng": 10.25
    },
    {
      "cityName": "Linaa",
      "lat": 56.15,
      "lng": 9.7
    },
    {
      "cityName": "Lindaa",
      "lat": 56.3,
      "lng": 10.25
    },
    {
      "cityName": "Lindbjærg",
      "lat": 56.516667,
      "lng": 10.15
    },
    {
      "cityName": "Linde",
      "lat": 56.416667,
      "lng": 8.5
    },
    {
      "cityName": "Lind",
      "lat": 56.1,
      "lng": 8.983333
    },
    {
      "cityName": "Lindum",
      "lat": 56.566667,
      "lng": 9.7
    },
    {
      "cityName": "Lindved",
      "lat": 55.766667,
      "lng": 9.9
    },
    {
      "cityName": "Linnerup",
      "lat": 55.9,
      "lng": 9.5
    },
    {
      "cityName": "Lisbjærg",
      "lat": 56.216667,
      "lng": 10.166667
    },
    {
      "cityName": "Lisbjerg-Terp",
      "lat": 56.216667,
      "lng": 10.2
    },
    {
      "cityName": "Lisby",
      "lat": 56.466667,
      "lng": 8.15
    },
    {
      "cityName": "Ljørring",
      "lat": 56.25,
      "lng": 8.816667
    },
    {
      "cityName": "Løgstrup",
      "lat": 56.5,
      "lng": 9.333333
    },
    {
      "cityName": "Løgten",
      "lat": 56.283333,
      "lng": 10.316667
    },
    {
      "cityName": "Løjenkær",
      "lat": 56.016667,
      "lng": 10.133333
    },
    {
      "cityName": "Lomborg",
      "lat": 56.5,
      "lng": 8.283333
    },
    {
      "cityName": "Lønborg",
      "lat": 55.9,
      "lng": 8.45
    },
    {
      "cityName": "Løndal",
      "lat": 56.05,
      "lng": 9.6
    },
    {
      "cityName": "Løsning",
      "lat": 55.8,
      "lng": 9.7
    },
    {
      "cityName": "Løvel",
      "lat": 56.533333,
      "lng": 9.483333
    },
    {
      "cityName": "Løve",
      "lat": 56.016667,
      "lng": 9.483333
    },
    {
      "cityName": "Løvskal",
      "lat": 56.45,
      "lng": 9.733333
    },
    {
      "cityName": "Lundby",
      "lat": 56.283333,
      "lng": 8.766667
    },
    {
      "cityName": "Lund",
      "lat": 55.9,
      "lng": 9.783333
    },
    {
      "cityName": "Lundø",
      "lat": 56.616667,
      "lng": 9.15
    },
    {
      "cityName": "Lundsby",
      "lat": 56.5,
      "lng": 8.25
    },
    {
      "cityName": "Lundum",
      "lat": 55.916667,
      "lng": 9.783333
    },
    {
      "cityName": "Lundumskov",
      "lat": 55.916667,
      "lng": 9.8
    },
    {
      "cityName": "Lustrup",
      "lat": 55.983333,
      "lng": 8.9
    },
    {
      "cityName": "Lyby",
      "lat": 56.633333,
      "lng": 9.016667
    },
    {
      "cityName": "Lyne",
      "lat": 55.8,
      "lng": 8.5
    },
    {
      "cityName": "Lyngaa",
      "lat": 56.316667,
      "lng": 9.983333
    },
    {
      "cityName": "Lyngby",
      "lat": 56.166667,
      "lng": 10.05
    },
    {
      "cityName": "Lyngsbæk",
      "lat": 56.25,
      "lng": 10.633333
    },
    {
      "cityName": "Lyngs",
      "lat": 56.666667,
      "lng": 8.466667
    },
    {
      "cityName": "Lysbro Huse",
      "lat": 56.15,
      "lng": 9.516667
    },
    {
      "cityName": "Lysgaard",
      "lat": 56.35,
      "lng": 9.35
    },
    {
      "cityName": "Lystlund",
      "lat": 56.266667,
      "lng": 8.433333
    },
    {
      "cityName": "Lystrup",
      "lat": 56.233333,
      "lng": 10.25
    },
    {
      "cityName": "Lystrup Strand",
      "lat": 56.516667,
      "lng": 10.466667
    },
    {
      "cityName": "Maabjærg",
      "lat": 56.383333,
      "lng": 8.616667
    },
    {
      "cityName": "Maarslet",
      "lat": 56.066667,
      "lng": 10.166667
    },
    {
      "cityName": "Maarup",
      "lat": 55.95,
      "lng": 10.583333
    },
    {
      "cityName": "Madsbad",
      "lat": 56.816667,
      "lng": 9.016667
    },
    {
      "cityName": "Madumflod",
      "lat": 56.25,
      "lng": 8.333333
    },
    {
      "cityName": "Madum",
      "lat": 56.233333,
      "lng": 8.3
    },
    {
      "cityName": "Malling",
      "lat": 56.033333,
      "lng": 10.166667
    },
    {
      "cityName": "Mammen",
      "lat": 56.4,
      "lng": 9.616667
    },
    {
      "cityName": "Mariekirke",
      "lat": 56.433333,
      "lng": 8.2
    },
    {
      "cityName": "Marie Magdalene",
      "lat": 56.383333,
      "lng": 10.483333
    },
    {
      "cityName": "Mastrup",
      "lat": 56.45,
      "lng": 10.75
    },
    {
      "cityName": "Mausing",
      "lat": 56.233333,
      "lng": 9.45
    },
    {
      "cityName": "Meilby",
      "lat": 56.516667,
      "lng": 10.1
    },
    {
      "cityName": "Mejdal",
      "lat": 56.333333,
      "lng": 8.65
    },
    {
      "cityName": "Mejeriby",
      "lat": 56.116667,
      "lng": 8.433333
    },
    {
      "cityName": "Mejlby",
      "lat": 56.1,
      "lng": 8.283333
    },
    {
      "cityName": "Mejrup",
      "lat": 56.366667,
      "lng": 8.7
    },
    {
      "cityName": "Mellemby",
      "lat": 56.333333,
      "lng": 8.316667
    },
    {
      "cityName": "Mellerup",
      "lat": 56.516667,
      "lng": 10.216667
    },
    {
      "cityName": "Merrild",
      "lat": 56.183333,
      "lng": 8.816667
    },
    {
      "cityName": "Merring",
      "lat": 55.833333,
      "lng": 9.683333
    },
    {
      "cityName": "Mesballe",
      "lat": 56.366667,
      "lng": 10.5
    },
    {
      "cityName": "Mesing",
      "lat": 56.083333,
      "lng": 9.95
    },
    {
      "cityName": "Middelhede",
      "lat": 56.383333,
      "lng": 9.45
    },
    {
      "cityName": "Midstrup",
      "lat": 56.3,
      "lng": 9.5
    },
    {
      "cityName": "Møborg",
      "lat": 56.383333,
      "lng": 8.366667
    },
    {
      "cityName": "Moeskær",
      "lat": 56.416667,
      "lng": 10.233333
    },
    {
      "cityName": "Møgelby",
      "lat": 56.233333,
      "lng": 9.8
    },
    {
      "cityName": "Møgeltorum",
      "lat": 56.75,
      "lng": 9.083333
    },
    {
      "cityName": "Mogenstrup",
      "lat": 56.466667,
      "lng": 8.966667
    },
    {
      "cityName": "Mølbjerg",
      "lat": 56.15,
      "lng": 8.483333
    },
    {
      "cityName": "Møldrup",
      "lat": 56.616667,
      "lng": 9.5
    },
    {
      "cityName": "Molgær",
      "lat": 55.9,
      "lng": 9.716667
    },
    {
      "cityName": "Mollerup",
      "lat": 56.15,
      "lng": 9.65
    },
    {
      "cityName": "Møltrup Hede",
      "lat": 56.166667,
      "lng": 8.666667
    },
    {
      "cityName": "Mondrup",
      "lat": 56.333333,
      "lng": 9.833333
    },
    {
      "cityName": "Mønsted",
      "lat": 56.45,
      "lng": 9.2
    },
    {
      "cityName": "Mørke",
      "lat": 56.333333,
      "lng": 10.383333
    },
    {
      "cityName": "Mosegaard",
      "lat": 56.016667,
      "lng": 8.883333
    },
    {
      "cityName": "Moselund",
      "lat": 56.166667,
      "lng": 9.366667
    },
    {
      "cityName": "Mundelstrup",
      "lat": 56.2,
      "lng": 10.066667
    },
    {
      "cityName": "Mundelstrup Stationsby",
      "lat": 56.183333,
      "lng": 10.083333
    },
    {
      "cityName": "Munkdrup",
      "lat": 56.416667,
      "lng": 10.083333
    },
    {
      "cityName": "Munklinde",
      "lat": 56.233333,
      "lng": 9.183333
    },
    {
      "cityName": "Munktofte",
      "lat": 56.383333,
      "lng": 8.683333
    },
    {
      "cityName": "Mygind",
      "lat": 56.383333,
      "lng": 10.216667
    },
    {
      "cityName": "Naarup",
      "lat": 56.25,
      "lng": 9.783333
    },
    {
      "cityName": "Næsby",
      "lat": 56.416667,
      "lng": 10.8
    },
    {
      "cityName": "Najbjærg",
      "lat": 56.183333,
      "lng": 8.716667
    },
    {
      "cityName": "Naur",
      "lat": 56.366667,
      "lng": 8.533333
    },
    {
      "cityName": "Nautrup",
      "lat": 56.433333,
      "lng": 8.916667
    },
    {
      "cityName": "Navntoft",
      "lat": 56.5,
      "lng": 9.416667
    },
    {
      "cityName": "Nebsager",
      "lat": 55.75,
      "lng": 9.866667
    },
    {
      "cityName": "Neder Fløjstrup",
      "lat": 56.05,
      "lng": 10.25
    },
    {
      "cityName": "Neder Ginderup",
      "lat": 56.666667,
      "lng": 8.85
    },
    {
      "cityName": "Neder Hadsten",
      "lat": 56.316667,
      "lng": 10.033333
    },
    {
      "cityName": "Nederhede",
      "lat": 56.55,
      "lng": 9.383333
    },
    {
      "cityName": "Nederholm",
      "lat": 55.8,
      "lng": 9.766667
    },
    {
      "cityName": "Neder Julianehede",
      "lat": 56.166667,
      "lng": 9.316667
    },
    {
      "cityName": "Neder Randlev",
      "lat": 55.966667,
      "lng": 10.2
    },
    {
      "cityName": "Neder Romalt",
      "lat": 56.45,
      "lng": 10.1
    },
    {
      "cityName": "Neder Simmelkær",
      "lat": 56.283333,
      "lng": 8.983333
    },
    {
      "cityName": "Neder Sønderby",
      "lat": 55.766667,
      "lng": 10
    },
    {
      "cityName": "Neder Tarp",
      "lat": 55.95,
      "lng": 8.833333
    },
    {
      "cityName": "Neder Ustrup",
      "lat": 55.816667,
      "lng": 9.866667
    },
    {
      "cityName": "Neder Vrigsted",
      "lat": 55.716667,
      "lng": 9.85
    },
    {
      "cityName": "Neder Vrønding",
      "lat": 55.866667,
      "lng": 9.7
    },
    {
      "cityName": "Nielstrup",
      "lat": 56.366667,
      "lng": 10.166667
    },
    {
      "cityName": "Nim",
      "lat": 55.916667,
      "lng": 9.7
    },
    {
      "cityName": "Nimtofte",
      "lat": 56.416667,
      "lng": 10.566667
    },
    {
      "cityName": "Nisset",
      "lat": 56.233333,
      "lng": 9.566667
    },
    {
      "cityName": "Nissumby",
      "lat": 56.55,
      "lng": 8.4
    },
    {
      "cityName": "Nissum",
      "lat": 56.533333,
      "lng": 8.416667
    },
    {
      "cityName": "Nødager",
      "lat": 56.35,
      "lng": 10.65
    },
    {
      "cityName": "Nøddelund",
      "lat": 56.333333,
      "lng": 9.7
    },
    {
      "cityName": "No",
      "lat": 56.116667,
      "lng": 8.333333
    },
    {
      "cityName": "Nørager",
      "lat": 56.483333,
      "lng": 10.516667
    },
    {
      "cityName": "Nørbæk",
      "lat": 56.533333,
      "lng": 9.833333
    },
    {
      "cityName": "Nörb",
      "lat": 55.816667,
      "lng": 10.016667
    },
    {
      "cityName": "Nørdam",
      "lat": 56.6,
      "lng": 9.466667
    },
    {
      "cityName": "Nordby",
      "lat": 55.966667,
      "lng": 10.566667
    },
    {
      "cityName": "Nøreng",
      "lat": 56.8,
      "lng": 8.983333
    },
    {
      "cityName": "Nørhede",
      "lat": 55.8,
      "lng": 8.483333
    },
    {
      "cityName": "Nørhoved",
      "lat": 55.983333,
      "lng": 9.4
    },
    {
      "cityName": "Nørre Aarslev",
      "lat": 56.4,
      "lng": 10.166667
    },
    {
      "cityName": "Nørre Aldum",
      "lat": 55.783333,
      "lng": 9.783333
    },
    {
      "cityName": "Nørre Andrup",
      "lat": 56.666667,
      "lng": 8.883333
    },
    {
      "cityName": "Nørre Askær",
      "lat": 55.916667,
      "lng": 9.166667
    },
    {
      "cityName": "Nørre Bjerre",
      "lat": 55.783333,
      "lng": 9.833333
    },
    {
      "cityName": "Nørre Bøel",
      "lat": 55.916667,
      "lng": 8.466667
    },
    {
      "cityName": "Nørre Bork",
      "lat": 55.833333,
      "lng": 8.316667
    },
    {
      "cityName": "Nørre Borup",
      "lat": 56.5,
      "lng": 9.983333
    },
    {
      "cityName": "Nørre Felding",
      "lat": 56.316667,
      "lng": 8.6
    },
    {
      "cityName": "Nørre Haurvig",
      "lat": 55.95,
      "lng": 8.166667
    },
    {
      "cityName": "Nørre Hörning",
      "lat": 56.416667,
      "lng": 10.216667
    },
    {
      "cityName": "Nørre Lem",
      "lat": 56.6,
      "lng": 8.783333
    },
    {
      "cityName": "Nørre Lyngvig",
      "lat": 56.05,
      "lng": 8.133333
    },
    {
      "cityName": "Nørremark",
      "lat": 56.216667,
      "lng": 9.066667
    },
    {
      "cityName": "Nørre Ørum",
      "lat": 56.566667,
      "lng": 9.25
    },
    {
      "cityName": "Nørre Rævind",
      "lat": 56.5,
      "lng": 9.25
    },
    {
      "cityName": "Nørre Rind",
      "lat": 56.583333,
      "lng": 9.35
    },
    {
      "cityName": "Nørre Snede",
      "lat": 55.966667,
      "lng": 9.416667
    },
    {
      "cityName": "Nørre Søller",
      "lat": 56.416667,
      "lng": 8.583333
    },
    {
      "cityName": "Nørre Staby",
      "lat": 56.266667,
      "lng": 8.266667
    },
    {
      "cityName": "Nørre Thise",
      "lat": 56.716667,
      "lng": 9.133333
    },
    {
      "cityName": "Nørre Vissing",
      "lat": 56.133333,
      "lng": 9.85
    },
    {
      "cityName": "Nørre Vium",
      "lat": 56.033333,
      "lng": 8.716667
    },
    {
      "cityName": "Norring",
      "lat": 56.25,
      "lng": 10.05
    },
    {
      "cityName": "Nørskovlund",
      "lat": 56.283333,
      "lng": 9.516667
    },
    {
      "cityName": "Nørskov",
      "lat": 56.65,
      "lng": 8.616667
    },
    {
      "cityName": "Nortvig",
      "lat": 55.933333,
      "lng": 9.433333
    },
    {
      "cityName": "Norup Gaarde",
      "lat": 56.533333,
      "lng": 9.566667
    },
    {
      "cityName": "Nøttrup",
      "lat": 55.75,
      "lng": 9.966667
    },
    {
      "cityName": "Nøvling",
      "lat": 56.166667,
      "lng": 8.833333
    },
    {
      "cityName": "Nyby",
      "lat": 56.2,
      "lng": 8.883333
    },
    {
      "cityName": "Nye Törring",
      "lat": 55.85,
      "lng": 9.483333
    },
    {
      "cityName": "Nygaarde",
      "lat": 56.083333,
      "lng": 9.85
    },
    {
      "cityName": "Nykær",
      "lat": 56.116667,
      "lng": 8.95
    },
    {
      "cityName": "Nymølle",
      "lat": 56.683333,
      "lng": 8.8
    },
    {
      "cityName": "Øby",
      "lat": 56.266667,
      "lng": 8.166667
    },
    {
      "cityName": "Odby",
      "lat": 56.6,
      "lng": 8.533333
    },
    {
      "cityName": "Oddense",
      "lat": 56.65,
      "lng": 8.95
    },
    {
      "cityName": "Odde",
      "lat": 56.566667,
      "lng": 8.566667
    },
    {
      "cityName": "Odder",
      "lat": 55.966667,
      "lng": 10.166667
    },
    {
      "cityName": "Odderup",
      "lat": 55.866667,
      "lng": 8.633333
    },
    {
      "cityName": "Oddesund Nord",
      "lat": 56.583333,
      "lng": 8.55
    },
    {
      "cityName": "Ødum",
      "lat": 56.316667,
      "lng": 10.133333
    },
    {
      "cityName": "Oens",
      "lat": 55.816667,
      "lng": 9.783333
    },
    {
      "cityName": "Øerne",
      "lat": 56.15,
      "lng": 10.683333
    },
    {
      "cityName": "Øhuse",
      "lat": 56.266667,
      "lng": 8.15
    },
    {
      "cityName": "Øksenmølle",
      "lat": 56.283333,
      "lng": 10.7
    },
    {
      "cityName": "Øksenvad",
      "lat": 56.616667,
      "lng": 9.016667
    },
    {
      "cityName": "Okslund",
      "lat": 55.85,
      "lng": 8.716667
    },
    {
      "cityName": "Ølby",
      "lat": 56.466667,
      "lng": 8.566667
    },
    {
      "cityName": "Oldrup",
      "lat": 55.933333,
      "lng": 10.083333
    },
    {
      "cityName": "Ølholm",
      "lat": 55.833333,
      "lng": 9.533333
    },
    {
      "cityName": "Olling",
      "lat": 56.033333,
      "lng": 8.833333
    },
    {
      "cityName": "Ølsted",
      "lat": 56.233333,
      "lng": 10.15
    },
    {
      "cityName": "Ølsted Overholm",
      "lat": 55.8,
      "lng": 9.783333
    },
    {
      "cityName": "Ølst",
      "lat": 56.383333,
      "lng": 10.1
    },
    {
      "cityName": "Ommestrup",
      "lat": 56.333333,
      "lng": 10.4
    },
    {
      "cityName": "Omvraa",
      "lat": 55.833333,
      "lng": 9
    },
    {
      "cityName": "Ondrup",
      "lat": 55.95,
      "lng": 10.133333
    },
    {
      "cityName": "Onsbierg",
      "lat": 55.85,
      "lng": 10.583333
    },
    {
      "cityName": "Ø",
      "lat": 56.45,
      "lng": 9.65
    },
    {
      "cityName": "Opstrup",
      "lat": 56.216667,
      "lng": 8.216667
    },
    {
      "cityName": "Opsund",
      "lat": 56.083333,
      "lng": 8.55
    },
    {
      "cityName": "Ørbæk",
      "lat": 55.866667,
      "lng": 8.8
    },
    {
      "cityName": "Ørby",
      "lat": 55.8,
      "lng": 10.6
    },
    {
      "cityName": "Ormslev",
      "lat": 56.133333,
      "lng": 10.066667
    },
    {
      "cityName": "Ormstrup",
      "lat": 56.333333,
      "lng": 9.65
    },
    {
      "cityName": "Ørnhøj",
      "lat": 56.2,
      "lng": 8.583333
    },
    {
      "cityName": "Ørnstrup",
      "lat": 55.816667,
      "lng": 9.816667
    },
    {
      "cityName": "Ørre",
      "lat": 56.233333,
      "lng": 8.883333
    },
    {
      "cityName": "Örreslev",
      "lat": 55.933333,
      "lng": 9.95
    },
    {
      "cityName": "Ørrild",
      "lat": 56.533333,
      "lng": 9.883333
    },
    {
      "cityName": "Ørskov",
      "lat": 55.933333,
      "lng": 9.916667
    },
    {
      "cityName": "Ørsted",
      "lat": 56.5,
      "lng": 10.35
    },
    {
      "cityName": "Ørting",
      "lat": 55.933333,
      "lng": 10.15
    },
    {
      "cityName": "Ørum",
      "lat": 55.733333,
      "lng": 9.75
    },
    {
      "cityName": "Ørum Søndermark",
      "lat": 56.466667,
      "lng": 9.633333
    },
    {
      "cityName": "Østbirk",
      "lat": 55.966667,
      "lng": 9.766667
    },
    {
      "cityName": "Østerågård",
      "lat": 56.116667,
      "lng": 10.208333
    },
    {
      "cityName": "Øster Alling",
      "lat": 56.416667,
      "lng": 10.316667
    },
    {
      "cityName": "Østerballe",
      "lat": 56.316667,
      "lng": 10.85
    },
    {
      "cityName": "Øster Bisholt",
      "lat": 55.816667,
      "lng": 9.983333
    },
    {
      "cityName": "Øster Bjærgegrav",
      "lat": 56.483333,
      "lng": 9.916667
    },
    {
      "cityName": "Øster Bording",
      "lat": 56.183333,
      "lng": 9.5
    },
    {
      "cityName": "Øster Børsting",
      "lat": 56.466667,
      "lng": 9.1
    },
    {
      "cityName": "Østerby",
      "lat": 55.866667,
      "lng": 10.616667
    },
    {
      "cityName": "Öster Egebjærg",
      "lat": 56.55,
      "lng": 8.833333
    },
    {
      "cityName": "Östergaarde",
      "lat": 55.933333,
      "lng": 10.166667
    },
    {
      "cityName": "Øster Grønning",
      "lat": 56.65,
      "lng": 9.083333
    },
    {
      "cityName": "Øster Kondrup",
      "lat": 56.633333,
      "lng": 10.15
    },
    {
      "cityName": "Øster Lem",
      "lat": 56.05,
      "lng": 8.433333
    },
    {
      "cityName": "Østerlund",
      "lat": 55.883333,
      "lng": 9.783333
    },
    {
      "cityName": "Øster Lyby",
      "lat": 56.633333,
      "lng": 9.066667
    },
    {
      "cityName": "Østermark",
      "lat": 55.966667,
      "lng": 10.583333
    },
    {
      "cityName": "Øster Marup",
      "lat": 55.983333,
      "lng": 8.5
    },
    {
      "cityName": "Östermose",
      "lat": 56.166667,
      "lng": 9.183333
    },
    {
      "cityName": "Øster No",
      "lat": 56.1,
      "lng": 8.333333
    },
    {
      "cityName": "Øster Ølby",
      "lat": 56.483333,
      "lng": 8.566667
    },
    {
      "cityName": "Øster Rabjerg",
      "lat": 56.016667,
      "lng": 8.433333
    },
    {
      "cityName": "Øster Snebtrup",
      "lat": 56.25,
      "lng": 9.016667
    },
    {
      "cityName": "Öster Teglgaard",
      "lat": 56.433333,
      "lng": 9.416667
    },
    {
      "cityName": "Øster Tim",
      "lat": 56.2,
      "lng": 8.316667
    },
    {
      "cityName": "Øster Velling",
      "lat": 56.433333,
      "lng": 9.866667
    },
    {
      "cityName": "Öster Vintersgaard",
      "lat": 56.533333,
      "lng": 8.4
    },
    {
      "cityName": "Østrup",
      "lat": 55.8,
      "lng": 10.033333
    },
    {
      "cityName": "Otting",
      "lat": 56.633333,
      "lng": 8.916667
    },
    {
      "cityName": "Oustrup",
      "lat": 56.4,
      "lng": 10.333333
    },
    {
      "cityName": "Over Åstrup",
      "lat": 55.933333,
      "lng": 9.6
    },
    {
      "cityName": "Over Barrit",
      "lat": 55.7,
      "lng": 9.866667
    },
    {
      "cityName": "Overbroen",
      "lat": 56.45,
      "lng": 10.683333
    },
    {
      "cityName": "Over Feldborg",
      "lat": 56.35,
      "lng": 8.95
    },
    {
      "cityName": "Over Fløjstrup",
      "lat": 56.066667,
      "lng": 10.25
    },
    {
      "cityName": "Over Fussing",
      "lat": 56.483333,
      "lng": 9.9
    },
    {
      "cityName": "Over Ginderup",
      "lat": 56.666667,
      "lng": 8.833333
    },
    {
      "cityName": "Over Hadsten",
      "lat": 56.316667,
      "lng": 10.05
    },
    {
      "cityName": "Over Hjerk",
      "lat": 56.683333,
      "lng": 8.933333
    },
    {
      "cityName": "Overlund",
      "lat": 56.45,
      "lng": 9.45
    },
    {
      "cityName": "Over Randlev",
      "lat": 55.95,
      "lng": 10.2
    },
    {
      "cityName": "Over Simmelkær",
      "lat": 56.266667,
      "lng": 9.016667
    },
    {
      "cityName": "Overtarp",
      "lat": 55.966667,
      "lng": 8.833333
    },
    {
      "cityName": "Over Ustrup",
      "lat": 55.8,
      "lng": 9.883333
    },
    {
      "cityName": "Over Viskum",
      "lat": 56.466667,
      "lng": 9.583333
    },
    {
      "cityName": "Over Vrigsted",
      "lat": 55.733333,
      "lng": 9.85
    },
    {
      "cityName": "Ovstrup",
      "lat": 56.25,
      "lng": 8.883333
    },
    {
      "cityName": "Paarup",
      "lat": 56.133333,
      "lng": 9.35
    },
    {
      "cityName": "Paderup",
      "lat": 56.433333,
      "lng": 10.083333
    },
    {
      "cityName": "Pederstrup",
      "lat": 56.25,
      "lng": 9.416667
    },
    {
      "cityName": "Pedholt",
      "lat": 56.033333,
      "lng": 10.216667
    },
    {
      "cityName": "Permelille",
      "lat": 55.8,
      "lng": 10.566667
    },
    {
      "cityName": "Pillemark",
      "lat": 55.833333,
      "lng": 10.566667
    },
    {
      "cityName": "Pindstrup",
      "lat": 56.4,
      "lng": 10.433333
    },
    {
      "cityName": "Plovstrup",
      "lat": 55.883333,
      "lng": 9.466667
    },
    {
      "cityName": "Pølsmark",
      "lat": 56.2,
      "lng": 8.333333
    },
    {
      "cityName": "Præstbro",
      "lat": 55.9,
      "lng": 8.616667
    },
    {
      "cityName": "Purhus",
      "lat": 56.55,
      "lng": 9.9
    },
    {
      "cityName": "Raaby",
      "lat": 56.6,
      "lng": 10.25
    },
    {
      "cityName": "Raadved",
      "lat": 55.916667,
      "lng": 9.816667
    },
    {
      "cityName": "Raarup",
      "lat": 55.766667,
      "lng": 9.933333
    },
    {
      "cityName": "Raasted",
      "lat": 56.516667,
      "lng": 9.95
    },
    {
      "cityName": "Raast",
      "lat": 56.516667,
      "lng": 8.766667
    },
    {
      "cityName": "Rabæk",
      "lat": 55.916667,
      "lng": 8.633333
    },
    {
      "cityName": "Rækker Mølle",
      "lat": 56.033333,
      "lng": 8.55
    },
    {
      "cityName": "Rævind",
      "lat": 56.5,
      "lng": 9.233333
    },
    {
      "cityName": "Rævstrup",
      "lat": 56.033333,
      "lng": 8.4
    },
    {
      "cityName": "Ramme",
      "lat": 56.483333,
      "lng": 8.216667
    },
    {
      "cityName": "Ramsing",
      "lat": 56.6,
      "lng": 8.833333
    },
    {
      "cityName": "Ramten",
      "lat": 56.433333,
      "lng": 10.633333
    },
    {
      "cityName": "Randbæk",
      "lat": 56.133333,
      "lng": 8.55
    },
    {
      "cityName": "Randers",
      "lat": 56.466667,
      "lng": 10.05
    },
    {
      "cityName": "Rask Mark",
      "lat": 55.883333,
      "lng": 10.616667
    },
    {
      "cityName": "Rask Mølle",
      "lat": 55.866667,
      "lng": 9.616667
    },
    {
      "cityName": "Ravnholt",
      "lat": 55.766667,
      "lng": 9.916667
    },
    {
      "cityName": "Ravnstrup",
      "lat": 56.45,
      "lng": 9.3
    },
    {
      "cityName": "Refshale",
      "lat": 56.183333,
      "lng": 9.383333
    },
    {
      "cityName": "Rejstrup",
      "lat": 56.516667,
      "lng": 9.866667
    },
    {
      "cityName": "Remmerhus",
      "lat": 56.1,
      "lng": 8.766667
    },
    {
      "cityName": "Remmerslund",
      "lat": 55.783333,
      "lng": 9.716667
    },
    {
      "cityName": "Remmer Strand",
      "lat": 56.55,
      "lng": 8.5
    },
    {
      "cityName": "Renderne",
      "lat": 55.983333,
      "lng": 8.15
    },
    {
      "cityName": "Resdal",
      "lat": 56.233333,
      "lng": 9.483333
    },
    {
      "cityName": "Resenbro",
      "lat": 56.183333,
      "lng": 9.65
    },
    {
      "cityName": "Resendal",
      "lat": 56.2,
      "lng": 9.633333
    },
    {
      "cityName": "Resen",
      "lat": 56.383333,
      "lng": 9.1
    },
    {
      "cityName": "Resenstad",
      "lat": 56.516667,
      "lng": 8.55
    },
    {
      "cityName": "Rettrup",
      "lat": 56.566667,
      "lng": 8.9
    },
    {
      "cityName": "Revn",
      "lat": 56.4,
      "lng": 10.816667
    },
    {
      "cityName": "Rigtrup",
      "lat": 56.366667,
      "lng": 10.216667
    },
    {
      "cityName": "Rimsø",
      "lat": 56.483333,
      "lng": 10.8
    },
    {
      "cityName": "Rind",
      "lat": 56.383333,
      "lng": 9.466667
    },
    {
      "cityName": "Rindsholm",
      "lat": 56.4,
      "lng": 9.45
    },
    {
      "cityName": "Ringkjöbing",
      "lat": 56.083333,
      "lng": 8.25
    },
    {
      "cityName": "Ring",
      "lat": 55.95,
      "lng": 9.6
    },
    {
      "cityName": "Ringsø",
      "lat": 56.4,
      "lng": 10.4
    },
    {
      "cityName": "Risbjærg",
      "lat": 55.883333,
      "lng": 9.116667
    },
    {
      "cityName": "Rise",
      "lat": 56.516667,
      "lng": 9.633333
    },
    {
      "cityName": "Ris",
      "lat": 55.983333,
      "lng": 9.85
    },
    {
      "cityName": "Risskov",
      "lat": 56.183333,
      "lng": 10.233333
    },
    {
      "cityName": "Risum",
      "lat": 56.383333,
      "lng": 8.75
    },
    {
      "cityName": "Robdrup",
      "lat": 56.4,
      "lng": 10.133333
    },
    {
      "cityName": "Robstrup",
      "lat": 56.433333,
      "lng": 10.883333
    },
    {
      "cityName": "Rødding",
      "lat": 56.2,
      "lng": 8.716667
    },
    {
      "cityName": "Rodelund",
      "lat": 56.116667,
      "lng": 9.583333
    },
    {
      "cityName": "Rødkærsbro",
      "lat": 56.35,
      "lng": 9.516667
    },
    {
      "cityName": "Rodskov",
      "lat": 56.3,
      "lng": 10.366667
    },
    {
      "cityName": "Roe",
      "lat": 56.283333,
      "lng": 9.65
    },
    {
      "cityName": "Røgen",
      "lat": 56.2,
      "lng": 9.816667
    },
    {
      "cityName": "Rogenstrup",
      "lat": 56.5,
      "lng": 9.35
    },
    {
      "cityName": "Røgind",
      "lat": 56.083333,
      "lng": 8.366667
    },
    {
      "cityName": "Rom By",
      "lat": 56.516667,
      "lng": 8.316667
    },
    {
      "cityName": "Romlund",
      "lat": 56.483333,
      "lng": 9.316667
    },
    {
      "cityName": "Rönbjærg",
      "lat": 56.533333,
      "lng": 8.916667
    },
    {
      "cityName": "Rønde",
      "lat": 56.3,
      "lng": 10.483333
    },
    {
      "cityName": "Rønge",
      "lat": 56.4,
      "lng": 9.75
    },
    {
      "cityName": "Rønland",
      "lat": 56.666667,
      "lng": 8.216667
    },
    {
      "cityName": "Ronnum",
      "lat": 55.95,
      "lng": 8.983333
    },
    {
      "cityName": "Rørt",
      "lat": 55.983333,
      "lng": 10.2
    },
    {
      "cityName": "Roslev",
      "lat": 56.7,
      "lng": 8.983333
    },
    {
      "cityName": "Rosmos",
      "lat": 56.3,
      "lng": 10.783333
    },
    {
      "cityName": "Rostved",
      "lat": 56.316667,
      "lng": 10.533333
    },
    {
      "cityName": "Roum",
      "lat": 56.6,
      "lng": 9.566667
    },
    {
      "cityName": "Røved",
      "lat": 56.316667,
      "lng": 10.183333
    },
    {
      "cityName": "Rude",
      "lat": 56,
      "lng": 10.233333
    },
    {
      "cityName": "Rudstrup",
      "lat": 56.116667,
      "lng": 9.516667
    },
    {
      "cityName": "Rybjerg Kirkeby",
      "lat": 56.716667,
      "lng": 9.033333
    },
    {
      "cityName": "Rybjerg",
      "lat": 56.716667,
      "lng": 9.05
    },
    {
      "cityName": "Ryde",
      "lat": 56.433333,
      "lng": 8.783333
    },
    {
      "cityName": "Rye",
      "lat": 56.083333,
      "lng": 9.766667
    },
    {
      "cityName": "Rygaarde",
      "lat": 56.5,
      "lng": 10.5
    },
    {
      "cityName": "Rygaardstrand",
      "lat": 56.5,
      "lng": 10.516667
    },
    {
      "cityName": "Ryomgaard",
      "lat": 56.383333,
      "lng": 10.5
    },
    {
      "cityName": "Saaby",
      "lat": 55.983333,
      "lng": 9.8
    },
    {
      "cityName": "Sabro",
      "lat": 56.216667,
      "lng": 10.05
    },
    {
      "cityName": "Sæbberup",
      "lat": 55.8,
      "lng": 9.716667
    },
    {
      "cityName": "Sæby",
      "lat": 56.766667,
      "lng": 8.916667
    },
    {
      "cityName": "Sælvig",
      "lat": 55.866667,
      "lng": 10.566667
    },
    {
      "cityName": "Saksild",
      "lat": 55.983333,
      "lng": 10.233333
    },
    {
      "cityName": "Salle",
      "lat": 56.283333,
      "lng": 9.833333
    },
    {
      "cityName": "Sallingsund",
      "lat": 56.733333,
      "lng": 8.866667
    },
    {
      "cityName": "Salten",
      "lat": 56.083333,
      "lng": 9.583333
    },
    {
      "cityName": "Sandby",
      "lat": 56.3,
      "lng": 10.066667
    },
    {
      "cityName": "Sander",
      "lat": 56,
      "lng": 10.166667
    },
    {
      "cityName": "Sandet",
      "lat": 55.916667,
      "lng": 8.85
    },
    {
      "cityName": "Sandvad",
      "lat": 55.916667,
      "lng": 9.433333
    },
    {
      "cityName": "Sangstrup",
      "lat": 56.466667,
      "lng": 10.9
    },
    {
      "cityName": "Sattrup",
      "lat": 55.95,
      "lng": 9.8
    },
    {
      "cityName": "Scandia",
      "lat": 56.466667,
      "lng": 10.066667
    },
    {
      "cityName": "Sebstrup",
      "lat": 56.1,
      "lng": 9.45
    },
    {
      "cityName": "Seem",
      "lat": 56.616667,
      "lng": 10.1
    },
    {
      "cityName": "Sejet",
      "lat": 55.816667,
      "lng": 9.933333
    },
    {
      "cityName": "Sejling",
      "lat": 56.216667,
      "lng": 9.533333
    },
    {
      "cityName": "Sejs Huse",
      "lat": 56.15,
      "lng": 9.6
    },
    {
      "cityName": "Sejstrup",
      "lat": 56.583333,
      "lng": 9.166667
    },
    {
      "cityName": "Selde",
      "lat": 56.783333,
      "lng": 9.05
    },
    {
      "cityName": "Selkær",
      "lat": 56.466667,
      "lng": 10.75
    },
    {
      "cityName": "Selling",
      "lat": 56.316667,
      "lng": 10.1
    },
    {
      "cityName": "Semb",
      "lat": 56.65,
      "lng": 8.55
    },
    {
      "cityName": "Serreslev",
      "lat": 55.9,
      "lng": 9.9
    },
    {
      "cityName": "Serup",
      "lat": 56.233333,
      "lng": 9.5
    },
    {
      "cityName": "Sevel",
      "lat": 56.45,
      "lng": 8.883333
    },
    {
      "cityName": "Siim",
      "lat": 56.083333,
      "lng": 9.783333
    },