{
  "name": "Conakry",
  "cities": [
    {
      "cityName": "Bassia",
      "lat": 9.5666667,
      "lng": -13.6333333
    },
    {
      "cityName": "Bonfira",
      "lat": 9.5497222,
      "lng": -13.6433333
    },
    {
      "cityName": "Boom",
      "lat": 9.4713889,
      "lng": -13.8369444
    },
    {
      "cityName": "Camayen",
      "lat": 9.535,
      "lng": -13.6877778
    },
    {
      "cityName": "Cité de Francony",
      "lat": 9.5533333,
      "lng": -13.6372222
    },
    {
      "cityName": "Cité de Kassa",
      "lat": 9.4763889,
      "lng": -13.7497222
    },
    {
      "cityName": "Cité Résid",
      "lat": 9.5666667,
      "lng": -13.6625
    },
    {
      "cityName": "Coléa",
      "lat": 9.5338889,
      "lng": -13.6711111
    },
    {
      "cityName": "Conakry",
      "lat": 9.5091667,
      "lng": -13.7122222
    },
    {
      "cityName": "Coromania",
      "lat": 9.4608333,
      "lng": -13.7491667
    },
    {
      "cityName": "Cote",
      "lat": 9.4797222,
      "lng": -13.8358333
    },
    {
      "cityName": "Dixinn",
      "lat": 9.5511111,
      "lng": -13.6730556
    },
    {
      "cityName": "Donka",
      "lat": 9.5405556,
      "lng": -13.6833333
    },
    {
      "cityName": "Fotoba",
      "lat": 9.5063889,
      "lng": -13.8038889
    },
    {
      "cityName": "Hafiya",
      "lat": 9.5555556,
      "lng": -13.6616667
    },
    {
      "cityName": "Imbaïa",
      "lat": 9.5861111,
      "lng": -13.5955556
    },
    {
      "cityName": "Kaporo",
      "lat": 9.6116667,
      "lng": -13.6461111
    },
    {
      "cityName": "Ketaya",
      "lat": 9.6644444,
      "lng": -13.5930556
    },
    {
      "cityName": "Kipé",
      "lat": 9.6,
      "lng": -13.65
    },
    {
      "cityName": "Kiroli",
      "lat": 9.6197222,
      "lng": -13.6369444
    },
    {
      "cityName": "Kissamondéya",
      "lat": 9.6477778,
      "lng": -13.5338889
    },
    {
      "cityName": "Kobaya",
      "lat": 9.6602778,
      "lng": -13.6019444
    },
    {
      "cityName": "Kokoma",
      "lat": 9.66,
      "lng": -13.5355556
    },
    {
      "cityName": "Kouré",
      "lat": 9.6194444,
      "lng": -13.6091667
    },
    {
      "cityName": "Landréya",
      "lat": 9.5480556,
      "lng": -13.6772222
    },
    {
      "cityName": "Lansaniya",
      "lat": 9.6586111,
      "lng": -13.5308333
    },
    {
      "cityName": "Lembagui",
      "lat": 9.6363889,
      "lng": -13.6211111
    },
    {
      "cityName": "Madina",
      "lat": 9.5380556,
      "lng": -13.6655556
    },
    {
      "cityName": "Mangue",
      "lat": 9.4963889,
      "lng": -13.7611111
    },
    {
      "cityName": "Nongo",
      "lat": 9.6166667,
      "lng": -13.6333333
    },
    {
      "cityName": "Ratoma",
      "lat": 9.5833333,
      "lng": -13.65
    },
    {
      "cityName": "Robané",
      "lat": 9.4877778,
      "lng": -13.8261111
    },
    {
      "cityName": "Rogbané",
      "lat": 9.5775,
      "lng": -13.6644444
    },
    {
      "cityName": "Sangoya",
      "lat": 9.6194444,
      "lng": -13.5780556
    },
    {
      "cityName": "Sébaya",
      "lat": 9.4911111,
      "lng": -13.8169444
    },
    {
      "cityName": "Simbaya",
      "lat": 9.6147222,
      "lng": -13.6086111
    },
    {
      "cityName": "Soniké",
      "lat": 9.5855556,
      "lng": -13.6044444
    },
    {
      "cityName": "Soro",
      "lat": 9.5038889,
      "lng": -13.7661111
    },
    {
      "cityName": "Soumabossia",
      "lat": 9.6333333,
      "lng": -13.6
    },
    {
      "cityName": "Tabouïa",
      "lat": 9.5666667,
      "lng": -13.6666667
    },
    {
      "cityName": "Tadi",
      "lat": 9.6283333,
      "lng": -13.6272222
    },
    {
      "cityName": "Tahire",
      "lat": 9.4644444,
      "lng": -13.7963889
    },
    {
      "cityName": "Tamiouïa",
      "lat": 9.6838889,
      "lng": -13.5661111
    },
    {
      "cityName": "Tanene",
      "lat": 9.4894444,
      "lng": -13.7588889
    },
    {
      "cityName": "Tayiré",
      "lat": 9.4638889,
      "lng": -13.7997222
    },
    {
      "cityName": "Tomboleïa",
      "lat": 9.6405556,
      "lng": -13.5455556
    },
    {
      "cityName": "Tonguiwondi",
      "lat": 9.5444444,
      "lng": -13.6572222
    },
    {
      "cityName": "Wassawassa",
      "lat": 9.6427778,
      "lng": -13.5605556
    }
  ]
}