{
  "name": "Lekoumou",
  "cities": [
    {
      "cityName": "Abvounougou",
      "lat": -2.5813889,
      "lng": 13.5919444
    },
    {
      "cityName": "Ambomo",
      "lat": -3.8561111,
      "lng": 13.2725
    },
    {
      "cityName": "Amboto",
      "lat": -3.3594444,
      "lng": 13.2591667
    },
    {
      "cityName": "Andzogo",
      "lat": -2.8997222,
      "lng": 13.8808333
    },
    {
      "cityName": "Ankouandzion",
      "lat": -2.4166667,
      "lng": 13.6
    },
    {
      "cityName": "Antangi",
      "lat": -2.7541667,
      "lng": 13.6127778
    },
    {
      "cityName": "Badoungou",
      "lat": -3.0438889,
      "lng": 13.3333333
    },
    {
      "cityName": "Bagamba",
      "lat": -3.7222222,
      "lng": 13.0547222
    },
    {
      "cityName": "Bama",
      "lat": -3.2677778,
      "lng": 13.1719444
    },
    {
      "cityName": "Bambama",
      "lat": -2.5405556,
      "lng": 13.5461111
    },
    {
      "cityName": "Banbama II",
      "lat": -2.8027778,
      "lng": 13.6633333
    },
    {
      "cityName": "Banbidi",
      "lat": -2.4547222,
      "lng": 13.5697222
    },
    {
      "cityName": "Bandjoko",
      "lat": -2.7866667,
      "lng": 13.8211111
    },
    {
      "cityName": "Bandoye",
      "lat": -2.4602778,
      "lng": 13.5686111
    },
    {
      "cityName": "Bandzali",
      "lat": -3.0483333,
      "lng": 13.355
    },
    {
      "cityName": "Bandzie",
      "lat": -2.8666667,
      "lng": 13.75
    },
    {
      "cityName": "Bandziémé",
      "lat": -2.8458333,
      "lng": 13.8305556
    },
    {
      "cityName": "Bandzoko",
      "lat": -3.3333333,
      "lng": 13.25
    },
    {
      "cityName": "Bangama",
      "lat": -3.1661111,
      "lng": 13.2627778
    },
    {
      "cityName": "Bankousou",
      "lat": -2.6936111,
      "lng": 13.5947222
    },
    {
      "cityName": "Bantsoussou",
      "lat": -2.9166667,
      "lng": 14.2833333
    },
    {
      "cityName": "Baye-Loango",
      "lat": -4.0341667,
      "lng": 13.4794444
    },
    {
      "cityName": "Beingé",
      "lat": -3.4741667,
      "lng": 13.4175
    },
    {
      "cityName": "Bibanga",
      "lat": -2.9311111,
      "lng": 13.2486111
    },
    {
      "cityName": "Bidoua",
      "lat": -3.4716667,
      "lng": 13.4541667
    },
    {
      "cityName": "Bidzaka Bakota",
      "lat": -2.6352778,
      "lng": 13.6125
    },
    {
      "cityName": "Bidzaka",
      "lat": -2.6041667,
      "lng": 13.5986111
    },
    {
      "cityName": "Bihoua",
      "lat": -3.8188889,
      "lng": 13.3266667
    },
    {
      "cityName": "Bikala",
      "lat": -3.8383333,
      "lng": 13.3227778
    },
    {
      "cityName": "Bikié",
      "lat": -3.1152778,
      "lng": 13.9261111
    },
    {
      "cityName": "Bisala",
      "lat": -2.9686111,
      "lng": 13.255
    },
    {
      "cityName": "Bitéké",
      "lat": -2.6038889,
      "lng": 13.6025
    },
    {
      "cityName": "Bitono",
      "lat": -3.2608333,
      "lng": 13.1841667
    },
    {
      "cityName": "Bouanza",
      "lat": -3.9511111,
      "lng": 13.5438889
    },
    {
      "cityName": "Bouba",
      "lat": -3.1944444,
      "lng": 13.2458333
    },
    {
      "cityName": "Boudouhou",
      "lat": -3.6197222,
      "lng": 13.4633333
    },
    {
      "cityName": "Boukolo",
      "lat": -3.1161111,
      "lng": 14.1436111
    },
    {
      "cityName": "Boulolo",
      "lat": -3.0805556,
      "lng": 14.1311111
    },
    {
      "cityName": "Boungono",
      "lat": -3.2569444,
      "lng": 13.2266667
    },
    {
      "cityName": "Boutaba",
      "lat": -3.2572222,
      "lng": 13.1877778
    },
    {
      "cityName": "Bouyala",
      "lat": -3.1263889,
      "lng": 13.8697222
    },
    {
      "cityName": "Bouyougou",
      "lat": -2.5144444,
      "lng": 13.5344444
    },
    {
      "cityName": "Dianga",
      "lat": -3.4997222,
      "lng": 13.3183333
    },
    {
      "cityName": "Dingui",
      "lat": -3.7333333,
      "lng": 13.2
    },
    {
      "cityName": "Domayi",
      "lat": -2.7225,
      "lng": 13.5952778
    },
    {
      "cityName": "Douakani",
      "lat": -2.9455556,
      "lng": 13.6119444
    },
    {
      "cityName": "Douari",
      "lat": -2.9422222,
      "lng": 13.615
    },
    {
      "cityName": "Doumaya",
      "lat": -3.1775,
      "lng": 13.25
    },
    {
      "cityName": "Dzanga",
      "lat": -2.5719444,
      "lng": 13.5861111
    },
    {
      "cityName": "Dziba",
      "lat": -2.4572222,
      "lng": 13.5558333
    },
    {
      "cityName": "Dziba Dziba",
      "lat": -2.8541667,
      "lng": 13.6002778
    },
    {
      "cityName": "Dziengoué Bakota",
      "lat": -3.1391667,
      "lng": 13.1538889
    },
    {
      "cityName": "Dzoula",
      "lat": -3.1894444,
      "lng": 13.8169444
    },
    {
      "cityName": "Ebéyi",
      "lat": -3.445,
      "lng": 13.2794444
    },
    {
      "cityName": "Etébé II",
      "lat": -3.5033333,
      "lng": 13.3161111
    },
    {
      "cityName": "Etono",
      "lat": -2.75,
      "lng": 13.9166667
    },
    {
      "cityName": "Eyouga",
      "lat": -2.7702778,
      "lng": 13.8286111
    },
    {
      "cityName": "Gabou",
      "lat": -3.2138889,
      "lng": 13.345
    },
    {
      "cityName": "Gengue",
      "lat": -3.7333333,
      "lng": 13.15
    },
    {
      "cityName": "Gonaka",
      "lat": -2.8208333,
      "lng": 13.6005556
    },
    {
      "cityName": "Gonambila",
      "lat": -3.0788889,
      "lng": 13.1616667
    },
    {
      "cityName": "Grand Bois",
      "lat": -3.7263889,
      "lng": 13.3966667
    },
    {
      "cityName": "Idjima",
      "lat": -3.835,
      "lng": 13.4347222
    },
    {
      "cityName": "Idoubi",
      "lat": -3.6775,
      "lng": 13.4477778
    },
    {
      "cityName": "Ikaya",
      "lat": -3.7,
      "lng": 13.5666667
    },
    {
      "cityName": "Imboula",
      "lat": -2.8572222,
      "lng": 13.8286111
    },
    {
      "cityName": "Imgama",
      "lat": -2.9905556,
      "lng": 13.8616667
    },
    {
      "cityName": "Impo",
      "lat": -3.3133333,
      "lng": 13.705
    },
    {
      "cityName": "Indo",
      "lat": -3.71,
      "lng": 13.3797222
    },
    {
      "cityName": "Inga",
      "lat": -2.4911111,
      "lng": 13.5422222
    },
    {
      "cityName": "Ingolo II",
      "lat": -3.2891667,
      "lng": 13.6980556
    },
    {
      "cityName": "Ingolo I",
      "lat": -3.3861111,
      "lng": 13.6075
    },
    {
      "cityName": "Ingoumina",
      "lat": -2.9094444,
      "lng": 13.8555556
    },
    {
      "cityName": "Inkia",
      "lat": -2.9752778,
      "lng": 14.0180556
    },
    {
      "cityName": "Invouni",
      "lat": -3.0197222,
      "lng": 13.9005556
    },
    {
      "cityName": "Isiélé",
      "lat": -3.3775,
      "lng": 13.6341667
    },
    {
      "cityName": "Itébé",
      "lat": -2.9877778,
      "lng": 14.1452778
    },
    {
      "cityName": "Itounou",
      "lat": -2.9222222,
      "lng": 13.9397222
    },
    {
      "cityName": "Kabala",
      "lat": -3.1911111,
      "lng": 13.3722222
    },
    {
      "cityName": "Kakouma",
      "lat": -3.0402778,
      "lng": 13.1683333
    },
    {
      "cityName": "Kangatima",
      "lat": -3.2013889,
      "lng": 13.2461111
    },
    {
      "cityName": "Kani Bakota",
      "lat": -2.9497222,
      "lng": 13.6108333
    },
    {
      "cityName": "Kari",
      "lat": -2.9833333,
      "lng": 13.55
    },
    {
      "cityName": "Kataboumka",
      "lat": -2.4680556,
      "lng": 13.5475
    },
    {
      "cityName": "Kayi",
      "lat": -2.9333333,
      "lng": 13.25
    },
    {
      "cityName": "Kébana",
      "lat": -2.8136111,
      "lng": 13.6105556
    },
    {
      "cityName": "Kendi",
      "lat": -3.8725,
      "lng": 13.4347222
    },
    {
      "cityName": "Kétia",
      "lat": -2.6333333,
      "lng": 13.6166667
    },
    {
      "cityName": "Kétouna",
      "lat": -2.9363889,
      "lng": 13.96
    },
    {
      "cityName": "Kiaba",
      "lat": -3.23,
      "lng": 13.1322222
    },
    {
      "cityName": "Kibiti Bakota",
      "lat": -2.9666667,
      "lng": 13.5833333
    },
    {
      "cityName": "Kibiti Batéké",
      "lat": -2.9633333,
      "lng": 13.6030556
    },
    {
      "cityName": "Kibongou",
      "lat": -2.5266667,
      "lng": 13.5388889
    },
    {
      "cityName": "Kidiba",
      "lat": -3.8311111,
      "lng": 13.3263889
    },
    {
      "cityName": "Kifoubou",
      "lat": -3.0377778,
      "lng": 13.1711111
    },
    {
      "cityName": "Kikolo",
      "lat": -2.9811111,
      "lng": 13.5866667
    },
    {
      "cityName": "Kikué",
      "lat": -3.1205556,
      "lng": 13.8758333
    },
    {
      "cityName": "Kilonga",
      "lat": -3.7638889,
      "lng": 13.7461111
    },
    {
      "cityName": "Kimanda",
      "lat": -3.9266667,
      "lng": 13.5244444
    },
    {
      "cityName": "Kimboto",
      "lat": -3.1986111,
      "lng": 14.0913889
    },
    {
      "cityName": "Kimbouni",
      "lat": -3.0961111,
      "lng": 13.5475
    },
    {
      "cityName": "Kimi Indzouala",
      "lat": -2.9383333,
      "lng": 13.87
    },
    {
      "cityName": "Kinani",
      "lat": -2.9911111,
      "lng": 13.5897222
    },
    {
      "cityName": "Kingama",
      "lat": -3.03,
      "lng": 13.57
    },
    {
      "cityName": "Kingani",
      "lat": -3.0011111,
      "lng": 13.5755556
    },
    {
      "cityName": "Kingolo",
      "lat": -2.8680556,
      "lng": 13.7541667
    },
    {
      "cityName": "Kingouansine",
      "lat": -3.0252778,
      "lng": 14.0563889
    },
    {
      "cityName": "Kintari",
      "lat": -3.195,
      "lng": 14.0641667
    },
    {
      "cityName": "Kinzié",
      "lat": -2.9611111,
      "lng": 14.0022222
    },
    {
      "cityName": "Kisasa",
      "lat": -3.9911111,
      "lng": 13.3816667
    },
    {
      "cityName": "Kisiambi",
      "lat": -3.8827778,
      "lng": 13.4591667
    },
    {
      "cityName": "Kisiami",
      "lat": -3.1922222,
      "lng": 14.0191667
    },
    {
      "cityName": "Kitza",
      "lat": -3.2011111,
      "lng": 14.0422222
    },
    {
      "cityName": "Komono",
      "lat": -3.2775,
      "lng": 13.2261111
    },
    {
      "cityName": "Kongoulou",
      "lat": -3.7258333,
      "lng": 13.3180556
    },
    {
      "cityName": "Kouali",
      "lat": -2.8638889,
      "lng": 13.7538889
    },
    {
      "cityName": "Kouanga",
      "lat": -3.8613889,
      "lng": 13.2533333
    },
    {
      "cityName": "Koungoulou",
      "lat": -3.5302778,
      "lng": 13.3388889
    },
    {
      "cityName": "Kouolo",
      "lat": -2.8347222,
      "lng": 13.8397222
    },
    {
      "cityName": "Laga",
      "lat": -2.7372222,
      "lng": 13.6030556
    },
    {
      "cityName": "Layiki",
      "lat": -2.5925,
      "lng": 13.5977778
    },
    {
      "cityName": "Lébani Lenkala",
      "lat": -2.8202778,
      "lng": 13.9461111
    },
    {
      "cityName": "Le Baye",
      "lat": -2.7066667,
      "lng": 13.8813889
    },
    {
      "cityName": "Léfoutou",
      "lat": -2.8191667,
      "lng": 13.6019444
    },
    {
      "cityName": "Lékana",
      "lat": -2.5544444,
      "lng": 13.5730556
    },
    {
      "cityName": "Lékangi",
      "lat": -3.0938889,
      "lng": 13.8947222
    },
    {
      "cityName": "Lékati II",
      "lat": -2.7227778,
      "lng": 13.8425
    },
    {
      "cityName": "Lékati I",
      "lat": -2.6866667,
      "lng": 13.8277778
    },
    {
      "cityName": "Lékélé",
      "lat": -3.0772222,
      "lng": 13.8933333
    },
    {
      "cityName": "Lékoli",
      "lat": -2.6136111,
      "lng": 13.6133333
    },
    {
      "cityName": "Lékouala",
      "lat": -2.9955556,
      "lng": 13.8858333
    },
    {
      "cityName": "Lékouga",
      "lat": -2.8119444,
      "lng": 13.9052778
    },
    {
      "cityName": "Lembé",
      "lat": -3.7772222,
      "lng": 13.3316667
    },
    {
      "cityName": "Lémigi",
      "lat": -2.6808333,
      "lng": 13.8269444
    },
    {
      "cityName": "Lépouba",
      "lat": -2.4772222,
      "lng": 13.5419444
    },
    {
      "cityName": "Léwala",
      "lat": -2.7338889,
      "lng": 13.6008333
    },
    {
      "cityName": "Liboumbou",
      "lat": -3.5247222,
      "lng": 13.2166667
    },
    {
      "cityName": "Lisanga",
      "lat": -3.0330556,
      "lng": 13.36
    },
    {
      "cityName": "Lisiémi",
      "lat": -3.9336111,
      "lng": 13.1586111
    },
    {
      "cityName": "Lissengué",
      "lat": -3.3041667,
      "lng": 13.2458333
    },
    {
      "cityName": "Loukana",
      "lat": -3.6633333,
      "lng": 13.3422222
    },
    {
      "cityName": "Loukélo",
      "lat": -3.8763889,
      "lng": 13.2230556
    },
    {
      "cityName": "Loungou",
      "lat": -2.6152778,
      "lng": 13.6163889
    },
    {
      "cityName": "Loyo",
      "lat": -3.5,
      "lng": 13.3830556
    },
    {
      "cityName": "Mabounda Bakota",
      "lat": -2.9727778,
      "lng": 13.6011111
    },
    {
      "cityName": "Mabounda Batéké",
      "lat": -2.9666667,
      "lng": 13.6
    },
    {
      "cityName": "Mabounda",
      "lat": -3.0141667,
      "lng": 13.5683333
    },
    {
      "cityName": "Madoko",
      "lat": -3.6341667,
      "lng": 13.3733333
    },
    {
      "cityName": "Madouma",
      "lat": -3.0094444,
      "lng": 14.0336111
    },
    {
      "cityName": "Madzila",
      "lat": -3.0619444,
      "lng": 13.1688889
    },
    {
      "cityName": "Madzili",
      "lat": -2.4433333,
      "lng": 13.5930556
    },
    {
      "cityName": "Madzouka",
      "lat": -2.8427778,
      "lng": 13.6005556
    },
    {
      "cityName": "Madzounou II",
      "lat": -2.5180556,
      "lng": 13.5283333
    },
    {
      "cityName": "Mafoula",
      "lat": -2.8091667,
      "lng": 13.6158333
    },
    {
      "cityName": "Magila",
      "lat": -3.0769444,
      "lng": 14.0941667
    },
    {
      "cityName": "Makabala",
      "lat": -3.3358333,
      "lng": 13.2472222
    },
    {
      "cityName": "Makagadzoumou",
      "lat": -3.1936111,
      "lng": 13.8144444
    },
    {
      "cityName": "Makaga",
      "lat": -3.1605556,
      "lng": 13.4013889
    },
    {
      "cityName": "Makaka",
      "lat": -2.9283333,
      "lng": 13.6116667
    },
    {
      "cityName": "Makanda",
      "lat": -3.7066667,
      "lng": 13.5127778
    },
    {
      "cityName": "Makélé",
      "lat": -3.0638889,
      "lng": 14.0830556
    },
    {
      "cityName": "Makié",
      "lat": -3.0586111,
      "lng": 13.5636111
    },
    {
      "cityName": "Makoubi",
      "lat": -3.5997222,
      "lng": 13.3572222
    },
    {
      "cityName": "Makou",
      "lat": -3.1477778,
      "lng": 13.4522222
    },
    {
      "cityName": "Malengé",
      "lat": -3.4225,
      "lng": 13.52
    },
    {
      "cityName": "Malibéla",
      "lat": -3.25,
      "lng": 13.1666667
    },
    {
      "cityName": "Mali",
      "lat": -3.0255556,
      "lng": 14.0469444
    },
    {
      "cityName": "Malima",
      "lat": -2.8580556,
      "lng": 13.79
    },
    {
      "cityName": "Malouna",
      "lat": -3.015,
      "lng": 13.2922222
    },
    {
      "cityName": "Mamba",
      "lat": -3.6586111,
      "lng": 13.3541667
    },
    {
      "cityName": "Mambouana",
      "lat": -3.4988889,
      "lng": 13.3044444
    },
    {
      "cityName": "Mamwana",
      "lat": -2.85,
      "lng": 14
    },
    {
      "cityName": "Manda II",
      "lat": -3.3919444,
      "lng": 13.5838889
    },
    {
      "cityName": "Manda I",
      "lat": -3.4775,
      "lng": 13.4258333
    },
    {
      "cityName": "Manda",
      "lat": -3.3994444,
      "lng": 13.5713889
    },
    {
      "cityName": "Mandili",
      "lat": -3.3455556,
      "lng": 13.6705556
    },
    {
      "cityName": "Mandzoko",
      "lat": -2.8797222,
      "lng": 13.8377778
    },
    {
      "cityName": "Manengé",
      "lat": -3.5897222,
      "lng": 13.3616667
    },
    {
      "cityName": "Mangori",
      "lat": -3.8458333,
      "lng": 13.4386111
    },
    {
      "cityName": "Mankési",
      "lat": -3.2125,
      "lng": 13.8061111
    },
    {
      "cityName": "Mankoukou",
      "lat": -3.2125,
      "lng": 13.2402778
    },
    {
      "cityName": "Mapangoy",
      "lat": -3.6977778,
      "lng": 13.3619444
    },
    {
      "cityName": "Mapati",
      "lat": -3.5358333,
      "lng": 13.3477778
    },
    {
      "cityName": "Mapinda II",
      "lat": -3.4783333,
      "lng": 13.4005556
    },
    {
      "cityName": "Mapinda I",
      "lat": -3.4886111,
      "lng": 13.3827778
    },
    {
      "cityName": "Mapinda",
      "lat": -3.8844444,
      "lng": 13.2125
    },
    {
      "cityName": "Masaka",
      "lat": -3.0869444,
      "lng": 13.5533333
    },
    {
      "cityName": "Masala",
      "lat": -3.0419444,
      "lng": 13.3577778
    },
    {
      "cityName": "Masina",
      "lat": -3.0616667,
      "lng": 14.0747222
    },
    {
      "cityName": "Masinjo",
      "lat": -3.7366667,
      "lng": 13.2861111
    },
    {
      "cityName": "Massassa-Lewémé",
      "lat": -2.8002778,
      "lng": 13.6397222
    },
    {
      "cityName": "Matangi",
      "lat": -2.8322222,
      "lng": 13.6030556
    },
    {
      "cityName": "Matoto",
      "lat": -3.6447222,
      "lng": 13.7225
    },
    {
      "cityName": "Matsiéné",
      "lat": -2.9822222,
      "lng": 13.2136111
    },
    {
      "cityName": "Matzili",
      "lat": -2.655,
      "lng": 13.6019444
    },
    {
      "cityName": "Mavounou",
      "lat": -3.0911111,
      "lng": 13.1594444
    },
    {
      "cityName": "Mavounoungou",
      "lat": -2.43,
      "lng": 13.5994444
    },
    {
      "cityName": "Mawaténa",
      "lat": -2.95,
      "lng": 13.9716667
    },
    {
      "cityName": "Mayéyé",
      "lat": -3.6816667,
      "lng": 13.6383333
    },
    {
      "cityName": "Mayom",
      "lat": -3.2625,
      "lng": 13.1641667
    },
    {
      "cityName": "Mbaka",
      "lat": -3.4891667,
      "lng": 13.2911111
    },
    {
      "cityName": "Mbama",
      "lat": -2.5747222,
      "lng": 13.5897222
    },
    {
      "cityName": "Mbaya",
      "lat": -3.1208333,
      "lng": 13.1525
    },
    {
      "cityName": "Mbila",
      "lat": -3.2094444,
      "lng": 13.3338889
    },
    {
      "cityName": "Mbogi",
      "lat": -2.6733333,
      "lng": 13.8347222
    },
    {
      "cityName": "Mbomo",
      "lat": -2.3527778,
      "lng": 13.6208333
    },
    {
      "cityName": "Mboui",
      "lat": -3.0283333,
      "lng": 13.1741667
    },
    {
      "cityName": "Mboungou",
      "lat": -2.7144444,
      "lng": 13.5911111
    },
    {
      "cityName": "Mboutou",
      "lat": -3.1938889,
      "lng": 14.0516667
    },
    {
      "cityName": "Mékana",
      "lat": -3.1447222,
      "lng": 13.4719444
    },
    {
      "cityName": "Mibami",
      "lat": -2.9569444,
      "lng": 13.6061111
    },
    {
      "cityName": "Midzaka",
      "lat": -2.9388889,
      "lng": 13.2561111
    },
    {
      "cityName": "Mifoumou",
      "lat": -3.4161111,
      "lng": 13.5216667
    },
    {
      "cityName": "Mifoutamba",
      "lat": -3.0494444,
      "lng": 14.1130556
    },
    {
      "cityName": "Mikamba II",
      "lat": -3.5094444,
      "lng": 13.3230556
    },
    {
      "cityName": "Mikamba",
      "lat": -3.7466667,
      "lng": 13.3438889
    },
    {
      "cityName": "Milimba",
      "lat": -3.1347222,
      "lng": 13.1513889
    },
    {
      "cityName": "Mimpousa",
      "lat": -2.9497222,
      "lng": 14.0897222
    },
    {
      "cityName": "Minziti",
      "lat": -3.6636111,
      "lng": 13.3825
    },
    {
      "cityName": "Misama",
      "lat": -3.2133333,
      "lng": 13.1208333
    },
    {
      "cityName": "Misasa Bakota",
      "lat": -2.7936111,
      "lng": 13.6597222
    },
    {
      "cityName": "Misasa Batéké",
      "lat": -2.7975,
      "lng": 13.6386111
    },
    {
      "cityName": "Misengé",
      "lat": -4.0272222,
      "lng": 13.3777778
    },
    {
      "cityName": "Missama",
      "lat": -3.5925,
      "lng": 13.3608333
    },
    {
      "cityName": "Missassa",
      "lat": -2.7833333,
      "lng": 13.6666667
    },
    {
      "cityName": "Mitiéné",
      "lat": -3.1852778,
      "lng": 14.0088889
    },
    {
      "cityName": "Mitolo Bakota",
      "lat": -3.2552778,
      "lng": 13.2219444
    },
    {
      "cityName": "Mitolo Batéké",
      "lat": -3.2711111,
      "lng": 13.2277778
    },
    {
      "cityName": "Mitsiba",
      "lat": -3.0194444,
      "lng": 13.3108333
    },
    {
      "cityName": "Mobanga",
      "lat": -2.4541667,
      "lng": 13.5813889
    },
    {
      "cityName": "Mobéyou",
      "lat": -3.1416667,
      "lng": 13.4769444
    },
    {
      "cityName": "Mobilangomo",
      "lat": -3.8638889,
      "lng": 13.3008333
    },
    {
      "cityName": "Mobili",
      "lat": -2.3477778,
      "lng": 13.6236111
    },
    {
      "cityName": "Mobindza",
      "lat": -3.0166667,
      "lng": 13.2333333
    },
    {
      "cityName": "Mocaboula",
      "lat": 2.3666667,
      "lng": 17.4666667
    },
    {
      "cityName": "Moetche",
      "lat": -3.0044444,
      "lng": 13.2863889
    },
    {
      "cityName": "Moké",
      "lat": -2.8694444,
      "lng": 13.8297222
    },
    {
      "cityName": "Mokila",
      "lat": -2.7975,
      "lng": 13.7277778
    },
    {
      "cityName": "Mokina",
      "lat": -3.0105556,
      "lng": 13.1822222
    },
    {
      "cityName": "Mokolébili",
      "lat": -3.9872222,
      "lng": 13.3822222
    },
    {
      "cityName": "Mokouma",
      "lat": -3.2358333,
      "lng": 13.1369444
    },
    {
      "cityName": "Moloundou",
      "lat": -3.9341667,
      "lng": 13.5527778
    },
    {
      "cityName": "Mongomo",
      "lat": -2.8688889,
      "lng": 13.7713889
    },
    {
      "cityName": "Monkasa",
      "lat": -3.0897222,
      "lng": 14.0111111
    },
    {
      "cityName": "Mopounga",
      "lat": -3.3133333,
      "lng": 13.2483333
    },
    {
      "cityName": "Moségé",
      "lat": -3.8166667,
      "lng": 13.4227778
    },
    {
      "cityName": "Mosété",
      "lat": -2.9419444,
      "lng": 13.9661111
    },
    {
      "cityName": "Motala",
      "lat": -2.4230556,
      "lng": 13.6016667
    },
    {
      "cityName": "Moudamba",
      "lat": -3.7994444,
      "lng": 13.4341667
    },
    {
      "cityName": "Moudoumou",
      "lat": -3.0166667,
      "lng": 13.15
    },
    {
      "cityName": "Moué",
      "lat": -3.0613889,
      "lng": 14.0691667
    },
    {
      "cityName": "Moufilou",
      "lat": -3.6888889,
      "lng": 13.4844444
    },
    {
      "cityName": "Moufouma",
      "lat": -3.7130556,
      "lng": 13.4130556
    },
    {
      "cityName": "Moukala",
      "lat": -3,
      "lng": 13.2666667
    },
    {
      "cityName": "Moukanda",
      "lat": -3.6705556,
      "lng": 13.335
    },
    {
      "cityName": "Moukasi",
      "lat": -3.435,
      "lng": 13.4833333
    },
    {
      "cityName": "Moukogo",
      "lat": -3.2811111,
      "lng": 13.7147222
    },
    {
      "cityName": "Moukondo",
      "lat": -3.78,
      "lng": 13.3305556
    },
    {
      "cityName": "Moukouma",
      "lat": -2.7627778,
      "lng": 13.6238889
    },
    {
      "cityName": "Moulé",
      "lat": -3.6275,
      "lng": 13.3727778
    },
    {
      "cityName": "Mouliengéré",
      "lat": -2.5033333,
      "lng": 13.5255556
    },
    {
      "cityName": "Moulondo",
      "lat": -3.1569444,
      "lng": 13.1477778
    },
    {
      "cityName": "Mouloundou",
      "lat": -3.2211111,
      "lng": 13.1275
    },
    {
      "cityName": "Moumbili",
      "lat": -2.8977778,
      "lng": 13.6097222
    },
    {
      "cityName": "Mounda",
      "lat": -2.9911111,
      "lng": 13.88
    },
    {
      "cityName": "Mounkouono",
      "lat": -2.9166667,
      "lng": 14.1666667
    },
    {
      "cityName": "Moupouonou",
      "lat": -2.8361111,
      "lng": 13.5977778
    },
    {
      "cityName": "Mousahou",
      "lat": -2.4772222,
      "lng": 13.5372222
    },
    {
      "cityName": "Mousandzou",
      "lat": -2.4463889,
      "lng": 13.5866667
    },
    {
      "cityName": "Mousangi",
      "lat": -3.0988889,
      "lng": 13.8947222
    },
    {
      "cityName": "Mousaou",
      "lat": -2.8722222,
      "lng": 13.6022222
    },
    {
      "cityName": "Moutiéné",
      "lat": -2.6744444,
      "lng": 13.5925
    },
    {
      "cityName": "Moutimasoungou",
      "lat": -3.4311111,
      "lng": 13.5141667
    },
    {
      "cityName": "Moutimoutiri",
      "lat": -3.8972222,
      "lng": 13.5130556
    },
    {
      "cityName": "Moutombo",
      "lat": -3.5183333,
      "lng": 13.3727778
    },
    {
      "cityName": "Moutouala",
      "lat": -3.2538889,
      "lng": 13.1488889
    },
    {
      "cityName": "Moutoumou",
      "lat": -2.8633333,
      "lng": 13.7863889
    },
    {
      "cityName": "Moutoumounou",
      "lat": -2.5319444,
      "lng": 13.54
    },
    {
      "cityName": "Moutséné Bakota",
      "lat": -3.2319444,
      "lng": 13.2305556
    },
    {
      "cityName": "Moutséné Batéké",
      "lat": -3.2205556,
      "lng": 13.2369444
    },
    {
      "cityName": "Mouyabi",
      "lat": -2.91,
      "lng": 13.6044444
    },
    {
      "cityName": "Mouyala",
      "lat": -3.0077778,
      "lng": 13.1958333
    },
    {
      "cityName": "Mouyali",
      "lat": -2.4941667,
      "lng": 13.5355556
    },
    {
      "cityName": "Mouyénzoko",
      "lat": -2.4988889,
      "lng": 13.5230556
    },
    {
      "cityName": "Movouto",
      "lat": -3.6633333,
      "lng": 13.3972222
    },
    {
      "cityName": "Mpaléké",
      "lat": -2.7741667,
      "lng": 13.8130556
    },
    {
      "cityName": "Mvouara",
      "lat": -3.8125,
      "lng": 13.4266667
    },
    {
      "cityName": "Ndongo",
      "lat": -2.3161111,
      "lng": 13.6327778
    },
    {
      "cityName": "Ndouo",
      "lat": -2.8277778,
      "lng": 13.7602778
    },
    {
      "cityName": "Nembe",
      "lat": -3.8388889,
      "lng": 13.3180556
    },
    {
      "cityName": "Ngana",
      "lat": -3.2530556,
      "lng": 13.2027778
    },
    {
      "cityName": "Ngani",
      "lat": -3.1552778,
      "lng": 13.4355556
    },
    {
      "cityName": "Ngingé",
      "lat": -3.7036111,
      "lng": 13.335
    },
    {
      "cityName": "Ngobounda",
      "lat": -2.6280556,
      "lng": 13.6127778
    },
    {
      "cityName": "Ngonakamina",
      "lat": -3.2905556,
      "lng": 13.2575
    },
    {
      "cityName": "Ngoubili",
      "lat": -3.2419444,
      "lng": 13.7516667
    },
    {
      "cityName": "Ngouma",
      "lat": -2.4344444,
      "lng": 13.6013889
    },
    {
      "cityName": "Nzali",
      "lat": -2.5758333,
      "lng": 13.58
    },
    {
      "cityName": "Nziéké",
      "lat": -2.9141667,
      "lng": 13.6094444
    },
    {
      "cityName": "Nzouala",
      "lat": -3.2783333,
      "lng": 13.7113889
    },
    {
      "cityName": "Oandzi",
      "lat": -3.4622222,
      "lng": 13.2816667
    },
    {
      "cityName": "Obili",
      "lat": -2.9286111,
      "lng": 13.9452778
    },
    {
      "cityName": "Ogooué",
      "lat": -2.7577778,
      "lng": 13.8361111
    },
    {
      "cityName": "Okassa",
      "lat": -2.805,
      "lng": 13.7091667
    },
    {
      "cityName": "Okilandzouli",
      "lat": -2.4333333,
      "lng": 13.5666667
    },
    {
      "cityName": "Okouma",
      "lat": -3.5291667,
      "lng": 13.3322222
    },
    {
      "cityName": "Okoumbili",
      "lat": -2.8094444,
      "lng": 13.7519444
    },
    {
      "cityName": "Olouo",
      "lat": -2.9069444,
      "lng": 13.9261111
    },
    {
      "cityName": "Omoï ancien Poste",
      "lat": -2.9441667,
      "lng": 13.2286111
    },
    {
      "cityName": "Omoï Gouengué",
      "lat": -2.9480556,
      "lng": 13.2233333
    },
    {
      "cityName": "Omoï",
      "lat": -2.8133333,
      "lng": 13.9166667
    },
    {
      "cityName": "Omoy-Gadzita",
      "lat": -2.6177778,
      "lng": 13.615
    },
    {
      "cityName": "Omoyi Wussu",
      "lat": -2.8872222,
      "lng": 13.8377778
    },
    {
      "cityName": "Omoy Ngala",
      "lat": -3.0527778,
      "lng": 13.3483333
    },
    {
      "cityName": "Omoytsani",
      "lat": -3.3266667,
      "lng": 13.6941667
    },
    {
      "cityName": "Ompoho",
      "lat": -2.9683333,
      "lng": 13.8594444
    },
    {
      "cityName": "Ondama I",
      "lat": -2.8263889,
      "lng": 13.8452778
    },
    {
      "cityName": "Onkasa II",
      "lat": -2.8013889,
      "lng": 13.6830556
    },
    {
      "cityName": "Onkouma",
      "lat": -2.9161111,
      "lng": 13.8955556
    },
    {
      "cityName": "Ontchouo",
      "lat": -2.6666667,
      "lng": 13.3833333
    },
    {
      "cityName": "Ontsay",
      "lat": -2.8847222,
      "lng": 13.6055556
    },
    {
      "cityName": "Opoungou",
      "lat": -2.7927778,
      "lng": 13.8286111
    },
    {
      "cityName": "Osiba",
      "lat": -3.3122222,
      "lng": 13.2438889
    },
    {
      "cityName": "Otala",
      "lat": -2.4666667,
      "lng": 13.5666667
    },
    {
      "cityName": "Outa Ingama",
      "lat": -2.9233333,
      "lng": 13.8591667
    },
    {
      "cityName": "Oyali",
      "lat": -3.5163889,
      "lng": 13.3236111
    },
    {
      "cityName": "Oyombo",
      "lat": -3.4088889,
      "lng": 13.2758333
    },
    {
      "cityName": "Panda",
      "lat": -3.6636111,
      "lng": 13.4136111
    },
    {
      "cityName": "Pika-Songho",
      "lat": -3.9858333,
      "lng": 13.1241667
    },
    {
      "cityName": "Pina",
      "lat": -3.7569444,
      "lng": 13.4205556
    },
    {
      "cityName": "Pingouama",
      "lat": -3.9697222,
      "lng": 13.5277778
    },
    {
      "cityName": "Pini",
      "lat": -3.7302778,
      "lng": 13.3688889
    },
    {
      "cityName": "Placongo",
      "lat": -2.9461111,
      "lng": 13.2266667
    },
    {
      "cityName": "Poundzou",
      "lat": -3.9169444,
      "lng": 13.1869444
    },
    {
      "cityName": "Saint Pierre",
      "lat": -3.4658333,
      "lng": 13.4733333
    },
    {
      "cityName": "Salambama",
      "lat": -3.2616667,
      "lng": 13.7402778
    },
    {
      "cityName": "Sandzou",
      "lat": -3.5033333,
      "lng": 13.2702778
    },
    {
      "cityName": "Sibidi",
      "lat": -3.6858333,
      "lng": 13.3458333
    },
    {
      "cityName": "Siésé",
      "lat": -3.1527778,
      "lng": 13.9702778
    },
    {
      "cityName": "Sima",
      "lat": -2.34,
      "lng": 13.6358333
    },
    {
      "cityName": "Simonbondo",
      "lat": -2.3277778,
      "lng": 13.6363889
    },
    {
      "cityName": "Sténégé",
      "lat": -3.2252778,
      "lng": 13.7833333
    },
    {
      "cityName": "Tala",
      "lat": -3.7408333,
      "lng": 13.3544444
    },
    {
      "cityName": "Tama",
      "lat": -2.5475,
      "lng": 13.5633333
    },
    {
      "cityName": "Tongo",
      "lat": -3.1813889,
      "lng": 13.8252778
    },
    {
      "cityName": "Tsama-Lékoli",
      "lat": -2.6077778,
      "lng": 13.6125
    },
    {
      "cityName": "Tsanga",
      "lat": -3.1333333,
      "lng": 13.8641667
    },
    {
      "cityName": "Tséganpika",
      "lat": -3.2069444,
      "lng": 13.8108333
    },
    {
      "cityName": "Tsiéké",
      "lat": -3.1588889,
      "lng": 13.4188889
    },
    {
      "cityName": "Tsiémayo",
      "lat": -3.5252778,
      "lng": 13.3544444
    },
    {
      "cityName": "Tsitsa",
      "lat": -3.8533333,
      "lng": 13.3158333
    },
    {
      "cityName": "Vouala",
      "lat": -3.1572222,
      "lng": 13.4125
    },
    {
      "cityName": "Vouali",
      "lat": -3.1466667,
      "lng": 14.1066667
    },
    {
      "cityName": "Vouga Itounou",
      "lat": -2.9116667,
      "lng": 13.9377778
    },
    {
      "cityName": "Vouga",
      "lat": -2.85,
      "lng": 13.8
    },
    {
      "cityName": "Voula",
      "lat": -2.7569444,
      "lng": 13.8333333
    },
    {
      "cityName": "Voule",
      "lat": -2.5827778,
      "lng": 13.5977778
    },
    {
      "cityName": "Yamadjélé",
      "lat": -2.7,
      "lng": 13.8833333
    },
    {
      "cityName": "Yama",
      "lat": -3.7141667,
      "lng": 13.3719444
    },
    {
      "cityName": "Yamba",
      "lat": -2.4858333,
      "lng": 13.54
    },
    {
      "cityName": "Yananga",
      "lat": -3.025,
      "lng": 13.325
    },
    {
      "cityName": "Yanga",
      "lat": -3.8313889,
      "lng": 13.4369444
    },
    {
      "cityName": "Yaya",
      "lat": -3.0863889,
      "lng": 13.1555556
    },
    {
      "cityName": "Yoka",
      "lat": -2.9561111,
      "lng": 14.0413889
    },
    {
      "cityName": "Yoko",
      "lat": -2.9005556,
      "lng": 13.6055556
    },
    {
      "cityName": "Youlandzami",
      "lat": -3.1738889,
      "lng": 13.1394444
    },
    {
      "cityName": "Yoyo",
      "lat": -2.9,
      "lng": 13.9666667
    },
    {
      "cityName": "Yuomi",
      "lat": -3.1997222,
      "lng": 14.0255556
    },
    {
      "cityName": "Zanaga Bakota",
      "lat": -3.07,
      "lng": 13.5566667
    },
    {
      "cityName": "Zanaga Batéké",
      "lat": -3.0633333,
      "lng": 13.5622222
    },
    {
      "cityName": "Zanaga",
      "lat": -2.8502778,
      "lng": 13.8261111
    },
    {
      "cityName": "Zanzi",
      "lat": -2.9425,
      "lng": 13.2580556
    }
  ]
}