{
  "name": "San Salvador",
  "cities": [
    {
      "cityName": "Agua Blanca",
      "lat": 13.9888889,
      "lng": -89.2880556
    },
    {
      "cityName": "Aguilares",
      "lat": 13.9572222,
      "lng": -89.1897222
    },
    {
      "cityName": "Aldea de Mercedes",
      "lat": 13.8,
      "lng": -89.2
    },
    {
      "cityName": "Amatepeque",
      "lat": 13.6833333,
      "lng": -89.1666667
    },
    {
      "cityName": "Amatitán",
      "lat": 13.7,
      "lng": -89.1
    },
    {
      "cityName": "Amayo",
      "lat": 13.5172222,
      "lng": -89.1719444
    },
    {
      "cityName": "Animas",
      "lat": 13.7988889,
      "lng": -89.0827778
    },
    {
      "cityName": "Apopa",
      "lat": 13.8072222,
      "lng": -89.1791667
    },
    {
      "cityName": "Apulo",
      "lat": 13.7066667,
      "lng": -89.0761111
    },
    {
      "cityName": "Asino",
      "lat": 13.6752778,
      "lng": -89.1002778
    },
    {
      "cityName": "Ayutuxtepegue",
      "lat": 13.7455556,
      "lng": -89.2063889
    },
    {
      "cityName": "Azacualpa",
      "lat": 13.5522222,
      "lng": -89.1741667
    },
    {
      "cityName": "Barrio Victorias",
      "lat": 13.7166667,
      "lng": -89.1666667
    },
    {
      "cityName": "Bonete",
      "lat": 13.8633333,
      "lng": -89.2013889
    },
    {
      "cityName": "Buena Vista",
      "lat": 13.7,
      "lng": -89.15
    },
    {
      "cityName": "Callejon",
      "lat": 13.75,
      "lng": -89.1833333
    },
    {
      "cityName": "Calle Nueva",
      "lat": 13.8591667,
      "lng": -89.1669444
    },
    {
      "cityName": "Calle Real",
      "lat": 13.75,
      "lng": -89.15
    },
    {
      "cityName": "Camotepeque",
      "lat": 13.8333333,
      "lng": -89.2
    },
    {
      "cityName": "Caña Brava",
      "lat": 13.65,
      "lng": -89.1333333
    },
    {
      "cityName": "Cantón El Guaje",
      "lat": 13.6666667,
      "lng": -89.15
    },
    {
      "cityName": "Cantón El Rosario",
      "lat": 13.75,
      "lng": -89.0833333
    },
    {
      "cityName": "Cantón La Palma",
      "lat": 13.7213889,
      "lng": -89.0675
    },
    {
      "cityName": "Cantón Las Delicias",
      "lat": 13.7333333,
      "lng": -89.0833333
    },
    {
      "cityName": "Cantón Las Flores",
      "lat": 13.7988889,
      "lng": -89.1316667
    },
    {
      "cityName": "Cantón Las Tunas",
      "lat": 13.9377778,
      "lng": -89.2
    },
    {
      "cityName": "Cantón Las Ventanas",
      "lat": 13.98,
      "lng": -89.2311111
    },
    {
      "cityName": "Cantón La Unión",
      "lat": 13.75,
      "lng": -89.1
    },
    {
      "cityName": "Cantón Loma de Ramos",
      "lat": 13.9,
      "lng": -89.1522222
    },
    {
      "cityName": "Cantón Matasano",
      "lat": 14.0166667,
      "lng": -89.2166667
    },
    {
      "cityName": "Cantón Nance Verde",
      "lat": 13.8833333,
      "lng": -89.1333333
    },
    {
      "cityName": "Cantón Potrerillos",
      "lat": 13.6166667,
      "lng": -89.15
    },
    {
      "cityName": "Cantón Sacamil",
      "lat": 13.8983333,
      "lng": -89.1969444
    },
    {
      "cityName": "Cantón Salitre",
      "lat": 13.8022222,
      "lng": -89.2538889
    },
    {
      "cityName": "Cantón San Antonio Grande",
      "lat": 14.05,
      "lng": -89.2333333
    },
    {
      "cityName": "Casa de Piedra",
      "lat": 13.65,
      "lng": -89.2166667
    },
    {
      "cityName": "Caserío El Bejuco",
      "lat": 14,
      "lng": -89.2666667
    },
    {
      "cityName": "Caserío El Carmen",
      "lat": 13.7166667,
      "lng": -89.2666667
    },
    {
      "cityName": "Caserío El Escondido",
      "lat": 13.9833333,
      "lng": -89.25
    },
    {
      "cityName": "Caserío El Morro",
      "lat": 13.6166667,
      "lng": -89.1333333
    },
    {
      "cityName": "Caserío El Sauce",
      "lat": 13.7833333,
      "lng": -89.1166667
    },
    {
      "cityName": "Caserío Jicaron",
      "lat": 13.9963889,
      "lng": -89.2552778
    },
    {
      "cityName": "Caserío La Cabaña",
      "lat": 14.0166667,
      "lng": -89.1833333
    },
    {
      "cityName": "Caserío Mariona",
      "lat": 13.7777778,
      "lng": -89.1836111
    },
    {
      "cityName": "Caserío Panalito",
      "lat": 13.9763889,
      "lng": -89.1752778
    },
    {
      "cityName": "Caserío San Jerónimo",
      "lat": 13.9236111,
      "lng": -89.1891667
    },
    {
      "cityName": "Caserío Sauce",
      "lat": 13.7108333,
      "lng": -89.0441667
    },
    {
      "cityName": "Caserío Valle Nuevo",
      "lat": 14.05,
      "lng": -89.2
    },
    {
      "cityName": "Chaltepe",
      "lat": 13.6472222,
      "lng": -89.1522222
    },
    {
      "cityName": "Chaltipa",
      "lat": 13.6386111,
      "lng": -89.1030556
    },
    {
      "cityName": "Chancala",
      "lat": 13.7605556,
      "lng": -89.2119444
    },
    {
      "cityName": "Changallo",
      "lat": 13.6691667,
      "lng": -89.1177778
    },
    {
      "cityName": "Colonia América",
      "lat": 13.6833333,
      "lng": -89.1833333
    },
    {
      "cityName": "Colonia del Milagro",
      "lat": 13.6666667,
      "lng": -89.1833333
    },
    {
      "cityName": "Colonia Dolores",
      "lat": 13.6833333,
      "lng": -89.2
    },
    {
      "cityName": "Colonia Escalón",
      "lat": 13.7,
      "lng": -89.2333333
    },
    {
      "cityName": "Colonia Monserrate",
      "lat": 13.6833333,
      "lng": -89.2166667
    },
    {
      "cityName": "Colonia San Benito",
      "lat": 13.7,
      "lng": -89.25
    },
    {
      "cityName": "Conacaste",
      "lat": 13.8047222,
      "lng": -89.2377778
    },
    {
      "cityName": "Consolación",
      "lat": 13.9811111,
      "lng": -89.2669444
    },
    {
      "cityName": "Cuapa",
      "lat": 13.6666667,
      "lng": -89.1466667
    },
    {
      "cityName": "Cuscatancingo",
      "lat": 13.7361111,
      "lng": -89.1813889
    },
    {
      "cityName": "Delgado",
      "lat": 13.7241667,
      "lng": -89.1702778
    },
    {
      "cityName": "Delicias del Norte",
      "lat": 13.7333333,
      "lng": -89.2166667
    },
    {
      "cityName": "El Arenal",
      "lat": 13.7666667,
      "lng": -89.1833333
    },
    {
      "cityName": "El Cacao",
      "lat": 13.7,
      "lng": -89.1666667
    },
    {
      "cityName": "El Carmen",
      "lat": 13.6333333,
      "lng": -89.1333333
    },
    {
      "cityName": "El Carrizal",
      "lat": 13.5666667,
      "lng": -89.2
    },
    {
      "cityName": "El Cedro",
      "lat": 13.6208333,
      "lng": -89.2211111
    },
    {
      "cityName": "El Ciprés",
      "lat": 13.65,
      "lng": -89.15
    },
    {
      "cityName": "El Divisadero",
      "lat": 13.6,
      "lng": -89.1666667
    },
    {
      "cityName": "El Guayabo",
      "lat": 13.6333333,
      "lng": -89.2
    },
    {
      "cityName": "El Jutillo",
      "lat": 13.5833333,
      "lng": -89.2166667
    },
    {
      "cityName": "El Limón",
      "lat": 13.7225,
      "lng": -89.1325
    },
    {
      "cityName": "El Mico",
      "lat": 13.9,
      "lng": -89.1666667
    },
    {
      "cityName": "El Paisnal",
      "lat": 13.9736111,
      "lng": -89.2186111
    },
    {
      "cityName": "El Pepeto",
      "lat": 13.6591667,
      "lng": -89.1675
    },
    {
      "cityName": "El Porvenir",
      "lat": 13.6333333,
      "lng": -89.15
    },
    {
      "cityName": "El Tablón",
      "lat": 13.9780556,
      "lng": -89.2583333
    },
    {
      "cityName": "El Tránsito",
      "lat": 13.7166667,
      "lng": -89.1333333
    },
    {
      "cityName": "El Tronador",
      "lat": 13.9552778,
      "lng": -89.2438889
    },
    {
      "cityName": "El Zapote",
      "lat": 13.75,
      "lng": -89.2166667
    },
    {
      "cityName": "Finca Suchinango",
      "lat": 13.785,
      "lng": -89.2375
    },
    {
      "cityName": "Finca Venecia",
      "lat": 13.7166667,
      "lng": -89.15
    },
    {
      "cityName": "Galera Quemada",
      "lat": 13.8452778,
      "lng": -89.2330556
    },
    {
      "cityName": "Guadalupe",
      "lat": 13.65,
      "lng": -89.2
    },
    {
      "cityName": "Guasapa",
      "lat": 13.8769444,
      "lng": -89.1730556
    },
    {
      "cityName": "Hacienda Los Mangos",
      "lat": 13.9666667,
      "lng": -89.2
    },
    {
      "cityName": "Hacienda Natividad",
      "lat": 13.9936111,
      "lng": -89.2766667
    },
    {
      "cityName": "Hacienda Palmira",
      "lat": 13.8666667,
      "lng": -89.1666667
    },
    {
      "cityName": "Hacienda Pishishapa",
      "lat": 13.9605556,
      "lng": -89.1747222
    },
    {
      "cityName": "Hacienda San Diego",
      "lat": 14,
      "lng": -89.1666667
    },
    {
      "cityName": "Hacienda San José Arrazola",
      "lat": 13.8166667,
      "lng": -89.1333333
    },
    {
      "cityName": "Hacienda San Rafael",
      "lat": 14.05,
      "lng": -89.1833333
    },
    {
      "cityName": "Hacienda San Ramón",
      "lat": 13.5641667,
      "lng": -89.1955556
    },
    {
      "cityName": "Hacienda Santa Bárbara",
      "lat": 13.8366667,
      "lng": -89.1527778
    },
    {
      "cityName": "Hacienda Tutultepeque",
      "lat": 13.8938889,
      "lng": -89.2233333
    },
    {
      "cityName": "Ilopango",
      "lat": 13.7016667,
      "lng": -89.1094444
    },
    {
      "cityName": "Ingenio Prusia",
      "lat": 13.7,
      "lng": -89.1333333
    },
    {
      "cityName": "Joya Galana",
      "lat": 13.8166667,
      "lng": -89.2
    },
    {
      "cityName": "Joya Grande",
      "lat": 13.65,
      "lng": -89.1
    },
    {
      "cityName": "La Cabaña",
      "lat": 13.7833333,
      "lng": -89.15
    },
    {
      "cityName": "La Cuchilla",
      "lat": 13.6333333,
      "lng": -89.1
    },
    {
      "cityName": "La Florida",
      "lat": 13.9491667,
      "lng": -89.215
    },
    {
      "cityName": "La Flor",
      "lat": 13.7333333,
      "lng": -89.05
    },
    {
      "cityName": "La Fuente",
      "lat": 13.7444444,
      "lng": -89.1077778
    },
    {
      "cityName": "Las Barrosas",
      "lat": 13.5347222,
      "lng": -89.1986111
    },
    {
      "cityName": "Las Casitas",
      "lat": 13.6383333,
      "lng": -89.1666667
    },
    {
      "cityName": "Las Flores",
      "lat": 13.7333333,
      "lng": -89.2
    },
    {
      "cityName": "Las Tres Ceibas",
      "lat": 13.8313889,
      "lng": -89.1886111
    },
    {
      "cityName": "Lomas de Candelaria",
      "lat": 13.6522222,
      "lng": -89.2211111
    },
    {
      "cityName": "Loma y Media",
      "lat": 13.5891667,
      "lng": -89.215
    },
    {
      "cityName": "Los Llanitos",
      "lat": 13.75,
      "lng": -89.2
    },
    {
      "cityName": "Los Pajales",
      "lat": 13.5833333,
      "lng": -89.15
    },
    {
      "cityName": "Los Palones",
      "lat": 13.6166667,
      "lng": -89.1666667
    },
    {
      "cityName": "Los Planes",
      "lat": 13.6463889,
      "lng": -89.1916667
    },
    {
      "cityName": "Los Troncones",
      "lat": 13.5630556,
      "lng": -89.1655556
    },
    {
      "cityName": "Malacoff",
      "lat": 13.7644444,
      "lng": -89.1005556
    },
    {
      "cityName": "Mejicanos",
      "lat": 13.7402778,
      "lng": -89.2130556
    },
    {
      "cityName": "Milingo",
      "lat": 13.75,
      "lng": -89.1666667
    },
    {
      "cityName": "Nejapa",
      "lat": 13.8147222,
      "lng": -89.2313889
    },
    {
      "cityName": "Palo Grande",
      "lat": 13.5436111,
      "lng": -89.2188889
    },
    {
      "cityName": "Panchimalco",
      "lat": 13.6127778,
      "lng": -89.18
    },
    {
      "cityName": "Panchimalquito",
      "lat": 13.5725,
      "lng": -89.1508333
    },
    {
      "cityName": "Plan del Mango",
      "lat": 13.5063889,
      "lng": -89.1977778
    },
    {
      "cityName": "Plan del Pino",
      "lat": 13.7408333,
      "lng": -89.1419444
    },
    {
      "cityName": "Potrero Grande",
      "lat": 14.0333333,
      "lng": -89.15
    },
    {
      "cityName": "Quezalapa",
      "lat": 13.6127778,
      "lng": -89.2061111
    },
    {
      "cityName": "Rosario de Mora",
      "lat": 13.5752778,
      "lng": -89.2088889
    },
    {
      "cityName": "San Antonio Abad",
      "lat": 13.7166667,
      "lng": -89.2333333
    },
    {
      "cityName": "San Bartolo",
      "lat": 13.7172222,
      "lng": -89.0991667
    },
    {
      "cityName": "San Cristóbal",
      "lat": 13.9333333,
      "lng": -89.1833333
    },
    {
      "cityName": "San Isidro",
      "lat": 13.5813889,
      "lng": -89.1727778
    },
    {
      "cityName": "San Jerónimo Los Planes",
      "lat": 13.7666667,
      "lng": -89.25
    },
    {
      "cityName": "San José Aquacatitán",
      "lat": 13.65,
      "lng": -89.2333333
    },
    {
      "cityName": "San José Cortés",
      "lat": 13.7611111,
      "lng": -89.1447222
    },
    {
      "cityName": "San José Primero",
      "lat": 13.75,
      "lng": -89.0666667
    },
    {
      "cityName": "San José Segundo",
      "lat": 13.7666667,
      "lng": -89.0666667
    },
    {
      "cityName": "San Laureano",
      "lat": 13.7666667,
      "lng": -89.15
    },
    {
      "cityName": "San Marcos",
      "lat": 13.6588889,
      "lng": -89.1830556
    },
    {
      "cityName": "San Martín",
      "lat": 13.7416667,
      "lng": -89.0563889
    },
    {
      "cityName": "San Nicolás",
      "lat": 13.8,
      "lng": -89.1666667
    },
    {
      "cityName": "San Roque",
      "lat": 13.7497222,
      "lng": -89.2297222
    },
    {
      "cityName": "San Salvador",
      "lat": 13.7086111,
      "lng": -89.2030556
    },
    {
      "cityName": "Santiago Texacuangos",
      "lat": 13.6427778,
      "lng": -89.1183333
    },
    {
      "cityName": "Santo Tomás",
      "lat": 13.6408333,
      "lng": -89.1333333
    },
    {
      "cityName": "Soyapango",
      "lat": 13.7347222,
      "lng": -89.1513889
    },
    {
      "cityName": "Tonacatepeque",
      "lat": 13.7811111,
      "lng": -89.1186111
    },
    {
      "cityName": "Valle de Guadalupe",
      "lat": 13.7666667,
      "lng": -89.2166667
    },
    {
      "cityName": "Valle de Vera Cruz",
      "lat": 13.7333333,
      "lng": -89.1
    },
    {
      "cityName": "Valle El Rosario",
      "lat": 13.7652778,
      "lng": -89.1302778
    },
    {
      "cityName": "Valle El Tránsito",
      "lat": 13.7963889,
      "lng": -89.1161111
    },
    {
      "cityName": "Valle Las Delicias",
      "lat": 13.7833333,
      "lng": -89.2333333
    }
  ]
}