{
  "name": "Western",
  "cities": [
    {
      "cityName": "Abuko",
      "lat": 13.4041667,
      "lng": -16.6558333
    },
    {
      "cityName": "Alaji Yoro",
      "lat": 13.5230556,
      "lng": -16.2838889
    },
    {
      "cityName": "Alakounda",
      "lat": 13.1666667,
      "lng": -15.9666667
    },
    {
      "cityName": "Albadarr",
      "lat": 13.3344444,
      "lng": -16.3866667
    },
    {
      "cityName": "Alhaji Abdoulie Liegh",
      "lat": 13.7,
      "lng": -15.2833333
    },
    {
      "cityName": "Alijamadu",
      "lat": 13.4,
      "lng": -16.4555556
    },
    {
      "cityName": "Aljamdu Kamara Kunda",
      "lat": 13.4,
      "lng": -16.45
    },
    {
      "cityName": "Allahein",
      "lat": 13.0727778,
      "lng": -16.7469444
    },
    {
      "cityName": "Alla Kunda",
      "lat": 13.1672222,
      "lng": -16.0113889
    },
    {
      "cityName": "Alpha",
      "lat": 13.4666667,
      "lng": -16.35
    },
    {
      "cityName": "Alpha Hamjatu",
      "lat": 13.4666667,
      "lng": -16.3166667
    },
    {
      "cityName": "Amdalai",
      "lat": 13.4319444,
      "lng": -16.7225
    },
    {
      "cityName": "Amdallai",
      "lat": 13.5883333,
      "lng": -16.4227778
    },
    {
      "cityName": "Ampaya",
      "lat": 13.4525,
      "lng": -16.6908333
    },
    {
      "cityName": "Anias Kunda",
      "lat": 13.5666667,
      "lng": -15.1833333
    },
    {
      "cityName": "Arangalain",
      "lat": 13.2066667,
      "lng": -16.1469444
    },
    {
      "cityName": "Arankon Kunda",
      "lat": 13.2333333,
      "lng": -15.9166667
    },
    {
      "cityName": "Arongkoli Kunda",
      "lat": 13.2333333,
      "lng": -15.8666667
    },
    {
      "cityName": "Babilon Gunjur",
      "lat": 13.2133333,
      "lng": -16.7461111
    },
    {
      "cityName": "Babou Jobe",
      "lat": 13.6,
      "lng": -15.3
    },
    {
      "cityName": "Ba Duma",
      "lat": 13.35,
      "lng": -16.3333333
    },
    {
      "cityName": "Bafuloto",
      "lat": 13.3188889,
      "lng": -16.6275
    },
    {
      "cityName": "Bafulotor",
      "lat": 13.4397222,
      "lng": -16.3163889
    },
    {
      "cityName": "Bahdad",
      "lat": 13.6166667,
      "lng": -15.1
    },
    {
      "cityName": "Bahoom",
      "lat": 13.5713889,
      "lng": -16.3286111
    },
    {
      "cityName": "Baijana",
      "lat": 13.1869444,
      "lng": -16.3983333
    },
    {
      "cityName": "Baijangkortor",
      "lat": 13.2666667,
      "lng": -15.9
    },
    {
      "cityName": "Baintengkay",
      "lat": 13.6666667,
      "lng": -15.4
    },
    {
      "cityName": "Baipal",
      "lat": 13.1761111,
      "lng": -16.0997222
    },
    {
      "cityName": "Baitit Mamu Fana",
      "lat": 13.6,
      "lng": -15.1166667
    },
    {
      "cityName": "Bajagar",
      "lat": 13.1933333,
      "lng": -16.1813889
    },
    {
      "cityName": "Bajagar Dumbutu",
      "lat": 13.2094444,
      "lng": -16.1180556
    },
    {
      "cityName": "Bajagar Jola",
      "lat": 13.1944444,
      "lng": -16.1188889
    },
    {
      "cityName": "Baji Kunda",
      "lat": 13.2152778,
      "lng": -16.0558333
    },
    {
      "cityName": "Bajilo",
      "lat": 13.21,
      "lng": -16.2141667
    },
    {
      "cityName": "Bajiran",
      "lat": 13.2833333,
      "lng": -15.9666667
    },
    {
      "cityName": "Bajong Koto",
      "lat": 13.2297222,
      "lng": -16.6494444
    },
    {
      "cityName": "Bajong Kotor",
      "lat": 13.4116667,
      "lng": -16.6616667
    },
    {
      "cityName": "Bajonkoto",
      "lat": 13.23,
      "lng": -16.0955556
    },
    {
      "cityName": "Bakalari",
      "lat": 13.4216667,
      "lng": -16.4266667
    },
    {
      "cityName": "Bakary Sambou",
      "lat": 13.2388889,
      "lng": -16.6441667
    },
    {
      "cityName": "Bakau",
      "lat": 13.4780556,
      "lng": -16.6819444
    },
    {
      "cityName": "Bakau Kunku",
      "lat": 13.3244444,
      "lng": -16.8008333
    },
    {
      "cityName": "Bakau NDing",
      "lat": 13.47,
      "lng": -16.6836111
    },
    {
      "cityName": "Bakendik",
      "lat": 13.4561111,
      "lng": -16.4536111
    },
    {
      "cityName": "Bakote",
      "lat": 13.4658333,
      "lng": -16.7002778
    },
    {
      "cityName": "Bakoteh",
      "lat": 13.43,
      "lng": -16.6983333
    },
    {
      "cityName": "Ba Kunda",
      "lat": 13.2833333,
      "lng": -15.25
    },
    {
      "cityName": "Balangar",
      "lat": 13.6666667,
      "lng": -15.3666667
    },
    {
      "cityName": "Balanghar Njoben",
      "lat": 13.6666667,
      "lng": -15.4166667
    },
    {
      "cityName": "Ballen",
      "lat": 13.1661111,
      "lng": -16.0947222
    },
    {
      "cityName": "Bamba",
      "lat": 13.6333333,
      "lng": -15.2833333
    },
    {
      "cityName": "Bamba Jallow",
      "lat": 13.5666667,
      "lng": -15.3166667
    },
    {
      "cityName": "Bambaka",
      "lat": 13.4,
      "lng": -15.7666667
    },
    {
      "cityName": "Bambako Kura",
      "lat": 13.6166667,
      "lng": -15.3
    },
    {
      "cityName": "Bamba Kolon",
      "lat": 13.6,
      "lng": -15.1333333
    },
    {
      "cityName": "Bandinto",
      "lat": 13.0841667,
      "lng": -16.7436111
    },
    {
      "cityName": "Bangali",
      "lat": 13.5061111,
      "lng": -16.4122222
    },
    {
      "cityName": "Bangaly",
      "lat": 13.4833333,
      "lng": -16.45
    },
    {
      "cityName": "Bangherr",
      "lat": 13.7,
      "lng": -15.2666667
    },
    {
      "cityName": "Baniakan",
      "lat": 13.3255556,
      "lng": -16.7475
    },
    {
      "cityName": "Bani Bajenko",
      "lat": 13.4166667,
      "lng": -15.2333333
    },
    {
      "cityName": "Banjul NDing",
      "lat": 13.3733333,
      "lng": -16.6572222
    },
    {
      "cityName": "Bantam Bilo",
      "lat": 13.3441667,
      "lng": -16.7152778
    },
    {
      "cityName": "Bantanding",
      "lat": 13.5880556,
      "lng": -16.2552778
    },
    {
      "cityName": "Bantanding Sancha",
      "lat": 13.5833333,
      "lng": -16.2833333
    },
    {
      "cityName": "Bantang Killing",
      "lat": 13.3452778,
      "lng": -16.4147222
    },
    {
      "cityName": "Bantang Koto",
      "lat": 13.65,
      "lng": -15.3
    },
    {
      "cityName": "Bantanjang",
      "lat": 13.2833333,
      "lng": -15.95
    },
    {
      "cityName": "Bantanta",
      "lat": 13.7,
      "lng": -15.25
    },
    {
      "cityName": "Bantanto",
      "lat": 13.5833333,
      "lng": -15.15
    },
    {
      "cityName": "Bantanto Ker Daburi",
      "lat": 13.6833333,
      "lng": -15.2333333
    },
    {
      "cityName": "Bantanto Ker Olai",
      "lat": 13.7,
      "lng": -15.2333333
    },
    {
      "cityName": "Baria",
      "lat": 13.3333333,
      "lng": -16.4
    },
    {
      "cityName": "Baro Kunda",
      "lat": 13.4833333,
      "lng": -15.2666667
    },
    {
      "cityName": "Baro Kunda Tenda",
      "lat": 13.4833333,
      "lng": -15.3
    },
    {
      "cityName": "Barrinding",
      "lat": 13.4902778,
      "lng": -16.4644444
    },
    {
      "cityName": "Barrow Kunda",
      "lat": 13.2302778,
      "lng": -16.0669444
    },
    {
      "cityName": "Basori",
      "lat": 13.2255556,
      "lng": -16.5919444
    },
    {
      "cityName": "Bassen Kansana",
      "lat": 13.1663889,
      "lng": -16.0627778
    },
    {
      "cityName": "Batelling",
      "lat": 13.4,
      "lng": -15.85
    },
    {
      "cityName": "Batena",
      "lat": 13.1819444,
      "lng": -16.2163889
    },
    {
      "cityName": "Bati",
      "lat": 13.5833333,
      "lng": -15.1333333
    },
    {
      "cityName": "Bati Hai",
      "lat": 13.7,
      "lng": -15.2
    },
    {
      "cityName": "Bati Jaha",
      "lat": 13.75,
      "lng": -15.1166667
    },
    {
      "cityName": "Bati Jama Gen",
      "lat": 13.7166667,
      "lng": -15.2
    },
    {
      "cityName": "Batori Sateh",
      "lat": 13.1530556,
      "lng": -16.7788889
    },
    {
      "cityName": "Battabut",
      "lat": 13.2063889,
      "lng": -16.16
    },
    {
      "cityName": "Battabut Denelu",
      "lat": 13.1936111,
      "lng": -16.1536111
    },
    {
      "cityName": "Bayarr",
      "lat": 13.2833333,
      "lng": -16.25
    },
    {
      "cityName": "Berrending",
      "lat": 13.14,
      "lng": -16.7433333
    },
    {
      "cityName": "Bessi Nding",
      "lat": 13.2191667,
      "lng": -16.5013889
    },
    {
      "cityName": "Bijiba",
      "lat": 13.5166667,
      "lng": -16.3166667
    },
    {
      "cityName": "Bijilo",
      "lat": 13.4180556,
      "lng": -16.73
    },
    {
      "cityName": "Bintang",
      "lat": 13.2497222,
      "lng": -16.2141667
    },
    {
      "cityName": "Bissari Bajongkoto",
      "lat": 13.2,
      "lng": -15.9
    },
    {
      "cityName": "Bluntu",
      "lat": 13.1752778,
      "lng": -16.0188889
    },
    {
      "cityName": "Bonda",
      "lat": 13.25,
      "lng": -15.8833333
    },
    {
      "cityName": "Bondali Tenda",
      "lat": 13.25,
      "lng": -15.9
    },
    {
      "cityName": "Bonto",
      "lat": 13.2780556,
      "lng": -16.5594444
    },
    {
      "cityName": "Bosa",
      "lat": 13.2322222,
      "lng": -16.7211111
    },
    {
      "cityName": "Brefet",
      "lat": 13.2433333,
      "lng": -16.3813889
    },
    {
      "cityName": "Brikama",
      "lat": 13.2675,
      "lng": -16.6461111
    },
    {
      "cityName": "Brufut",
      "lat": 13.3841667,
      "lng": -16.7513889
    },
    {
      "cityName": "Brufut Manjago",
      "lat": 13.3730556,
      "lng": -16.7430556
    },
    {
      "cityName": "Brumen",
      "lat": 13.25,
      "lng": -15.8333333
    },
    {
      "cityName": "Buchilling",
      "lat": 13.2102778,
      "lng": -16.0280556
    },
    {
      "cityName": "Budayell",
      "lat": 13.3833333,
      "lng": -15.2666667
    },
    {
      "cityName": "Buduck Maila Secka",
      "lat": 13.7,
      "lng": -15.3666667
    },
    {
      "cityName": "Buduk",
      "lat": 13.75,
      "lng": -15.1
    },
    {
      "cityName": "Bulanjor",
      "lat": 13.2797222,
      "lng": -16.2483333
    },
    {
      "cityName": "Bulengart",
      "lat": 13.2,
      "lng": -15.9166667
    },
    {
      "cityName": "Bulghurk",
      "lat": 13.75,
      "lng": -15.2833333
    },
    {
      "cityName": "Bullelai",
      "lat": 13.1922222,
      "lng": -16.2372222
    },
    {
      "cityName": "Bulok",
      "lat": 13.1766667,
      "lng": -16.4158333
    },
    {
      "cityName": "Bulufula",
      "lat": 13.2833333,
      "lng": -15.9166667
    },
    {
      "cityName": "Bumari",
      "lat": 13.3666667,
      "lng": -15.7666667
    },
    {
      "cityName": "Bungiga",
      "lat": 13.2044444,
      "lng": -16.0897222
    },
    {
      "cityName": "Buniadu",
      "lat": 13.1969444,
      "lng": -16.1980556
    },
    {
      "cityName": "Bunkilling",
      "lat": 13.3330556,
      "lng": -16.7791667
    },
    {
      "cityName": "Bunobor",
      "lat": 13.1833333,
      "lng": -15.9833333
    },
    {
      "cityName": "Buntung",
      "lat": 13.7333333,
      "lng": -15.2
    },
    {
      "cityName": "Bunubor Brikama",
      "lat": 13.1883333,
      "lng": -16.0308333
    },
    {
      "cityName": "Bunubor",
      "lat": 13.1838889,
      "lng": -16.0533333
    },
    {
      "cityName": "Bununka Kunda",
      "lat": 13.4272222,
      "lng": -16.6852778
    },
    {
      "cityName": "Bunyai",
      "lat": 13.2241667,
      "lng": -16.0469444
    },
    {
      "cityName": "Buraing",
      "lat": 13.4166667,
      "lng": -15.2833333
    },
    {
      "cityName": "Buram",
      "lat": 13.2580556,
      "lng": -16.2227778
    },
    {
      "cityName": "Burock",
      "lat": 13.2413889,
      "lng": -16.0416667
    },
    {
      "cityName": "Busanehkai",
      "lat": 13.2333333,
      "lng": -16.1166667
    },
    {
      "cityName": "Busongai",
      "lat": 13.2333333,
      "lng": -15.8166667
    },
    {
      "cityName": "Busumbala",
      "lat": 13.3330556,
      "lng": -16.6708333
    },
    {
      "cityName": "Busura",
      "lat": 13.1825,
      "lng": -16.635
    },
    {
      "cityName": "Bwiam",
      "lat": 13.2352778,
      "lng": -16.0863889
    },
    {
      "cityName": "Carrols Wharf",
      "lat": 13.6833333,
      "lng": -15.1666667
    },
    {
      "cityName": "Chabai",
      "lat": 13.2,
      "lng": -15.8666667
    },
    {
      "cityName": "Chamen Baka",
      "lat": 13.7166667,
      "lng": -15.3833333
    },
    {
      "cityName": "Chamen",
      "lat": 13.5194444,
      "lng": -16.3888889
    },
    {
      "cityName": "Chamen Sosseh",
      "lat": 13.4913889,
      "lng": -16.2625
    },
    {
      "cityName": "Charmen",
      "lat": 13.7,
      "lng": -15.1666667
    },
    {
      "cityName": "Chermo Omar",
      "lat": 13.4558333,
      "lng": -16.3397222
    },
    {
      "cityName": "Chilla",
      "lat": 13.55,
      "lng": -16.2833333
    },
    {
      "cityName": "Chisay",
      "lat": 13.5,
      "lng": -16.3
    },
    {
      "cityName": "Choya",
      "lat": 13.55,
      "lng": -15.25
    },
    {
      "cityName": "Choyen",
      "lat": 13.65,
      "lng": -15.4166667
    },
    {
      "cityName": "Dabaly",
      "lat": 13.5166667,
      "lng": -15.2333333
    },
    {
      "cityName": "Dabatu",
      "lat": 13.3666667,
      "lng": -15.3
    },
    {
      "cityName": "Dalaba",
      "lat": 13.6,
      "lng": -15.2166667
    },
    {
      "cityName": "Daranka",
      "lat": 13.3769444,
      "lng": -16.6286111
    },
    {
      "cityName": "Daresalama",
      "lat": 13.6666667,
      "lng": -15.1
    },
    {
      "cityName": "Darselameh",
      "lat": 13.4833333,
      "lng": -15.2333333
    },
    {
      "cityName": "Darselami",
      "lat": 13.2666667,
      "lng": -16
    },
    {
      "cityName": "Darsilami",
      "lat": 13.1758333,
      "lng": -16.6580556
    },
    {
      "cityName": "Daru",
      "lat": 13.5516667,
      "lng": -16.2516667
    },
    {
      "cityName": "Daru Mbaien",
      "lat": 13.8,
      "lng": -15.1
    },
    {
      "cityName": "Darusalam",
      "lat": 13.2802778,
      "lng": -16.0161111
    },
    {
      "cityName": "Darusalem",
      "lat": 13.7333333,
      "lng": -15.1333333
    },
    {
      "cityName": "Dasalami",
      "lat": 13.2666667,
      "lng": -15.95
    },
    {
      "cityName": "Dau Dula",
      "lat": 13.1444444,
      "lng": -16.7758333
    },
    {
      "cityName": "Dekordeh Bah",
      "lat": 13.4458333,
      "lng": -16.3805556
    },
    {
      "cityName": "Demba Cheesay",
      "lat": 13.7166667,
      "lng": -15.2833333
    },
    {
      "cityName": "Demba Chippo",
      "lat": 13.5166667,
      "lng": -16.3
    },
    {
      "cityName": "Demba Darboe",
      "lat": 13.55,
      "lng": -15.3166667
    },
    {
      "cityName": "Demba Hainey",
      "lat": 13.4666667,
      "lng": -16.3833333
    },
    {
      "cityName": "Demba Njai Ya",
      "lat": 13.2369444,
      "lng": -16.6205556
    },
    {
      "cityName": "Dewru",
      "lat": 13.2627778,
      "lng": -16.6277778
    },
    {
      "cityName": "Deya",
      "lat": 13.2427778,
      "lng": -16.7491667
    },
    {
      "cityName": "Diemballa Ker Cherno",
      "lat": 13.75,
      "lng": -15.4
    },
    {
      "cityName": "Diemballa Ker Madi",
      "lat": 13.7333333,
      "lng": -15.4
    },
    {
      "cityName": "Dimbaga",
      "lat": 13.5438889,
      "lng": -16.3641667
    },
    {
      "cityName": "Dipa Kunda",
      "lat": 13.4402778,
      "lng": -16.6869444
    },
    {
      "cityName": "Djalabango",
      "lat": 13.2805556,
      "lng": -16.6786111
    },
    {
      "cityName": "Djifanga",
      "lat": 13.1705556,
      "lng": -16.1922222
    },
    {
      "cityName": "Dobong",
      "lat": 13.2416667,
      "lng": -16.0738889
    },
    {
      "cityName": "Dongoro Ba",
      "lat": 13.3666667,
      "lng": -15.35
    },
    {
      "cityName": "Dongoro",
      "lat": 13.3833333,
      "lng": -15.2833333
    },
    {
      "cityName": "Dongoro Nding",
      "lat": 13.4666667,
      "lng": -15.2166667
    },
    {
      "cityName": "Douassu",
      "lat": 13.1944444,
      "lng": -16.5508333
    },
    {
      "cityName": "Duma Sansang",
      "lat": 13.5166667,
      "lng": -15.2833333
    },
    {
      "cityName": "Dumbutto",
      "lat": 13.2561111,
      "lng": -16.0444444
    },
    {
      "cityName": "Dumbuttu",
      "lat": 13.35,
      "lng": -15.8333333
    },
    {
      "cityName": "Dumungkareh",
      "lat": 13.3833333,
      "lng": -16.3
    },
    {
      "cityName": "Dungu",
      "lat": 13.5586111,
      "lng": -16.3516667
    },
    {
      "cityName": "Duniajoe",
      "lat": 13.5702778,
      "lng": -16.4669444
    },
    {
      "cityName": "Duonki",
      "lat": 13.1666667,
      "lng": -15.8166667
    },
    {
      "cityName": "Eboe Town",
      "lat": 13.4352778,
      "lng": -16.6763889
    },
    {
      "cityName": "Faarla",
      "lat": 13.2847222,
      "lng": -16.7644444
    },
    {
      "cityName": "Fafanding",
      "lat": 13.5652778,
      "lng": -16.3791667
    },
    {
      "cityName": "Fajara",
      "lat": 13.47,
      "lng": -16.6963889
    },
    {
      "cityName": "Faji Kunda",
      "lat": 13.4177778,
      "lng": -16.6666667
    },
    {
      "cityName": "Faraba Banta",
      "lat": 13.2472222,
      "lng": -16.5263889
    },
    {
      "cityName": "Faraba Bantang",
      "lat": 13.2613889,
      "lng": -16.52
    },
    {
      "cityName": "Faraba Soto",
      "lat": 13.2033333,
      "lng": -16.4844444
    },
    {
      "cityName": "Farakunda",
      "lat": 13.3091667,
      "lng": -16.7786111
    },
    {
      "cityName": "Farato",
      "lat": 13.315,
      "lng": -16.665
    },
    {
      "cityName": "Fas",
      "lat": 13.8,
      "lng": -15.0666667
    },
    {
      "cityName": "Fas Omar Sahor",
      "lat": 13.4613889,
      "lng": -16.3825
    },
    {
      "cityName": "Fass",
      "lat": 13.5636111,
      "lng": -16.4252778
    },
    {
      "cityName": "Fass Mbaien",
      "lat": 13.7166667,
      "lng": -15.4333333
    },
    {
      "cityName": "Fass Njama",
      "lat": 13.7666667,
      "lng": -15.1833333
    },
    {
      "cityName": "Felleng Kotor",
      "lat": 13.4666667,
      "lng": -15.2333333
    },
    {
      "cityName": "Folonko",
      "lat": 13.0908333,
      "lng": -16.7616667
    },
    {
      "cityName": "Fula Kolon",
      "lat": 13.6333333,
      "lng": -15.1166667
    },
    {
      "cityName": "Fula Kulda",
      "lat": 13.2691667,
      "lng": -16.6311111
    },
    {
      "cityName": "Fula Kunda",
      "lat": 13.195,
      "lng": -16.4697222
    },
    {
      "cityName": "Fula Kunku",
      "lat": 13.2733333,
      "lng": -16.7494444
    },
    {
      "cityName": "Funtang",
      "lat": 13.17,
      "lng": -16.0797222
    },
    {
      "cityName": "Gallo-ya",
      "lat": 13.3311111,
      "lng": -16.6175
    },
    {
      "cityName": "Gauwa",
      "lat": 13.6,
      "lng": -15.15
    },
    {
      "cityName": "Gebangarr",
      "lat": 13.2025,
      "lng": -16.1072222
    },
    {
      "cityName": "Genge Tukulor",
      "lat": 13.7333333,
      "lng": -15.3833333
    },
    {
      "cityName": "Ghana Town",
      "lat": 13.3844444,
      "lng": -16.7711111
    },
    {
      "cityName": "Gibanak",
      "lat": 13.2141667,
      "lng": -16.1408333
    },
    {
      "cityName": "Gikis Dandon",
      "lat": 13.1705556,
      "lng": -16.0663889
    },
    {
      "cityName": "Giniah",
      "lat": 13.2280556,
      "lng": -16.0913889
    },
    {
      "cityName": "Gui Jahanka",
      "lat": 13.7333333,
      "lng": -15.2166667
    },
    {
      "cityName": "Gunjur",
      "lat": 13.1816667,
      "lng": -16.7583333
    },
    {
      "cityName": "Hamawda",
      "lat": 13.4883333,
      "lng": -16.4108333
    },
    {
      "cityName": "Hamdalae",
      "lat": 13.2113889,
      "lng": -16.4930556
    },
    {
      "cityName": "Hamdalai",
      "lat": 13.4427778,
      "lng": -16.2936111
    },
    {
      "cityName": "Herabeh Konoh",
      "lat": 13.4833333,
      "lng": -16.4333333
    },
    {
      "cityName": "How Ba",
      "lat": 13.2722222,
      "lng": -16.7994444
    },
    {
      "cityName": "Inoman",
      "lat": 13.4333333,
      "lng": -16.35
    },
    {
      "cityName": "Jaba",
      "lat": 13.4333333,
      "lng": -15.2166667
    },
    {
      "cityName": "Jabang",
      "lat": 13.3594444,
      "lng": -16.7094444
    },
    {
      "cityName": "Jaggle",
      "lat": 13.75,
      "lng": -15.25
    },
    {
      "cityName": "Jagle",
      "lat": 13.75,
      "lng": -15.2666667
    },
    {
      "cityName": "Jaiteh Kunda",
      "lat": 13.5333333,
      "lng": -15.2666667
    },
    {
      "cityName": "Jakau",
      "lat": 13.7,
      "lng": -15.35
    },
    {
      "cityName": "Jakin",
      "lat": 13.1672222,
      "lng": -16.2316667
    },
    {
      "cityName": "Jakisu",
      "lat": 13.1861111,
      "lng": -16.2430556
    },
    {
      "cityName": "Jakoe",
      "lat": 13.2280556,
      "lng": -16.1752778
    },
    {
      "cityName": "Jakoi Bintang",
      "lat": 13.2269444,
      "lng": -16.2438889
    },
    {
      "cityName": "Ja Koto",
      "lat": 13.65,
      "lng": -15.3166667
    },
    {
      "cityName": "Jalambantang",
      "lat": 13.1958333,
      "lng": -16.6280556
    },
    {
      "cityName": "Jalew",
      "lat": 13.1833333,
      "lng": -15.9333333
    },
    {
      "cityName": "Jallakotto",
      "lat": 13.6333333,
      "lng": -15.3166667
    },
    {
      "cityName": "Jallow Kunda",
      "lat": 13.2508333,
      "lng": -16.6388889
    },
    {
      "cityName": "Jamagen",
      "lat": 13.5336111,
      "lng": -16.2530556
    },
    {
      "cityName": "Jama Gen",
      "lat": 13.5869444,
      "lng": -16.4747222
    },
    {
      "cityName": "Jamali",
      "lat": 13.5833333,
      "lng": -15.1833333
    },
    {
      "cityName": "Jamara Wollof",
      "lat": 13.6,
      "lng": -15.2333333
    },
    {
      "cityName": "Jambanjali",
      "lat": 13.2802778,
      "lng": -16.7294444
    },
    {
      "cityName": "Jambour",
      "lat": 13.3155556,
      "lng": -16.7019444
    },
    {
      "cityName": "Jamisa",
      "lat": 13.4166667,
      "lng": -16.7166667
    },
    {
      "cityName": "Jamwilli",
      "lat": 13.7166667,
      "lng": -15.35
    },
    {
      "cityName": "Janack",
      "lat": 13.1666667,
      "lng": -16.2333333
    },
    {
      "cityName": "Janding Ba",
      "lat": 13.2,
      "lng": -15.9333333
    },
    {
      "cityName": "Janding Jilahar",
      "lat": 13.1866667,
      "lng": -16.0086111
    },
    {
      "cityName": "Jane Kunda",
      "lat": 13.7166667,
      "lng": -15.3333333
    },
    {
      "cityName": "Jangmarr",
      "lat": 13.3,
      "lng": -15.9333333
    },
    {
      "cityName": "Jareng Ker Sait Sowe",
      "lat": 13.7166667,
      "lng": -15.2666667
    },
    {
      "cityName": "Jarreng",
      "lat": 13.6166667,
      "lng": -15.1833333
    },
    {
      "cityName": "Jarrol",
      "lat": 13.25,
      "lng": -15.85
    },
    {
      "cityName": "Jassong",
      "lat": 13.4,
      "lng": -15.3166667
    },
    {
      "cityName": "Jatabba",
      "lat": 13.2666667,
      "lng": -15.8333333
    },
    {
      "cityName": "Jatikoi",
      "lat": 13.2833333,
      "lng": -15.9833333
    },
    {
      "cityName": "Jatta Kunda",
      "lat": 13.4,
      "lng": -15.7
    },
    {
      "cityName": "Jenun Kunda",
      "lat": 13.1883333,
      "lng": -16.5488889
    },
    {
      "cityName": "Jereh Kungoto",
      "lat": 13.3708333,
      "lng": -16.4988889
    },
    {
      "cityName": "Jessadi",
      "lat": 13.6333333,
      "lng": -15.3
    },
    {
      "cityName": "Jessadi Tenda",
      "lat": 13.65,
      "lng": -15.2666667
    },
    {
      "cityName": "Jessadi Wharf Town",
      "lat": 13.65,
      "lng": -15.2833333
    },
    {
      "cityName": "Jeswang",
      "lat": 13.4425,
      "lng": -16.6813889
    },
    {
      "cityName": "Jiboroh",
      "lat": 13.1794444,
      "lng": -16.5761111
    },
    {
      "cityName": "Jiboroh Kuta",
      "lat": 13.1883333,
      "lng": -16.5736111
    },
    {
      "cityName": "Jida",
      "lat": 13.1877778,
      "lng": -16.5972222
    },
    {
      "cityName": "Jifarong",
      "lat": 13.3,
      "lng": -15.8666667
    },
    {
      "cityName": "Jifoni",
      "lat": 13.2666667,
      "lng": -15.9333333
    },
    {
      "cityName": "Jillimfara",
      "lat": 13.1722222,
      "lng": -16.1180556
    },
    {
      "cityName": "Jimbala Fel N'Goh",
      "lat": 13.75,
      "lng": -15.3833333
    },
    {
      "cityName": "Jimbana",
      "lat": 13.4197222,
      "lng": -16.4486111
    },
    {
      "cityName": "Jiroff",
      "lat": 13.4166667,
      "lng": -15.7
    },
    {
      "cityName": "Jiroff Tenda",
      "lat": 13.4333333,
      "lng": -15.7166667
    },
    {
      "cityName": "Jockul",
      "lat": 13.6166667,
      "lng": -15.1666667
    },
    {
      "cityName": "Jollofin",
      "lat": 13.3666667,
      "lng": -15.65
    },
    {
      "cityName": "Jombiya",
      "lat": 13.2166667,
      "lng": -16.7333333
    },
    {
      "cityName": "Jorem Drameh Kunda",
      "lat": 13.2333333,
      "lng": -15.8833333
    },
    {
      "cityName": "Jorem",
      "lat": 13.2166667,
      "lng": -15.9666667
    },
    {
      "cityName": "Jufureh",
      "lat": 13.3386111,
      "lng": -16.3825
    },
    {
      "cityName": "Juma Kunda",
      "lat": 13.2419444,
      "lng": -16.0172222
    },
    {
      "cityName": "Jurunku",
      "lat": 13.4183333,
      "lng": -16.2563889
    },
    {
      "cityName": "Jwenkelly",
      "lat": 13.1833333,
      "lng": -15.8333333
    },
    {
      "cityName": "Kaba Kotor",
      "lat": 13.4833333,
      "lng": -16.2833333
    },
    {
      "cityName": "Kabamba",
      "lat": 13.6166667,
      "lng": -15.2833333
    },
    {
      "cityName": "Kabekel",
      "lat": 13.2033333,
      "lng": -16.6572222
    },
    {
      "cityName": "Kabomb",
      "lat": 13.1666667,
      "lng": -15.8
    },
    {
      "cityName": "Kachow NDing",
      "lat": 13.3377778,
      "lng": -16.7047222
    },
    {
      "cityName": "Kachuma",
      "lat": 13.2288889,
      "lng": -16.7605556
    },
    {
      "cityName": "Kafaya",
      "lat": 13.1305556,
      "lng": -16.7786111
    },
    {
      "cityName": "Kafenkena",
      "lat": 13.1716667,
      "lng": -16.0022222
    },
    {
      "cityName": "Kaffenkeng",
      "lat": 13.1833333,
      "lng": -15.9166667
    },
    {
      "cityName": "Kafuta",
      "lat": 13.1966667,
      "lng": -16.4588889
    },
    {
      "cityName": "Kafuta Tubung",
      "lat": 13.1741667,
      "lng": -16.4605556
    },
    {
      "cityName": "Kaianga",
      "lat": 13.1761111,
      "lng": -16.2038889
    },
    {
      "cityName": "Kai Hai",
      "lat": 13.7333333,
      "lng": -15.1166667
    },
    {
      "cityName": "Kaimbujae",
      "lat": 13.3,
      "lng": -16.6166667
    },
    {
      "cityName": "Kaimbujae NDing",
      "lat": 13.285,
      "lng": -16.6213889
    },
    {
      "cityName": "Kaiyabor",
      "lat": 13.25,
      "lng": -15.95
    },
    {
      "cityName": "Kakudia",
      "lat": 13.2252778,
      "lng": -16.7427778
    },
    {
      "cityName": "Kaleng",
      "lat": 13.1747222,
      "lng": -16.0563889
    },
    {
      "cityName": "Kalikajara",
      "lat": 13.6166667,
      "lng": -15.3166667
    },
    {
      "cityName": "Kalimu",
      "lat": 13.2166667,
      "lng": -16.0166667
    },
    {
      "cityName": "Kamamudu",
      "lat": 13.1833333,
      "lng": -15.8
    },
    {
      "cityName": "Kambagali",
      "lat": 13.1847222,
      "lng": -16.0822222
    },
    {
      "cityName": "Kambalin",
      "lat": 13.18,
      "lng": -16.0525
    },
    {
      "cityName": "Kambong",
      "lat": 13.2122222,
      "lng": -16.1072222
    },
    {
      "cityName": "Kambuji",
      "lat": 13.2544444,
      "lng": -16.5955556
    },
    {
      "cityName": "Kamemero",
      "lat": 13.2166667,
      "lng": -15.8166667
    },
    {
      "cityName": "Kamos",
      "lat": 13.1855556,
      "lng": -16.2225
    },
    {
      "cityName": "Kampant",
      "lat": 13.2022222,
      "lng": -16.1097222
    },
    {
      "cityName": "Kampassa",
      "lat": 13.1833333,
      "lng": -15.8166667
    },
    {
      "cityName": "Kanau",
      "lat": 13.25,
      "lng": -16.2333333
    },
    {
      "cityName": "Kangalabata",
      "lat": 13.1669444,
      "lng": -16.0680556
    },
    {
      "cityName": "Kanifing Industrial Estate",
      "lat": 13.4530556,
      "lng": -16.6697222
    },
    {
      "cityName": "Kanifing",
      "lat": 13.4463889,
      "lng": -16.6744444
    },
    {
      "cityName": "Kanilai",
      "lat": 13.1763889,
      "lng": -16.0169444
    },
    {
      "cityName": "Kanjending",
      "lat": 13.2333333,
      "lng": -15.9666667
    },
    {
      "cityName": "Kanjiramba",
      "lat": 13.1683333,
      "lng": -16.4163889
    },
    {
      "cityName": "Kanjundu",
      "lat": 13.2,
      "lng": -16.1333333
    },
    {
      "cityName": "Kankuntu",
      "lat": 13.2391667,
      "lng": -16.0863889
    },
    {
      "cityName": "Kansala",
      "lat": 13.25,
      "lng": -16.1
    },
    {
      "cityName": "Kantimba",
      "lat": 13.1647222,
      "lng": -16.0252778
    },
    {
      "cityName": "Kantong Kunda",
      "lat": 13.3333333,
      "lng": -15.95
    },
    {
      "cityName": "Kantora",
      "lat": 13.2166667,
      "lng": -16.15
    },
    {
      "cityName": "Kanuma",
      "lat": 13.2241667,
      "lng": -16.7752778
    },
    {
      "cityName": "Kapongah",
      "lat": 13.1719444,
      "lng": -16.4163889
    },
    {
      "cityName": "Karanai",
      "lat": 13.2177778,
      "lng": -16.1538889
    },
    {
      "cityName": "Karewan",
      "lat": 13.3683333,
      "lng": -16.6258333
    },
    {
      "cityName": "Karrol",
      "lat": 13.1727778,
      "lng": -16.0797222
    },
    {
      "cityName": "Kartung",
      "lat": 13.0947222,
      "lng": -16.7622222
    },
    {
      "cityName": "Kasa Kunda",
      "lat": 13.25,
      "lng": -16.6833333
    },
    {
      "cityName": "Kassagne",
      "lat": 13.2319444,
      "lng": -16.2297222
    },
    {
      "cityName": "Katamina",
      "lat": 13.55,
      "lng": -15.2833333
    },
    {
      "cityName": "Katimina",
      "lat": 13.75,
      "lng": -15.0833333
    },
    {
      "cityName": "Katokorr",
      "lat": 13.2394444,
      "lng": -16.2247222
    },
    {
      "cityName": "Kau-ur",
      "lat": 13.7,
      "lng": -15.3166667
    },
    {
      "cityName": "Kawali",
      "lat": 13.2,
      "lng": -16
    },
    {
      "cityName": "Kayimu",
      "lat": 13.1666667,
      "lng": -16.2
    },
    {
      "cityName": "Kayrang",
      "lat": 13.1880556,
      "lng": -16.0605556
    },
    {
      "cityName": "Kebbe",
      "lat": 13.5402778,
      "lng": -16.3219444
    },
    {
      "cityName": "Keninding Saibali",
      "lat": 13.2886111,
      "lng": -16.7805556
    },
    {
      "cityName": "Ker Abdou Fady",
      "lat": 13.5530556,
      "lng": -16.2966667
    },
    {
      "cityName": "Ker Alpha",
      "lat": 13.7166667,
      "lng": -15.1666667
    },
    {
      "cityName": "Ker Bakary",
      "lat": 13.4,
      "lng": -16.7333333
    },
    {
      "cityName": "Ker Batch",
      "lat": 13.75,
      "lng": -15.0666667
    },
    {
      "cityName": "Ker Bessenti",
      "lat": 13.2758333,
      "lng": -16.715
    },
    {
      "cityName": "Ker Biggie",
      "lat": 13.5130556,
      "lng": -16.3255556
    },
    {
      "cityName": "Ker Biran Kani",
      "lat": 13.495,
      "lng": -16.3180556
    },
    {
      "cityName": "Ker Biran",
      "lat": 13.6,
      "lng": -15.1666667
    },
    {
      "cityName": "Ker Chaindu",
      "lat": 13.7666667,
      "lng": -15.3333333
    },
    {
      "cityName": "Ker Chandeh",
      "lat": 13.5786111,
      "lng": -16.44
    },
    {
      "cityName": "Ker Demba Gabu",
      "lat": 13.7,
      "lng": -15.3
    },
    {
      "cityName": "Ker-Dobally",
      "lat": 13.3886111,
      "lng": -16.6777778
    },
    {
      "cityName": "Ker Ganyado",
      "lat": 13.5927778,
      "lng": -16.2897222
    },
    {
      "cityName": "Ker Gido",
      "lat": 13.5486111,
      "lng": -16.2725
    },
    {
      "cityName": "Ker Goolgor",
      "lat": 13.27,
      "lng": -16.7188889
    },
    {
      "cityName": "Ker Jatta",
      "lat": 13.5533333,
      "lng": -16.4427778
    },
    {
      "cityName": "Ker Juma",
      "lat": 13.5,
      "lng": -16.3166667
    },
    {
      "cityName": "Ker Kossa",
      "lat": 13.7166667,
      "lng": -15.3
    },
    {
      "cityName": "Ker Mademba",
      "lat": 13.4183333,
      "lng": -16.43
    },
    {
      "cityName": "Ker Maila",
      "lat": 13.7333333,
      "lng": -15.3333333
    },
    {
      "cityName": "Ker Maka",
      "lat": 13.8166667,
      "lng": -15.0666667
    },
    {
      "cityName": "Ker Malick Sarr",
      "lat": 13.5869444,
      "lng": -16.3611111
    },
    {
      "cityName": "Ker Mama Hugo",
      "lat": 13.4333333,
      "lng": -16.4
    },
    {
      "cityName": "Ker Mama",
      "lat": 13.4191667,
      "lng": -16.3558333
    },
    {
      "cityName": "Ker M'Bouguma",
      "lat": 13.5191667,
      "lng": -16.4058333
    },
    {
      "cityName": "Ker Mod Hali",
      "lat": 13.75,
      "lng": -15.2333333
    },
    {
      "cityName": "Ker N'Gatta",
      "lat": 13.55,
      "lng": -16.3833333
    },
    {
      "cityName": "Ker N'Gissay",
      "lat": 13.6,
      "lng": -16.2666667
    },
    {
      "cityName": "Ker N'Gojan",
      "lat": 13.5333333,
      "lng": -16.2805556
    },
    {
      "cityName": "Ker Ngonyan",
      "lat": 13.5363889,
      "lng": -16.2847222
    },
    {
      "cityName": "Ker Ngor",
      "lat": 13.5675,
      "lng": -16.2633333
    },
    {
      "cityName": "Ker Ngumbo",
      "lat": 13.4294444,
      "lng": -16.3522222
    },
    {
      "cityName": "Ker Omar Mane",
      "lat": 13.5833333,
      "lng": -16.2666667
    },
    {
      "cityName": "Ker Ousman Buso",
      "lat": 13.4994444,
      "lng": -16.2666667
    },
    {
      "cityName": "Ker Patteh",
      "lat": 13.5791667,
      "lng": -16.3155556
    },
    {
      "cityName": "Ker Saderr Jobe",
      "lat": 13.55,
      "lng": -16.3
    },
    {
      "cityName": "Ker Sait Cham",
      "lat": 13.4855556,
      "lng": -16.355
    },
    {
      "cityName": "Ker Sait Maram",
      "lat": 13.8,
      "lng": -15.0333333
    },
    {
      "cityName": "Ker Samba Kalla",
      "lat": 13.5244444,
      "lng": -16.3586111
    },
    {
      "cityName": "Ker Samba N'Jabeh",
      "lat": 13.5047222,
      "lng": -16.3452778
    },
    {
      "cityName": "Ker Samba Yassin",
      "lat": 13.5911111,
      "lng": -16.3536111
    },
    {
      "cityName": "Ker Saniang",
      "lat": 13.5744444,
      "lng": -16.4613889
    },
    {
      "cityName": "Ker Sering Jabel",
      "lat": 13.7666667,
      "lng": -15.05
    },
    {
      "cityName": "Ker Sering N'Jie",
      "lat": 13.7833333,
      "lng": -15.0833333
    },
    {
      "cityName": "Ker Sidyke",
      "lat": 13.5152778,
      "lng": -16.2666667
    },
    {
      "cityName": "Ker Sirrai",
      "lat": 13.5,
      "lng": -16.35
    },
    {
      "cityName": "Ker Waka",
      "lat": 13.6666667,
      "lng": -15.2333333
    },
    {
      "cityName": "Ker Wally",
      "lat": 13.5186111,
      "lng": -16.4275
    },
    {
      "cityName": "Ker Yoro Bah",
      "lat": 13.5211111,
      "lng": -16.3291667
    },
    {
      "cityName": "Kidi Kunda",
      "lat": 13.3333333,
      "lng": -15.9166667
    },
    {
      "cityName": "Killa",
      "lat": 13.4613889,
      "lng": -16.2702778
    },
    {
      "cityName": "Killing",
      "lat": 13.2166667,
      "lng": -16.2333333
    },
    {
      "cityName": "Killy",
      "lat": 13.2075,
      "lng": -16.2325
    },
    {
      "cityName": "Kissay",
      "lat": 13.5222222,
      "lng": -16.4247222
    },
    {
      "cityName": "Kiti",
      "lat": 13.2311111,
      "lng": -16.6666667
    },
    {
      "cityName": "Kiti Manjago",
      "lat": 13.2461111,
      "lng": -16.6655556
    },
    {
      "cityName": "Kofa",
      "lat": 13.75,
      "lng": -15.2
    },
    {
      "cityName": "Kololi",
      "lat": 13.4438889,
      "lng": -16.7161111
    },
    {
      "cityName": "Komansor",
      "lat": 13.1833333,
      "lng": -16.2166667
    },
    {
      "cityName": "Kossema",
      "lat": 13.1730556,
      "lng": -16.1755556
    },
    {
      "cityName": "Kotu",
      "lat": 13.4594444,
      "lng": -16.7052778
    },
    {
      "cityName": "Kubariko",
      "lat": 13.3322222,
      "lng": -16.6325
    },
    {
      "cityName": "Kubune",
      "lat": 13.3241667,
      "lng": -16.6052778
    },
    {
      "cityName": "Kudang",
      "lat": 13.6833333,
      "lng": -15.0833333
    },
    {
      "cityName": "Kuloro",
      "lat": 13.2805556,
      "lng": -16.5780556
    },
    {
      "cityName": "Kulukoch",
      "lat": 13.1675,
      "lng": -16.7636111
    },
    {
      "cityName": "Kunda",
      "lat": 13.7833333,
      "lng": -15.1166667
    },
    {
      "cityName": "Kunjenjen",
      "lat": 13.1675,
      "lng": -16.025
    },
    {
      "cityName": "Kunkujang Jattaya",
      "lat": 13.3472222,
      "lng": -16.6005556
    },
    {
      "cityName": "Kunkujang Manjago",
      "lat": 13.2566667,
      "lng": -16.7322222
    },
    {
      "cityName": "Kunkujang NDing",
      "lat": 13.2916667,
      "lng": -16.7647222
    },
    {
      "cityName": "Kunong Fula Kunda",
      "lat": 13.4166667,
      "lng": -15.7333333
    },
    {
      "cityName": "Kunong Numu Kunda",
      "lat": 13.4166667,
      "lng": -15.7166667
    },
    {
      "cityName": "Kurinulain",
      "lat": 13.2266667,
      "lng": -16.0855556
    },
    {
      "cityName": "Kwinella",
      "lat": 13.4,
      "lng": -15.8
    },
    {
      "cityName": "Labba Korreh",
      "lat": 13.3527778,
      "lng": -16.7258333
    },
    {
      "cityName": "Lameng",
      "lat": 13.3869444,
      "lng": -16.6447222
    },
    {
      "cityName": "Lamin",
      "lat": 13.3522222,
      "lng": -16.4338889
    },
    {
      "cityName": "Lang Sarr",
      "lat": 13.5761111,
      "lng": -16.3625
    },
    {
      "cityName": "Latra Kunda",
      "lat": 13.4486111,
      "lng": -16.6852778
    },
    {
      "cityName": "Latra Sabiji",
      "lat": 13.4133333,
      "lng": -16.6788889
    },
    {
      "cityName": "Leba Biji",
      "lat": 13.75,
      "lng": -15.1833333
    },
    {
      "cityName": "Leba",
      "lat": 13.75,
      "lng": -15.1666667
    },
    {
      "cityName": "Leese Ya",
      "lat": 13.2166667,
      "lng": -16.6627778
    },
    {
      "cityName": "Lewna",
      "lat": 13.5383333,
      "lng": -16.4733333
    },
    {
      "cityName": "Linjanya",
      "lat": 13.2297222,
      "lng": -16.7516667
    },
    {
      "cityName": "Luluchore",
      "lat": 13.1844444,
      "lng": -16.1033333
    },
    {
      "cityName": "Macca",
      "lat": 13.4,
      "lng": -16.1333333
    },
    {
      "cityName": "Madiana",
      "lat": 13.3533333,
      "lng": -16.7630556
    },
    {
      "cityName": "Madina Adam",
      "lat": 13.7333333,
      "lng": -15.2833333
    },
    {
      "cityName": "Madina Dabo Kunda",
      "lat": 13.3413889,
      "lng": -16.7102778
    },
    {
      "cityName": "Madina",
      "lat": 13.2575,
      "lng": -16.6477778
    },
    {
      "cityName": "Madina Sey Kunda",
      "lat": 13.3747222,
      "lng": -16.6844444
    },
    {
      "cityName": "Madina Talakoto",
      "lat": 13.2077778,
      "lng": -16.5883333
    },
    {
      "cityName": "Mahmuda",
      "lat": 13.4477778,
      "lng": -16.415
    },
    {
      "cityName": "Mahnyinah",
      "lat": 13.2086111,
      "lng": -16.2080556
    },
    {
      "cityName": "Maindina Ba",
      "lat": 13.2811111,
      "lng": -16.5936111
    },
    {
      "cityName": "Maka Bala Mana",
      "lat": 13.5786111,
      "lng": -16.3105556
    },
    {
      "cityName": "Maka Gui",
      "lat": 13.7833333,
      "lng": -15.15
    },
    {
      "cityName": "Makama",
      "lat": 13.6,
      "lng": -15.3166667
    },
    {
      "cityName": "Maka Njen Jam",
      "lat": 13.5913889,
      "lng": -16.2816667
    },
    {
      "cityName": "Maka Omar Manneh",
      "lat": 13.5788889,
      "lng": -16.2697222
    },
    {
      "cityName": "Makumbaya",
      "lat": 13.3316667,
      "lng": -16.6252778
    },
    {
      "cityName": "Male Kunda",
      "lat": 13.55,
      "lng": -15.3
    },
    {
      "cityName": "Mandina",
      "lat": 13.18,
      "lng": -16.0202778
    },
    {
      "cityName": "Mandinari",
      "lat": 13.3727778,
      "lng": -16.6027778
    },
    {
      "cityName": "Manduari",
      "lat": 13.2455556,
      "lng": -16.6369444
    },
    {
      "cityName": "Manjaharr",
      "lat": 13.7166667,
      "lng": -15.3666667
    },
    {
      "cityName": "Manjai Kunda",
      "lat": 13.4452778,
      "lng": -16.7027778
    },
    {
      "cityName": "Manong",
      "lat": 13.1908333,
      "lng": -16.0641667
    },
    {
      "cityName": "Mansakunda",
      "lat": 13.3644444,
      "lng": -16.73
    },
    {
      "cityName": "Mansal",
      "lat": 13.2491667,
      "lng": -16.6669444
    },
    {
      "cityName": "Marakissa",
      "lat": 13.2111111,
      "lng": -16.6497222
    },
    {
      "cityName": "Mauwhunda Kunda",
      "lat": 13.4036111,
      "lng": -16.6852778
    },
    {
      "cityName": "Mbaien",
      "lat": 13.5455556,
      "lng": -16.3908333
    },
    {
      "cityName": "Mbarra Kunku",
      "lat": 13.4058333,
      "lng": -16.7333333
    },
    {
      "cityName": "M'Bollet N'Ding",
      "lat": 13.5236111,
      "lng": -16.4663889
    },
    {
      "cityName": "M'Bowen",
      "lat": 13.5333333,
      "lng": -16.2666667
    },
    {
      "cityName": "Mbulum",
      "lat": 13.5355556,
      "lng": -16.4066667
    },
    {
      "cityName": "M'Bulum",
      "lat": 13.5422222,
      "lng": -16.4055556
    },
    {
      "cityName": "Medina Dudu",
      "lat": 13.4283333,
      "lng": -16.3475
    },
    {
      "cityName": "Medina Manneh",
      "lat": 13.5586111,
      "lng": -16.3944444
    },
    {
      "cityName": "Medina Mannen",
      "lat": 13.8,
      "lng": -15.05
    },
    {
      "cityName": "Medina",
      "lat": 13.2152778,
      "lng": -16.1047222
    },
    {
      "cityName": "Medina Modum",
      "lat": 13.5766667,
      "lng": -16.2819444
    },
    {
      "cityName": "Medina Njama",
      "lat": 13.5391667,
      "lng": -16.2588889
    },
    {
      "cityName": "Medina Njammeh Sise",
      "lat": 13.7333333,
      "lng": -15.1833333
    },
    {
      "cityName": "Medina Njien",
      "lat": 13.7833333,
      "lng": -15.05
    },
    {
      "cityName": "Medina Sacheboe",
      "lat": 13.4022222,
      "lng": -16.3683333
    },
    {
      "cityName": "Medina Sedia",
      "lat": 13.4205556,
      "lng": -16.4333333
    },
    {
      "cityName": "Medina Sotokoi",
      "lat": 13.55,
      "lng": -16.4569444
    },
    {
      "cityName": "Mendy Kunda",
      "lat": 13.2688889,
      "lng": -16.7055556
    },
    {
      "cityName": "Minjang",
      "lat": 13.3833333,
      "lng": -15.9
    },
    {
      "cityName": "Misira",
      "lat": 13.5833333,
      "lng": -15.2
    },
    {
      "cityName": "Missera Amadou Badjan",
      "lat": 13.7166667,
      "lng": -15.3166667
    },
    {
      "cityName": "Modouya",
      "lat": 13.2191667,
      "lng": -16.6461111
    },
    {
      "cityName": "Musa Deba",
      "lat": 13.5833333,
      "lng": -16.4833333
    },
    {
      "cityName": "Naningkoi",
      "lat": 13.3833333,
      "lng": -15.8833333
    },
    {
      "cityName": "Napoli",
      "lat": 13.1833333,
      "lng": -16.1833333
    },
    {
      "cityName": "Ndakaru",
      "lat": 13.5666667,
      "lng": -15.3333333
    },
    {
      "cityName": "Ndangen",
      "lat": 13.65,
      "lng": -15.4
    },
    {
      "cityName": "Ndimbuya Romba",
      "lat": 13.2794444,
      "lng": -16.7036111
    },
    {
      "cityName": "N'Dofan",
      "lat": 13.5291667,
      "lng": -16.4363889
    },
    {
      "cityName": "Nema Kunku",
      "lat": 13.4125,
      "lng": -16.43
    },
    {
      "cityName": "Nema",
      "lat": 13.4166667,
      "lng": -15.75
    },
    {
      "cityName": "N'Geyen",
      "lat": 13.5166667,
      "lng": -16.35
    },
    {
      "cityName": "Nianija",
      "lat": 13.75,
      "lng": -15.2166667
    },
    {
      "cityName": "Niawoorulung",
      "lat": 13.45,
      "lng": -15.2166667
    },
    {
      "cityName": "Niji",
      "lat": 13.18,
      "lng": -16.5097222
    },
    {
      "cityName": "Nila Koto",
      "lat": 13.2572222,
      "lng": -16.6677778
    },
    {
      "cityName": "Nimsat",
      "lat": 13.2752778,
      "lng": -16.7522222
    },
    {
      "cityName": "Nioro Jattaba",
      "lat": 13.3,
      "lng": -15.8333333
    },
    {
      "cityName": "Nioro",
      "lat": 13.35,
      "lng": -15.75
    },
    {
      "cityName": "N'Jama",
      "lat": 13.7666667,
      "lng": -15.15
    },
    {
      "cityName": "Njambour",
      "lat": 13.445,
      "lng": -16.3983333
    },
    {
      "cityName": "Njau Jahu",
      "lat": 13.7333333,
      "lng": -15.15
    },
    {
      "cityName": "N'Jeng-en",
      "lat": 13.7833333,
      "lng": -15.1333333
    },
    {
      "cityName": "Njie Kunda",
      "lat": 13.75,
      "lng": -15.15
    },
    {
      "cityName": "Njoba Kunda",
      "lat": 13.5166667,
      "lng": -15.25
    },
    {
      "cityName": "N'Joben",
      "lat": 13.5833333,
      "lng": -16.3333333
    },
    {
      "cityName": "Njongon",
      "lat": 13.5333333,
      "lng": -16.4780556
    },
    {
      "cityName": "N'Joofain",
      "lat": 13.5361111,
      "lng": -16.3022222
    },
    {
      "cityName": "Nyafui",
      "lat": 13.2213889,
      "lng": -16.015
    },
    {
      "cityName": "Nyofellah Madina",
      "lat": 13.2258333,
      "lng": -16.7091667
    },
    {
      "cityName": "Nyofellah Manjago",
      "lat": 13.2333333,
      "lng": -16.7
    },
    {
      "cityName": "Nyofelleh",
      "lat": 13.2161111,
      "lng": -16.7191667
    },
    {
      "cityName": "Oceesay Kunday",
      "lat": 13.7166667,
      "lng": -15.1333333
    },
    {
      "cityName": "Old-Busumbala",
      "lat": 13.3391667,
      "lng": -16.6875
    },
    {
      "cityName": "Old Jeshwang",
      "lat": 13.4586111,
      "lng": -16.6633333
    },
    {
      "cityName": "Old Yundum",
      "lat": 13.3625,
      "lng": -16.6861111
    },
    {
      "cityName": "Omar Jowara",
      "lat": 13.5722222,
      "lng": -16.3377778
    },
    {
      "cityName": "Omortoh",
      "lat": 13.1697222,
      "lng": -16.5272222
    },
    {
      "cityName": "Pacholi",
      "lat": 13.2869444,
      "lng": -16.7541667
    },
    {
      "cityName": "Pakan",
      "lat": 13.5833333,
      "lng": -15.1666667
    },
    {
      "cityName": "Pakao Ibrai",
      "lat": 13.3944444,
      "lng": -16.3919444
    },
    {
      "cityName": "Pakao Penku",
      "lat": 13.3755556,
      "lng": -16.3816667
    },
    {
      "cityName": "Pakela Demba Colleh",
      "lat": 13.43,
      "lng": -16.3944444
    },
    {
      "cityName": "Palelai",
      "lat": 13.75,
      "lng": -15.1333333
    },
    {
      "cityName": "Pappa",
      "lat": 13.6166667,
      "lng": -15.2333333
    },
    {
      "cityName": "Passi Challi",
      "lat": 13.4991667,
      "lng": -16.2927778
    },
    {
      "cityName": "Passi Mamut",
      "lat": 13.4486111,
      "lng": -16.3072222
    },
    {
      "cityName": "Pateh Ya",
      "lat": 13.3713889,
      "lng": -16.7272222
    },
    {
      "cityName": "Penjem",
      "lat": 13.2166667,
      "lng": -16.6266667
    },
    {
      "cityName": "Pimak",
      "lat": 13.75,
      "lng": -15.3333333
    },
    {
      "cityName": "Pirang",
      "lat": 13.2725,
      "lng": -16.5352778
    },
    {
      "cityName": "Prince",
      "lat": 13.4597222,
      "lng": -16.3011111
    },
    {
      "cityName": "Sabigending",
      "lat": 13.4319444,
      "lng": -16.6758333
    },
    {
      "cityName": "Sabiji",
      "lat": 13.4113889,
      "lng": -16.7088889
    },
    {
      "cityName": "Sabu Kunda",
      "lat": 13.2833333,
      "lng": -16.6166667
    },
    {
      "cityName": "Sainala",
      "lat": 13.7,
      "lng": -15.3833333
    },
    {
      "cityName": "Salanding",
      "lat": 13.3511111,
      "lng": -16.7747222
    },
    {
      "cityName": "Sala",
      "lat": 13.1666667,
      "lng": -16.7166667
    },
    {
      "cityName": "Samba Secka",
      "lat": 13.45,
      "lng": -16.4166667
    },
    {
      "cityName": "Sambeli Kunda",
      "lat": 13.55,
      "lng": -15.2666667
    },
    {
      "cityName": "Sambuya",
      "lat": 13.2091667,
      "lng": -16.7575
    },
    {
      "cityName": "Sami Bajonkoto",
      "lat": 13.3952778,
      "lng": -16.3230556
    },
    {
      "cityName": "Sami Koto",
      "lat": 13.3883333,
      "lng": -16.3166667
    },
    {
      "cityName": "Sam Joben",
      "lat": 13.5597222,
      "lng": -16.3772222
    },
    {
      "cityName": "Sanchaba",
      "lat": 13.3058333,
      "lng": -16.7894444
    },
    {
      "cityName": "Sanchi",
      "lat": 13.2241667,
      "lng": -16.7302778
    },
    {
      "cityName": "Sandeng",
      "lat": 13.2666667,
      "lng": -15.8166667
    },
    {
      "cityName": "Sangajor Jiramba",
      "lat": 13.2538889,
      "lng": -16.0161111
    },
    {
      "cityName": "Sangajor",
      "lat": 13.2291667,
      "lng": -16.0402778
    },
    {
      "cityName": "Sangkarang",
      "lat": 13.25,
      "lng": -16.0211111
    },
    {
      "cityName": "Sanianga",
      "lat": 13.1908333,
      "lng": -16.4466667
    },
    {
      "cityName": "Saniang Kunda",
      "lat": 13.1666667,
      "lng": -15.9
    },
    {
      "cityName": "Saniang",
      "lat": 13.2666667,
      "lng": -16.7605556
    },
    {
      "cityName": "Sansa Nding",
      "lat": 13.2422222,
      "lng": -16.7611111
    },
    {
      "cityName": "Santangba",
      "lat": 13.2419444,
      "lng": -16.1261111
    },
    {
      "cityName": "Sara Job Kunda",
      "lat": 13.4361111,
      "lng": -16.6886111
    },
    {
      "cityName": "Sara Juma",
      "lat": 13.4313889,
      "lng": -16.3652778
    },
    {
      "cityName": "Sare Chikam",
      "lat": 13.4688889,
      "lng": -16.3477778
    },
    {
      "cityName": "Sare Jutah",
      "lat": 13.25,
      "lng": -16.6333333
    },
    {
      "cityName": "Sare Mamoudou",
      "lat": 13.3666667,
      "lng": -15.7166667
    },
    {
      "cityName": "Sare Marie",
      "lat": 13.4780556,
      "lng": -16.3744444
    },
    {
      "cityName": "Sare Ndala",
      "lat": 13.3833333,
      "lng": -15.7
    },
    {
      "cityName": "Sare Sajo",
      "lat": 13.3666667,
      "lng": -15.7
    },
    {
      "cityName": "Sare Samba Takor",
      "lat": 13.35,
      "lng": -15.3666667
    },
    {
      "cityName": "Sare Suna",
      "lat": 13.4,
      "lng": -15.7333333
    },
    {
      "cityName": "Saringa",
      "lat": 13.2213889,
      "lng": -16.1069444
    },
    {
      "cityName": "Sarre Kunda",
      "lat": 13.4,
      "lng": -15.7833333
    },
    {
      "cityName": "Satakoi",
      "lat": 13.65,
      "lng": -15.1
    },
    {
      "cityName": "Selete",
      "lat": 13.17,
      "lng": -16.5752778
    },
    {
      "cityName": "Selety",
      "lat": 13.1833333,
      "lng": -16.5666667
    },
    {
      "cityName": "Semangara",
      "lat": 13.1825,
      "lng": -16.0680556
    },
    {
      "cityName": "Sere Kunda NDing",
      "lat": 13.285,
      "lng": -16.6058333
    },
    {
      "cityName": "Sere Kunda",
      "lat": 13.4383333,
      "lng": -16.6780556
    },
    {
      "cityName": "Shindifula",
      "lat": 13.2333333,
      "lng": -16.1
    },
    {
      "cityName": "Sibanor",
      "lat": 13.2080556,
      "lng": -16.1963889
    },
    {
      "cityName": "Sibi Nding",
      "lat": 13.3833333,
      "lng": -15.3166667
    },
    {
      "cityName": "Sibito",
      "lat": 13.3833333,
      "lng": -15.7333333
    },
    {
      "cityName": "Sifa",
      "lat": 13.1836111,
      "lng": -16.6975
    },
    {
      "cityName": "Sika Baduma",
      "lat": 13.35,
      "lng": -16.3383333
    },
    {
      "cityName": "Sika Bajonkoto",
      "lat": 13.3547222,
      "lng": -16.3458333
    },
    {
      "cityName": "Sikon",
      "lat": 13.2055556,
      "lng": -16.1766667
    },
    {
      "cityName": "Simbara Hai",
      "lat": 13.7333333,
      "lng": -15.35
    },
    {
      "cityName": "Sinchu Kai-Hai",
      "lat": 13.7333333,
      "lng": -15.1
    },
    {
      "cityName": "Sinki",
      "lat": 13.3930556,
      "lng": -16.6797222
    },
    {
      "cityName": "Sita Nunku",
      "lat": 13.3838889,
      "lng": -16.4636111
    },
    {
      "cityName": "Sita",
      "lat": 13.2336111,
      "lng": -16.1622222
    },
    {
      "cityName": "Sittanunka",
      "lat": 13.1858333,
      "lng": -16.1302778
    },
    {
      "cityName": "Sohm",
      "lat": 13.1802778,
      "lng": -16.495
    },
    {
      "cityName": "Sortokoi",
      "lat": 13.3705556,
      "lng": -16.7444444
    },
    {
      "cityName": "Sotokoi",
      "lat": 13.2272222,
      "lng": -16.5047222
    },
    {
      "cityName": "Suma Kunda Koto",
      "lat": 13.2266667,
      "lng": -16.4933333
    },
    {
      "cityName": "Suol",
      "lat": 13.1663889,
      "lng": -16.1508333
    },
    {
      "cityName": "Surukung",
      "lat": 13.4666667,
      "lng": -15.2666667
    },
    {
      "cityName": "Suturah",
      "lat": 13.5,
      "lng": -16.3333333
    },
    {
      "cityName": "Sutu Sinjang",
      "lat": 13.1869444,
      "lng": -16.3877778
    },
    {
      "cityName": "Tabaiel",
      "lat": 13.2333333,
      "lng": -15.85
    },
    {
      "cityName": "Tabaworo Kunda",
      "lat": 13.6666667,
      "lng": -15.3833333
    },
    {
      "cityName": "Tabo Kotor",
      "lat": 13.4075,
      "lng": -16.6672222
    },
    {
      "cityName": "Tabokoto",
      "lat": 13.1933333,
      "lng": -16.7741667
    },
    {
      "cityName": "Tabo Koto",
      "lat": 13.4616667,
      "lng": -16.4566667
    },
    {
      "cityName": "Taiba",
      "lat": 13.4166667,
      "lng": -16.4
    },
    {
      "cityName": "Taibatu",
      "lat": 13.2344444,
      "lng": -16.7391667
    },
    {
      "cityName": "Talinding Kunjang",
      "lat": 13.4272222,
      "lng": -16.6736111
    },
    {
      "cityName": "Tambakunda",
      "lat": 13.1658333,
      "lng": -16.1361111
    },
    {
      "cityName": "Tamba Nani",
      "lat": 13.55,
      "lng": -15.2333333
    },
    {
      "cityName": "Tanene",
      "lat": 13.2341667,
      "lng": -16.5052778
    },
    {
      "cityName": "Tanjen",
      "lat": 13.3488889,
      "lng": -16.7908333
    },
    {
      "cityName": "Tanji Manjago",
      "lat": 13.3508333,
      "lng": -16.7811111
    },
    {
      "cityName": "Tawtoh",
      "lat": 13.3563889,
      "lng": -16.6933333
    },
    {
      "cityName": "Tendaba",
      "lat": 13.4333333,
      "lng": -15.8166667
    },
    {
      "cityName": "Tento Madi",
      "lat": 13.7833333,
      "lng": -15.1
    },
    {
      "cityName": "Tintiba",
      "lat": 13.2675,
      "lng": -16.0369444
    },
    {
      "cityName": "Tintinto",
      "lat": 13.2955556,
      "lng": -16.7886111
    },
    {
      "cityName": "Trankill",
      "lat": 13.4030556,
      "lng": -16.7380556
    },
    {
      "cityName": "Tranquil",
      "lat": 13.1691667,
      "lng": -16.6586111
    },
    {
      "cityName": "Tuba Kolong",
      "lat": 13.3661111,
      "lng": -16.4652778
    },
    {
      "cityName": "Tubamadadi",
      "lat": 13.7666667,
      "lng": -15.1333333
    },
    {
      "cityName": "Tuba Mbakeh",
      "lat": 13.5833333,
      "lng": -15.3166667
    },
    {
      "cityName": "Tuba",
      "lat": 13.5780556,
      "lng": -16.3919444
    },
    {
      "cityName": "Tubaya",
      "lat": 13.3480556,
      "lng": -16.7288889
    },
    {
      "cityName": "Tubeya",
      "lat": 13.4530556,
      "lng": -16.4394444
    },
    {
      "cityName": "Tujereng",
      "lat": 13.3163889,
      "lng": -16.7888889
    },
    {
      "cityName": "Tuman Tenda",
      "lat": 13.2166667,
      "lng": -16.4747222
    },
    {
      "cityName": "Tunjina",
      "lat": 13.2944444,
      "lng": -16.5680556
    },
    {
      "cityName": "Turi Kunda",
      "lat": 13.7,
      "lng": -15.3333333
    },
    {
      "cityName": "Upert",
      "lat": 13.1669444,
      "lng": -16.2480556
    },
    {
      "cityName": "Welingara",
      "lat": 13.4036111,
      "lng": -16.6736111
    },
    {
      "cityName": "Willimissa",
      "lat": 13.4166667,
      "lng": -16.1166667
    },
    {
      "cityName": "Willingara Ba",
      "lat": 13.4,
      "lng": -15.2666667
    },
    {
      "cityName": "Wirdeba",
      "lat": 13.3166667,
      "lng": -15.8166667
    },
    {
      "cityName": "Wurokang",
      "lat": 13.3833333,
      "lng": -15.8166667
    },
    {
      "cityName": "Yala",
      "lat": 13.5066667,
      "lng": -16.3988889
    },
    {
      "cityName": "Yundum",
      "lat": 13.3455556,
      "lng": -16.6727778
    }
  ]
}