{
  "name": "Lacin",
  "cities": [
    {
      "cityName": "Abdallyar",
      "lat": 39.6408333,
      "lng": 46.5469444
    },
    {
      "cityName": "ÆhmÇdli",
      "lat": 39.6844444,
      "lng": 46.2861111
    },
    {
      "cityName": "ÆlÇkci",
      "lat": 39.8972222,
      "lng": 46.4047222
    },
    {
      "cityName": "Æliqulu",
      "lat": 39.745,
      "lng": 46.4138889
    },
    {
      "cityName": "ÆrdÇsÇvi",
      "lat": 39.7613889,
      "lng": 46.4852778
    },
    {
      "cityName": "Ærikli",
      "lat": 39.8505556,
      "lng": 46.405
    },
    {
      "cityName": "Aganus",
      "lat": 39.6266667,
      "lng": 46.5877778
    },
    {
      "cityName": "Agbulag",
      "lat": 39.7763889,
      "lng": 46.2583333
    },
    {
      "cityName": "AgcakÇnd",
      "lat": 39.7788889,
      "lng": 46.34
    },
    {
      "cityName": "AgcayazÄ±",
      "lat": 39.7838889,
      "lng": 46.4594444
    },
    {
      "cityName": "Aghavni",
      "lat": 39.5897222,
      "lng": 46.5433333
    },
    {
      "cityName": "Akhnazar",
      "lat": 39.7744444,
      "lng": 46.5113889
    },
    {
      "cityName": "AlÄ±can",
      "lat": 39.6094444,
      "lng": 46.7872222
    },
    {
      "cityName": "Alkhasly",
      "lat": 39.7427778,
      "lng": 46.3494444
    },
    {
      "cityName": "Alpaut",
      "lat": 39.7552778,
      "lng": 46.3708333
    },
    {
      "cityName": "ArdÄ±clÄ±",
      "lat": 39.8005556,
      "lng": 46.4763889
    },
    {
      "cityName": "Ardamova",
      "lat": 39.7658333,
      "lng": 46.4819444
    },
    {
      "cityName": "Arduslu",
      "lat": 39.7388889,
      "lng": 46.3486111
    },
    {
      "cityName": "AsagÄ± FÇrÇcan",
      "lat": 39.5286111,
      "lng": 46.6611111
    },
    {
      "cityName": "AyÄ±basar",
      "lat": 39.73,
      "lng": 46.53
    },
    {
      "cityName": "Babadin",
      "lat": 39.7333333,
      "lng": 46.4833333
    },
    {
      "cityName": "BaldÄ±rganlÄ±",
      "lat": 39.5586111,
      "lng": 46.6183333
    },
    {
      "cityName": "Bayram-Ushagi",
      "lat": 39.5166667,
      "lng": 46.5833333
    },
    {
      "cityName": "Belibeyli",
      "lat": 39.8191667,
      "lng": 46.2980556
    },
    {
      "cityName": "BirincÄ± TÄ±gÄ±q",
      "lat": 39.7030556,
      "lng": 46.5038889
    },
    {
      "cityName": "Bozgüney",
      "lat": 39.7861111,
      "lng": 46.5033333
    },
    {
      "cityName": "Bozlu",
      "lat": 39.6955556,
      "lng": 46.3305556
    },
    {
      "cityName": "Budagdarasi",
      "lat": 39.8422222,
      "lng": 46.2644444
    },
    {
      "cityName": "Bülüldüz",
      "lat": 39.7213889,
      "lng": 46.5027778
    },
    {
      "cityName": "Byulevlik",
      "lat": 39.7772222,
      "lng": 46.3972222
    },
    {
      "cityName": "Cagazur",
      "lat": 39.5905556,
      "lng": 46.4613889
    },
    {
      "cityName": "CÄ±raqlÄ±",
      "lat": 39.7305556,
      "lng": 46.3161111
    },
    {
      "cityName": "CÇmbÇrxac",
      "lat": 39.62,
      "lng": 46.6588889
    },
    {
      "cityName": "Chalagan-Gyuney",
      "lat": 39.8272222,
      "lng": 46.4913889
    },
    {
      "cityName": "Chorman",
      "lat": 39.8611111,
      "lng": 46.4483333
    },
    {
      "cityName": "Cimcimli",
      "lat": 39.5119444,
      "lng": 46.5163889
    },
    {
      "cityName": "Dambulak",
      "lat": 39.8569444,
      "lng": 46.3269444
    },
    {
      "cityName": "Darakend",
      "lat": 39.75,
      "lng": 46.4666667
    },
    {
      "cityName": "Dashly",
      "lat": 39.8186111,
      "lng": 46.3280556
    },
    {
      "cityName": "Daygyan",
      "lat": 39.5872222,
      "lng": 46.6483333
    },
    {
      "cityName": "Faradzhan",
      "lat": 39.5377778,
      "lng": 46.6830556
    },
    {
      "cityName": "Farradzh",
      "lat": 39.8388889,
      "lng": 46.515
    },
    {
      "cityName": "Fatalipeya",
      "lat": 39.6022222,
      "lng": 46.5713889
    },
    {
      "cityName": "FingÇ",
      "lat": 39.7611111,
      "lng": 46.5430556
    },
    {
      "cityName": "Gadzhilyar",
      "lat": 39.6483333,
      "lng": 46.3741667
    },
    {
      "cityName": "Gazydere",
      "lat": 39.5272222,
      "lng": 46.5652778
    },
    {
      "cityName": "Ghshlagh",
      "lat": 39.6038889,
      "lng": 46.7083333
    },
    {
      "cityName": "Ghzlja",
      "lat": 39.6408333,
      "lng": 46.5041667
    },
    {
      "cityName": "Gochaz",
      "lat": 39.6752778,
      "lng": 46.4575
    },
    {
      "cityName": "Gyuleberd",
      "lat": 39.48,
      "lng": 46.6086111
    },
    {
      "cityName": "Gyusyulu",
      "lat": 39.6405556,
      "lng": 46.4091667
    },
    {
      "cityName": "HacÄ±xanlÄ±",
      "lat": 39.8572222,
      "lng": 46.2716667
    },
    {
      "cityName": "HÇtÇmlÇr",
      "lat": 39.8286111,
      "lng": 46.3472222
    },
    {
      "cityName": "Ikinci TÄ±gÄ±k",
      "lat": 39.6894444,
      "lng": 46.5202778
    },
    {
      "cityName": "Imanlar",
      "lat": 39.8522222,
      "lng": 46.2938889
    },
    {
      "cityName": "Ircan",
      "lat": 39.6322222,
      "lng": 46.6683333
    },
    {
      "cityName": "Kabagtepe",
      "lat": 39.8,
      "lng": 46.3166667
    },
    {
      "cityName": "Kaha",
      "lat": 39.8369444,
      "lng": 46.3275
    },
    {
      "cityName": "Kalacha",
      "lat": 39.6936111,
      "lng": 46.2963889
    },
    {
      "cityName": "KalafalÄ±q",
      "lat": 39.7941667,
      "lng": 46.5319444
    },
    {
      "cityName": "KamallÄ±",
      "lat": 39.7202778,
      "lng": 46.3080556
    },
    {
      "cityName": "Karabeyli",
      "lat": 39.8769444,
      "lng": 46.385
    },
    {
      "cityName": "Karachanly",
      "lat": 39.7388889,
      "lng": 46.3911111
    },
    {
      "cityName": "Karakyshlak",
      "lat": 39.6663889,
      "lng": 46.3858333
    },
    {
      "cityName": "Karykakha",
      "lat": 39.6519444,
      "lng": 46.51
    },
    {
      "cityName": "Kavyshykh",
      "lat": 39.8775,
      "lng": 46.2380556
    },
    {
      "cityName": "Këgnakend",
      "lat": 39.6322222,
      "lng": 46.7030556
    },
    {
      "cityName": "Kesalar",
      "lat": 39.6269444,
      "lng": 46.3933333
    },
    {
      "cityName": "Khachinyal",
      "lat": 39.8055556,
      "lng": 46.4269444
    },
    {
      "cityName": "Khanalar",
      "lat": 39.5538889,
      "lng": 46.64
    },
    {
      "cityName": "Khanlanty",
      "lat": 39.6011111,
      "lng": 46.5197222
    },
    {
      "cityName": "Khumarta",
      "lat": 39.6108333,
      "lng": 46.6769444
    },
    {
      "cityName": "Khyrmanlar",
      "lat": 39.71,
      "lng": 46.5588889
    },
    {
      "cityName": "Klychly",
      "lat": 39.6944444,
      "lng": 46.3736111
    },
    {
      "cityName": "Korcabulaq",
      "lat": 39.8630556,
      "lng": 46.3691667
    },
    {
      "cityName": "Korchu",
      "lat": 39.8791667,
      "lng": 46.3466667
    },
    {
      "cityName": "Koshasu",
      "lat": 39.7711111,
      "lng": 46.3588889
    },
    {
      "cityName": "Koynashen",
      "lat": 39.6558333,
      "lng": 46.5372222
    },
    {
      "cityName": "Kozlu",
      "lat": 39.75,
      "lng": 46.5136111
    },
    {
      "cityName": "KurdhacÄ±",
      "lat": 39.8263889,
      "lng": 46.4155556
    },
    {
      "cityName": "Kushchilyar",
      "lat": 39.5113889,
      "lng": 46.6319444
    },
    {
      "cityName": "Kushchu",
      "lat": 39.6719444,
      "lng": 46.3513889
    },
    {
      "cityName": "LÇlÇbagÄ±rlÄ±",
      "lat": 39.8955556,
      "lng": 46.3577778
    },
    {
      "cityName": "LeninkÇnd",
      "lat": 39.7525,
      "lng": 46.2722222
    },
    {
      "cityName": "MÄ±gÄ±dÇrÇ",
      "lat": 39.5758333,
      "lng": 46.6136111
    },
    {
      "cityName": "Mais",
      "lat": 39.6938889,
      "lng": 46.4055556
    },
    {
      "cityName": "MalÄ±bÇy",
      "lat": 39.6202778,
      "lng": 46.4355556
    },
    {
      "cityName": "Malkhalaf",
      "lat": 39.5525,
      "lng": 46.5925
    },
    {
      "cityName": "Mazmazak",
      "lat": 39.4844444,
      "lng": 46.545
    },
    {
      "cityName": "Mazutlu",
      "lat": 39.5447222,
      "lng": 46.6144444
    },
    {
      "cityName": "MÇlikpÇyÇ",
      "lat": 39.5652778,
      "lng": 46.6066667
    },
    {
      "cityName": "MinkÇnd",
      "lat": 39.7094444,
      "lng": 46.2538889
    },
    {
      "cityName": "Mirik",
      "lat": 39.6886111,
      "lng": 46.3325
    },
    {
      "cityName": "Mishni",
      "lat": 39.7125,
      "lng": 46.3980556
    },
    {
      "cityName": "Mollalar",
      "lat": 39.6672222,
      "lng": 46.49
    },
    {
      "cityName": "Mundzhuglu",
      "lat": 39.8202778,
      "lng": 46.3836111
    },
    {
      "cityName": "Muratly",
      "lat": 39.6225,
      "lng": 46.4722222
    },
    {
      "cityName": "Nagadaly",
      "lat": 39.9075,
      "lng": 46.4194444
    },
    {
      "cityName": "Narislar",
      "lat": 39.8069444,
      "lng": 46.3036111
    },
    {
      "cityName": "Nizhneye Akh-Kerpi",
      "lat": 39.7772222,
      "lng": 46.2894444
    },
    {
      "cityName": "Noradin",
      "lat": 39.8175,
      "lng": 46.5108333
    },
    {
      "cityName": "Novruzglylar",
      "lat": 39.6019444,
      "lng": 46.4811111
    },
    {
      "cityName": "OguldÇrÇ",
      "lat": 39.8916667,
      "lng": 46.3155556
    },
    {
      "cityName": "PicÇnis",
      "lat": 39.8030556,
      "lng": 46.4466667
    },
    {
      "cityName": "Pircahan",
      "lat": 39.7261111,
      "lng": 46.4355556
    },
    {
      "cityName": "SadÄ±nlar",
      "lat": 39.6513889,
      "lng": 46.3472222
    },
    {
      "cityName": "Saf'yan",
      "lat": 39.5263889,
      "lng": 46.6302778
    },
    {
      "cityName": "SamkÇnd",
      "lat": 39.8780556,
      "lng": 46.4166667
    },
    {
      "cityName": "SÇlvÇ",
      "lat": 39.8355556,
      "lng": 46.2988889
    },
    {
      "cityName": "Seidlyar",
      "lat": 39.7247222,
      "lng": 46.3777778
    },
    {
      "cityName": "Seydlar-Kend",
      "lat": 39.7058333,
      "lng": 46.4652778
    },
    {
      "cityName": "SeylanlÄ±",
      "lat": 39.7711111,
      "lng": 46.2891667
    },
    {
      "cityName": "Shivit",
      "lat": 39.5833333,
      "lng": 46.5666667
    },
    {
      "cityName": "Sonasar",
      "lat": 39.6986111,
      "lng": 46.4158333
    },
    {
      "cityName": "Soyukbulag",
      "lat": 39.6941667,
      "lng": 46.3930556
    },
    {
      "cityName": "SuarasÄ±",
      "lat": 39.5636111,
      "lng": 46.67
    },
    {
      "cityName": "Sultan-Kend",
      "lat": 39.6383333,
      "lng": 46.4508333
    },
    {
      "cityName": "Suse",
      "lat": 39.6244444,
      "lng": 46.5138889
    },
    {
      "cityName": "Suvad",
      "lat": 39.8177778,
      "lng": 46.4744444
    },
    {
      "cityName": "Tarkanly",
      "lat": 39.5713889,
      "lng": 46.6261111
    },
    {
      "cityName": "Tazakend",
      "lat": 39.7583333,
      "lng": 46.4958333
    },
    {
      "cityName": "Tervakharva",
      "lat": 40.6333333,
      "lng": 49.1833333
    },
    {
      "cityName": "Tsitsernavank",
      "lat": 39.6466667,
      "lng": 46.4161111
    },
    {
      "cityName": "Turab",
      "lat": 39.5833333,
      "lng": 46.6
    },
    {
      "cityName": "Uludyuz",
      "lat": 39.6463889,
      "lng": 46.4658333
    },
    {
      "cityName": "Unannovu",
      "lat": 39.5983333,
      "lng": 46.6061111
    },
    {
      "cityName": "Vagazin",
      "lat": 39.7769444,
      "lng": 46.4805556
    },
    {
      "cityName": "ZagaaltÄ±",
      "lat": 39.8847222,
      "lng": 46.3352778
    },
    {
      "cityName": "Zerti",
      "lat": 39.6755556,
      "lng": 46.54
    },
    {
      "cityName": "Zeyrik",
      "lat": 39.6541667,
      "lng": 46.4436111
    },
    {
      "cityName": "ZeyvÇ",
      "lat": 39.6622222,
      "lng": 46.4191667
    },
    {
      "cityName": "Zorkeshish",
      "lat": 39.8586111,
      "lng": 46.2675
    }
  ]
}