{
  "name": "Xocali",
  "cities": [
    {
      "cityName": "ÆsgÇran",
      "lat": 39.9366667,
      "lng": 46.8327778
    },
    {
      "cityName": "Agbulag",
      "lat": 39.8758333,
      "lng": 46.8969444
    },
    {
      "cityName": "AggÇdik",
      "lat": 39.9030556,
      "lng": 46.8469444
    },
    {
      "cityName": "AlmalÄ±",
      "lat": 39.9680556,
      "lng": 46.6875
    },
    {
      "cityName": "Aranzami",
      "lat": 39.8944444,
      "lng": 46.8922222
    },
    {
      "cityName": "Armenabad",
      "lat": 39.8761111,
      "lng": 46.7816667
    },
    {
      "cityName": "Arts'akhashen",
      "lat": 39.9269444,
      "lng": 46.7047222
    },
    {
      "cityName": "AsagÄ± Yemiscan",
      "lat": 39.7372222,
      "lng": 46.8402778
    },
    {
      "cityName": "Ashaga-Klishbag",
      "lat": 39.9419444,
      "lng": 46.8291667
    },
    {
      "cityName": "Avetaranots'",
      "lat": 39.7030556,
      "lng": 46.8305556
    },
    {
      "cityName": "Aygestan",
      "lat": 39.8658333,
      "lng": 46.7233333
    },
    {
      "cityName": "Ay-Khodzhaly",
      "lat": 39.9111111,
      "lng": 46.7891667
    },
    {
      "cityName": "Badara",
      "lat": 39.9216667,
      "lng": 46.6619444
    },
    {
      "cityName": "CÇmilli",
      "lat": 39.8394444,
      "lng": 46.7216667
    },
    {
      "cityName": "Dagdagan",
      "lat": 39.7977778,
      "lng": 46.8216667
    },
    {
      "cityName": "Dagrav",
      "lat": 39.8936111,
      "lng": 46.6994444
    },
    {
      "cityName": "Dagraz",
      "lat": 39.8708333,
      "lng": 46.8716667
    },
    {
      "cityName": "Dagyurd",
      "lat": 39.7222222,
      "lng": 46.9055556
    },
    {
      "cityName": "Damirchilar",
      "lat": 39.7130556,
      "lng": 46.8416667
    },
    {
      "cityName": "Dashkend",
      "lat": 39.7972222,
      "lng": 46.7830556
    },
    {
      "cityName": "Dgrver",
      "lat": 39.9688889,
      "lng": 46.8169444
    },
    {
      "cityName": "Donavaz",
      "lat": 39.7683333,
      "lng": 46.8505556
    },
    {
      "cityName": "Farux",
      "lat": 40.0163889,
      "lng": 46.8011111
    },
    {
      "cityName": "Garov",
      "lat": 39.8227778,
      "lng": 46.8480556
    },
    {
      "cityName": "Ghaibalou",
      "lat": 39.7763889,
      "lng": 46.7277778
    },
    {
      "cityName": "Gharaboulagh",
      "lat": 39.705,
      "lng": 46.865
    },
    {
      "cityName": "Ghshlagh",
      "lat": 39.9738889,
      "lng": 46.7169444
    },
    {
      "cityName": "Hilis",
      "lat": 39.9547222,
      "lng": 46.6975
    },
    {
      "cityName": "KÇrkicahan",
      "lat": 39.8036111,
      "lng": 46.7502778
    },
    {
      "cityName": "Kesalar",
      "lat": 39.8113889,
      "lng": 46.6738889
    },
    {
      "cityName": "Khachen",
      "lat": 39.9847222,
      "lng": 46.695
    },
    {
      "cityName": "Khachmach",
      "lat": 39.7525,
      "lng": 46.8741667
    },
    {
      "cityName": "Khanadzakh",
      "lat": 39.8469444,
      "lng": 46.7388889
    },
    {
      "cityName": "Khandzk'",
      "lat": 39.9338889,
      "lng": 46.6786111
    },
    {
      "cityName": "Khramort",
      "lat": 40.0052778,
      "lng": 46.8172222
    },
    {
      "cityName": "Klishbag",
      "lat": 39.9802778,
      "lng": 46.7858333
    },
    {
      "cityName": "Lesnoi",
      "lat": 39.8880556,
      "lng": 46.5797222
    },
    {
      "cityName": "MehdibÇyli",
      "lat": 39.8930556,
      "lng": 46.7311111
    },
    {
      "cityName": "Mkhitarikend",
      "lat": 39.7613889,
      "lng": 46.7744444
    },
    {
      "cityName": "Nakhichevanik",
      "lat": 39.9077778,
      "lng": 46.8705556
    },
    {
      "cityName": "Noragiough",
      "lat": 39.9275,
      "lng": 46.7780556
    },
    {
      "cityName": "Perimkend",
      "lat": 39.7397222,
      "lng": 46.8916667
    },
    {
      "cityName": "Pircamal",
      "lat": 39.9002778,
      "lng": 46.8844444
    },
    {
      "cityName": "Rev",
      "lat": 39.9858333,
      "lng": 46.7138889
    },
    {
      "cityName": "SÄ±gnax",
      "lat": 39.7211111,
      "lng": 46.7997222
    },
    {
      "cityName": "Sardarasen",
      "lat": 39.9894444,
      "lng": 46.7619444
    },
    {
      "cityName": "Shosh",
      "lat": 39.77,
      "lng": 46.7847222
    },
    {
      "cityName": "Ulubab",
      "lat": 40.0194444,
      "lng": 46.6958333
    },
    {
      "cityName": "Verin SÄ±znek",
      "lat": 39.7388889,
      "lng": 46.8377778
    }
  ]
}