{
  "name": "Strandasysla",
  "cities": [
    {
      "cityName": "Árnes",
      "lat": 66.016667,
      "lng": -21.516667
    },
    {
      "cityName": "Bær",
      "lat": 65.7,
      "lng": -21.433333
    },
    {
      "cityName": "Borðeyri",
      "lat": 65.2,
      "lng": -21.1
    },
    {
      "cityName": "Drangsnes",
      "lat": 65.683333,
      "lng": -21.45
    },
    {
      "cityName": "Gjögur",
      "lat": 65.983333,
      "lng": -21.35
    },
    {
      "cityName": "Guðaugsvik",
      "lat": 65.45,
      "lng": -21.266667
    },
    {
      "cityName": "Hafnarhólmur",
      "lat": 65.7,
      "lng": -21.516667
    },
    {
      "cityName": "Hólmavík",
      "lat": 65.716667,
      "lng": -21.683333
    },
    {
      "cityName": "Húsavík",
      "lat": 65.65,
      "lng": -21.65
    },
    {
      "cityName": "Kaldrananes",
      "lat": 65.75,
      "lng": -21.416667
    },
    {
      "cityName": "Kollafarðarnes",
      "lat": 65.6,
      "lng": -21.4
    },
    {
      "cityName": "Kuvíker",
      "lat": 65.95,
      "lng": -21.483333
    },
    {
      "cityName": "Munaðarnes",
      "lat": 66.083333,
      "lng": -21.616667
    },
    {
      "cityName": "Norðurfjörður",
      "lat": 66.05,
      "lng": -21.566667
    },
    {
      "cityName": "Ófeigsfjörður",
      "lat": 66.05,
      "lng": -21.716667
    },
    {
      "cityName": "Óspakseyri",
      "lat": 65.45,
      "lng": -21.433333
    },
    {
      "cityName": "Prestbakki",
      "lat": 65.316667,
      "lng": -21.2
    },
    {
      "cityName": "Reykjarnes",
      "lat": 66.016667,
      "lng": -21.366667
    },
    {
      "cityName": "Sandnes",
      "lat": 65.733333,
      "lng": -21.633333
    },
    {
      "cityName": "Staður",
      "lat": 65.766667,
      "lng": -21.833333
    },
    {
      "cityName": "Stóra Fjarðarhorn",
      "lat": 65.55,
      "lng": -21.466667
    }
  ]
}