{
  "name": "Central",
  "cities": [
    {
      "cityName": "Balanbeen",
      "lat": -13.4166667,
      "lng": 28.7666667
    },
    {
      "cityName": "Bancroft",
      "lat": -12.3666667,
      "lng": 27.8333333
    },
    {
      "cityName": "Bangabanga",
      "lat": -12.8333333,
      "lng": 28.6666667
    },
    {
      "cityName": "Belleview",
      "lat": -12.9,
      "lng": 28.6333333
    },
    {
      "cityName": "Bingwe",
      "lat": -13.0666667,
      "lng": 27.9166667
    },
    {
      "cityName": "Buchi and Kamitondo",
      "lat": -12.7833333,
      "lng": 28.2166667
    },
    {
      "cityName": "Busonge",
      "lat": -13.1,
      "lng": 27.7
    },
    {
      "cityName": "Butondo",
      "lat": -12.5166667,
      "lng": 28.2166667
    },
    {
      "cityName": "Bwana Mkubwa",
      "lat": -13.0333333,
      "lng": 28.7
    },
    {
      "cityName": "Chalubingu",
      "lat": -13.1666667,
      "lng": 28.6
    },
    {
      "cityName": "Chamakondi",
      "lat": -13.2666667,
      "lng": 28.7
    },
    {
      "cityName": "Chambezi",
      "lat": -12.65,
      "lng": 28.0833333
    },
    {
      "cityName": "Chamuela",
      "lat": -12.5833333,
      "lng": 27.6333333
    },
    {
      "cityName": "Chansuleni",
      "lat": -13.1166667,
      "lng": 27.9166667
    },
    {
      "cityName": "Chatiala",
      "lat": -12.9333333,
      "lng": 28.7
    },
    {
      "cityName": "Chekorwa",
      "lat": -13.3333333,
      "lng": 28.4666667
    },
    {
      "cityName": "Chemankata",
      "lat": -12.8166667,
      "lng": 27.7333333
    },
    {
      "cityName": "Chembe",
      "lat": -13.0333333,
      "lng": 27.7333333
    },
    {
      "cityName": "Cheya",
      "lat": -13.0333333,
      "lng": 27.75
    },
    {
      "cityName": "Cheyelele",
      "lat": -12.85,
      "lng": 27.35
    },
    {
      "cityName": "Chiaba",
      "lat": -13.2,
      "lng": 28.6666667
    },
    {
      "cityName": "Chibuluma",
      "lat": -12.85,
      "lng": 28.1333333
    },
    {
      "cityName": "Chief Nkana",
      "lat": -12.9333333,
      "lng": 28.0333333
    },
    {
      "cityName": "Chifubu",
      "lat": -12.9333333,
      "lng": 28.6166667
    },
    {
      "cityName": "Chikiamoni",
      "lat": -12.9166667,
      "lng": 28.7
    },
    {
      "cityName": "Chikombi",
      "lat": -12.8833333,
      "lng": 28.6666667
    },
    {
      "cityName": "Chikosheni",
      "lat": -12.6666667,
      "lng": 27.5333333
    },
    {
      "cityName": "Chikoti",
      "lat": -13.2333333,
      "lng": 28.6333333
    },
    {
      "cityName": "Chikululu",
      "lat": -13.1333333,
      "lng": 28.7666667
    },
    {
      "cityName": "Chilantali",
      "lat": -13.1833333,
      "lng": 28.6
    },
    {
      "cityName": "Chilimina",
      "lat": -12.2666667,
      "lng": 27.6
    },
    {
      "cityName": "Chilobia",
      "lat": -13.3,
      "lng": 28.8333333
    },
    {
      "cityName": "Chilosha",
      "lat": -13.2166667,
      "lng": 28.6
    },
    {
      "cityName": "Chilumbulwa",
      "lat": -12.3333333,
      "lng": 27.1333333
    },
    {
      "cityName": "Chimbalanga",
      "lat": -12.9833333,
      "lng": 28.7666667
    },
    {
      "cityName": "Chimoto",
      "lat": -12.4333333,
      "lng": 27.8333333
    },
    {
      "cityName": "Chinama",
      "lat": -13.0166667,
      "lng": 28.7833333
    },
    {
      "cityName": "Chingola",
      "lat": -12.5333333,
      "lng": 27.85
    },
    {
      "cityName": "Chingula",
      "lat": -13.5166667,
      "lng": 28.0166667
    },
    {
      "cityName": "Chinka",
      "lat": -12.8166667,
      "lng": 27.05
    },
    {
      "cityName": "Chintimba",
      "lat": -12.35,
      "lng": 27.9333333
    },
    {
      "cityName": "Chipembere",
      "lat": -12.9833333,
      "lng": 28.7333333
    },
    {
      "cityName": "Chipeteni",
      "lat": -13.2166667,
      "lng": 28.5333333
    },
    {
      "cityName": "Chirumburwa",
      "lat": -12.35,
      "lng": 27.15
    },
    {
      "cityName": "Chisampala",
      "lat": -12.7833333,
      "lng": 27.3
    },
    {
      "cityName": "Chisapwa",
      "lat": -13.2166667,
      "lng": 28.3833333
    },
    {
      "cityName": "Chisawakona",
      "lat": -12.9666667,
      "lng": 28.5666667
    },
    {
      "cityName": "Chitanda",
      "lat": -12.3833333,
      "lng": 27.95
    },
    {
      "cityName": "Chitongobesa",
      "lat": -13.5,
      "lng": 28.45
    },
    {
      "cityName": "Chitundu",
      "lat": -12.95,
      "lng": 28.7166667
    },
    {
      "cityName": "Chiwala",
      "lat": -13,
      "lng": 28.7333333
    },
    {
      "cityName": "Chiwempala",
      "lat": -12.55,
      "lng": 27.8333333
    },
    {
      "cityName": "Chondwe",
      "lat": -13.2166667,
      "lng": 28.75
    },
    {
      "cityName": "Chuba",
      "lat": -13.4666667,
      "lng": 28.8166667
    },
    {
      "cityName": "Fisenge",
      "lat": -13.0666667,
      "lng": 28.4666667
    },
    {
      "cityName": "Fiwale",
      "lat": -13.2,
      "lng": 28.7166667
    },
    {
      "cityName": "Fubera",
      "lat": -13.8333333,
      "lng": 28.6666667
    },
    {
      "cityName": "Garneton",
      "lat": -12.7333333,
      "lng": 28.1833333
    },
    {
      "cityName": "Ibenga",
      "lat": -13.3666667,
      "lng": 28.4333333
    },
    {
      "cityName": "Jeke Mabenga",
      "lat": -12.9166667,
      "lng": 27.6333333
    },
    {
      "cityName": "Jimboma",
      "lat": -12.85,
      "lng": 27.0666667
    },
    {
      "cityName": "Kabange",
      "lat": -13.0166667,
      "lng": 27.3833333
    },
    {
      "cityName": "Kabangula",
      "lat": -12.8833333,
      "lng": 28.6833333
    },
    {
      "cityName": "Kabunda-Bwina",
      "lat": -13.25,
      "lng": 28.35
    },
    {
      "cityName": "Kachega",
      "lat": -13.2833333,
      "lng": 28.3666667
    },
    {
      "cityName": "Kafukanya",
      "lat": -13.2333333,
      "lng": 28.45
    },
    {
      "cityName": "Kafulafuta",
      "lat": -13.2666667,
      "lng": 28.35
    },
    {
      "cityName": "Kahende",
      "lat": -13.0166667,
      "lng": 27.9166667
    },
    {
      "cityName": "Kakosa West",
      "lat": -12.4833333,
      "lng": 27.8166667
    },
    {
      "cityName": "Kalabaila",
      "lat": -12.9,
      "lng": 27.35
    },
    {
      "cityName": "Kalabwe",
      "lat": -12.8333333,
      "lng": 27.3666667
    },
    {
      "cityName": "Kalaswa",
      "lat": -13.1333333,
      "lng": 27.95
    },
    {
      "cityName": "Kaleshi",
      "lat": -13.0666667,
      "lng": 27.45
    },
    {
      "cityName": "Kalibwe",
      "lat": -12.8333333,
      "lng": 27.3333333
    },
    {
      "cityName": "Kalimba",
      "lat": -13.2,
      "lng": 28.6333333
    },
    {
      "cityName": "Kalimpata",
      "lat": -13.45,
      "lng": 28.6166667
    },
    {
      "cityName": "Kaluba",
      "lat": -12.4,
      "lng": 27.6666667
    },
    {
      "cityName": "Kalulshi",
      "lat": -12.8333333,
      "lng": 28.0833333
    },
    {
      "cityName": "Kalwe",
      "lat": -12.8666667,
      "lng": 28.6833333
    },
    {
      "cityName": "Kalyanabulwani",
      "lat": -13.2333333,
      "lng": 28.4166667
    },
    {
      "cityName": "Kambowa Farm",
      "lat": -13.1,
      "lng": 28.8
    },
    {
      "cityName": "Kamfwa",
      "lat": -13.25,
      "lng": 28.3833333
    },
    {
      "cityName": "Kamwendo",
      "lat": -12.9833333,
      "lng": 28.6
    },
    {
      "cityName": "Kangonde",
      "lat": -13.8,
      "lng": 27.4
    },
    {
      "cityName": "Kansuswa",
      "lat": -12.6,
      "lng": 28.2166667
    },
    {
      "cityName": "Kanyanje",
      "lat": -12.9166667,
      "lng": 28.65
    },
    {
      "cityName": "Kapapula",
      "lat": -13.2166667,
      "lng": 28.5666667
    },
    {
      "cityName": "Kasabua",
      "lat": -13.1666667,
      "lng": 28.5833333
    },
    {
      "cityName": "Kashitu",
      "lat": -13.7,
      "lng": 28.6666667
    },
    {
      "cityName": "Kasompe",
      "lat": -12.5833333,
      "lng": 27.9
    },
    {
      "cityName": "Kasunu",
      "lat": -13.3166667,
      "lng": 28.7333333
    },
    {
      "cityName": "Katanga",
      "lat": -12.8666667,
      "lng": 28.65
    },
    {
      "cityName": "Katanino",
      "lat": -13.6,
      "lng": 28.7166667
    },
    {
      "cityName": "Katata",
      "lat": -12.8666667,
      "lng": 27.05
    },
    {
      "cityName": "Katelele",
      "lat": -13.2166667,
      "lng": 28.45
    },
    {
      "cityName": "Katola",
      "lat": -13.1333333,
      "lng": 27.7666667
    },
    {
      "cityName": "Kayola",
      "lat": -13.2333333,
      "lng": 28.5
    },
    {
      "cityName": "Kitwe",
      "lat": -12.8166667,
      "lng": 28.2
    },
    {
      "cityName": "Kombi",
      "lat": -13.4833333,
      "lng": 28.65
    },
    {
      "cityName": "Konkola",
      "lat": -12.3,
      "lng": 27.7666667
    },
    {
      "cityName": "Kumbwe",
      "lat": -12.8166667,
      "lng": 27.45
    },
    {
      "cityName": "Lesa",
      "lat": -13.5,
      "lng": 28.1666667
    },
    {
      "cityName": "Limbusha",
      "lat": -13.15,
      "lng": 28.5833333
    },
    {
      "cityName": "Longone",
      "lat": -12.3333333,
      "lng": 27.6166667
    },
    {
      "cityName": "Luanshya",
      "lat": -13.1333333,
      "lng": 28.4
    },
    {
      "cityName": "Lubesha",
      "lat": -12.9666667,
      "lng": 27.65
    },
    {
      "cityName": "Lubuila",
      "lat": -13.1833333,
      "lng": 27.4666667
    },
    {
      "cityName": "Lucheshi",
      "lat": -13.5,
      "lng": 28.05
    },
    {
      "cityName": "Lukungwe",
      "lat": -12.8,
      "lng": 27.7666667
    },
    {
      "cityName": "Lumata",
      "lat": -12.3,
      "lng": 27.9
    },
    {
      "cityName": "Lunda",
      "lat": -13.2166667,
      "lng": 28.55
    },
    {
      "cityName": "Lusalya",
      "lat": -12.9333333,
      "lng": 28.7333333
    },
    {
      "cityName": "Lutele",
      "lat": -12.8666667,
      "lng": 28.7
    },
    {
      "cityName": "Lutende",
      "lat": -13.55,
      "lng": 28.2166667
    },
    {
      "cityName": "Lutwiika",
      "lat": -12.9333333,
      "lng": 28.7166667
    },
    {
      "cityName": "Lwengeshi",
      "lat": -13.2,
      "lng": 28.6166667
    },
    {
      "cityName": "Lyolomena",
      "lat": -13.2,
      "lng": 28.5833333
    },
    {
      "cityName": "Mabenga",
      "lat": -12.9166667,
      "lng": 27.05
    },
    {
      "cityName": "Machiya",
      "lat": -13.7,
      "lng": 27.6
    },
    {
      "cityName": "Maisa",
      "lat": -12.9666667,
      "lng": 28.7333333
    },
    {
      "cityName": "Malabo",
      "lat": -13,
      "lng": 28.6666667
    },
    {
      "cityName": "Malanye",
      "lat": -12.35,
      "lng": 27.1333333
    },
    {
      "cityName": "Malembeka",
      "lat": -13.4666667,
      "lng": 28.5333333
    },
    {
      "cityName": "Maliafita",
      "lat": -12.95,
      "lng": 27.3166667
    },
    {
      "cityName": "Malilo",
      "lat": -12.9666667,
      "lng": 27.4166667
    },
    {
      "cityName": "Malisawa",
      "lat": -12.85,
      "lng": 27.4166667
    },
    {
      "cityName": "Mapeleka",
      "lat": -13.1833333,
      "lng": 28.5833333
    },
    {
      "cityName": "Mapota",
      "lat": -13.2333333,
      "lng": 28.6666667
    },
    {
      "cityName": "Masaiti",
      "lat": -13.2666667,
      "lng": 28.4166667
    },
    {
      "cityName": "Mbunda",
      "lat": -12.9,
      "lng": 28.7
    },
    {
      "cityName": "Merera",
      "lat": -13.05,
      "lng": 27.3166667
    },
    {
      "cityName": "Metamba",
      "lat": -13.7833333,
      "lng": 27.5
    },
    {
      "cityName": "Mfwaya",
      "lat": -12.9166667,
      "lng": 27.3333333
    },
    {
      "cityName": "Milomwe",
      "lat": -13.5333333,
      "lng": 28.6166667
    },
    {
      "cityName": "Mindolo",
      "lat": -12.7666667,
      "lng": 28.1833333
    },
    {
      "cityName": "Misundu",
      "lat": -12.8333333,
      "lng": 28.6333333
    },
    {
      "cityName": "Mitwe",
      "lat": -13.0833333,
      "lng": 27.7
    },
    {
      "cityName": "Mofwe",
      "lat": -13.25,
      "lng": 28.3333333
    },
    {
      "cityName": "Mokola",
      "lat": -12.95,
      "lng": 27.3333333
    },
    {
      "cityName": "Momba Farm",
      "lat": -12.3166667,
      "lng": 27.8
    },
    {
      "cityName": "Mpatamatu",
      "lat": -13.1,
      "lng": 28.3333333
    },
    {
      "cityName": "Mpelabusi Farm",
      "lat": -13.3666667,
      "lng": 28.8833333
    },
    {
      "cityName": "Mpemba",
      "lat": -13.1333333,
      "lng": 27.8333333
    },
    {
      "cityName": "Mpongwe",
      "lat": -13.5333333,
      "lng": 28.15
    },
    {
      "cityName": "Mpupulwa",
      "lat": -13.4833333,
      "lng": 28.1833333
    },
    {
      "cityName": "Mpupwa",
      "lat": -13.2166667,
      "lng": 28.5166667
    },
    {
      "cityName": "Mtolilo",
      "lat": -13,
      "lng": 28.7166667
    },
    {
      "cityName": "Mubanga",
      "lat": -13.45,
      "lng": 28.7
    },
    {
      "cityName": "Muchesa",
      "lat": -13.2333333,
      "lng": 28.6
    },
    {
      "cityName": "Muflandi",
      "lat": -13.2,
      "lng": 28.55
    },
    {
      "cityName": "Mufuli",
      "lat": -13.0833333,
      "lng": 28.2
    },
    {
      "cityName": "Mufulira",
      "lat": -12.55,
      "lng": 28.2333333
    },
    {
      "cityName": "Mufusa",
      "lat": -13.5833333,
      "lng": 28.6833333
    },
    {
      "cityName": "Mufyene",
      "lat": -13.1333333,
      "lng": 28.1333333
    },
    {
      "cityName": "Mugoti",
      "lat": -13.3166667,
      "lng": 28.65
    },
    {
      "cityName": "Muikuma",
      "lat": -12.9,
      "lng": 27.6166667
    },
    {
      "cityName": "Muketi",
      "lat": -12.9166667,
      "lng": 27.3666667
    },
    {
      "cityName": "Mukopora",
      "lat": -13.5333333,
      "lng": 28.0666667
    },
    {
      "cityName": "Mukukutu",
      "lat": -13.5333333,
      "lng": 28.5333333
    },
    {
      "cityName": "Mukushi",
      "lat": -13.0166667,
      "lng": 28.7666667
    },
    {
      "cityName": "Mulekelwa",
      "lat": -13,
      "lng": 28.8166667
    },
    {
      "cityName": "Mulimba",
      "lat": -13.2166667,
      "lng": 28.5
    },
    {
      "cityName": "Munkumpu",
      "lat": -13.5833333,
      "lng": 27.8166667
    },
    {
      "cityName": "Muntanda",
      "lat": -12.9666667,
      "lng": 27.3166667
    },
    {
      "cityName": "Murundi",
      "lat": -12.4833333,
      "lng": 28.3166667
    },
    {
      "cityName": "Murundu Farm",
      "lat": -12.4833333,
      "lng": 28.3
    },
    {
      "cityName": "Musakabantu",
      "lat": -12.9666667,
      "lng": 27.6833333
    },
    {
      "cityName": "Muscala",
      "lat": -13.1833333,
      "lng": 28.7166667
    },
    {
      "cityName": "Mushamu",
      "lat": -13,
      "lng": 28.75
    },
    {
      "cityName": "Mushimba",
      "lat": -12.95,
      "lng": 28.0166667
    },
    {
      "cityName": "Mutasa",
      "lat": -12.85,
      "lng": 27.3333333
    },
    {
      "cityName": "Mutwale",
      "lat": -13.6333333,
      "lng": 28.1833333
    },
    {
      "cityName": "Mwanakonse",
      "lat": -13.1833333,
      "lng": 28.65
    },
    {
      "cityName": "Mwandelu",
      "lat": -13.0166667,
      "lng": 27.8
    },
    {
      "cityName": "Mwelushi",
      "lat": -13.1,
      "lng": 27.9333333
    },
    {
      "cityName": "Mwema Nyala",
      "lat": -13.3333333,
      "lng": 28.5333333
    },
    {
      "cityName": "Mwilye",
      "lat": -13.2166667,
      "lng": 28.65
    },
    {
      "cityName": "Nangula",
      "lat": -12.9,
      "lng": 27.05
    },
    {
      "cityName": "Nchanga Mine",
      "lat": -12.5166667,
      "lng": 27.8666667
    },
    {
      "cityName": "Ndola",
      "lat": -12.9666667,
      "lng": 28.6333333
    },
    {
      "cityName": "Ndubeni",
      "lat": -13.4833333,
      "lng": 27.9833333
    },
    {
      "cityName": "Ngosa Farm",
      "lat": -12.3,
      "lng": 27.4666667
    },
    {
      "cityName": "Nkambo",
      "lat": -13.8833333,
      "lng": 28.5166667
    },
    {
      "cityName": "Nkana",
      "lat": -12.8333333,
      "lng": 28.2
    },
    {
      "cityName": "Nkapato",
      "lat": -13,
      "lng": 28.6
    },
    {
      "cityName": "Nkonde",
      "lat": -13.2166667,
      "lng": 28.7333333
    },
    {
      "cityName": "Nkondukoyu",
      "lat": -13.3833333,
      "lng": 28.6833333
    },
    {
      "cityName": "Nkumbula",
      "lat": -12.95,
      "lng": 28.7666667
    },
    {
      "cityName": "Nkumesha",
      "lat": -13.3,
      "lng": 28.3833333
    },
    {
      "cityName": "Nsepe",
      "lat": -13.05,
      "lng": 27.7666667
    },
    {
      "cityName": "Ntapwa",
      "lat": -13.4666667,
      "lng": 28.2
    },
    {
      "cityName": "Nuala",
      "lat": -13.4166667,
      "lng": 28.25
    },
    {
      "cityName": "Nyenyeshi",
      "lat": -13.5166667,
      "lng": 28.6666667
    },
    {
      "cityName": "Papaloka",
      "lat": -12.6,
      "lng": 27.6166667
    },
    {
      "cityName": "Patama",
      "lat": -13.2166667,
      "lng": 27.3
    },
    {
      "cityName": "Pukota",
      "lat": -13.2833333,
      "lng": 28.6833333
    },
    {
      "cityName": "Pungula",
      "lat": -13.1666667,
      "lng": 27.5
    },
    {
      "cityName": "Saint Anthony's",
      "lat": -13.4666667,
      "lng": 27.9333333
    },
    {
      "cityName": "Saint Joseph's",
      "lat": -12.9,
      "lng": 28.0166667
    },
    {
      "cityName": "Saint Mary's",
      "lat": -12.8833333,
      "lng": 27.3666667
    },
    {
      "cityName": "Saleni",
      "lat": -12.35,
      "lng": 27.6666667
    },
    {
      "cityName": "Sempala",
      "lat": -13.05,
      "lng": 28.15
    },
    {
      "cityName": "Sensenta",
      "lat": -12.7,
      "lng": 27.5666667
    },
    {
      "cityName": "Shamfuti",
      "lat": -12.8333333,
      "lng": 27.45
    },
    {
      "cityName": "Shamuteya",
      "lat": -13.2166667,
      "lng": 28.4333333
    },
    {
      "cityName": "Shibuchinga",
      "lat": -12.35,
      "lng": 27.35
    },
    {
      "cityName": "Shimukunami",
      "lat": -12.8666667,
      "lng": 27.6666667
    },
    {
      "cityName": "Shimukunvama",
      "lat": -12.95,
      "lng": 27.6666667
    },
    {
      "cityName": "Shipanda",
      "lat": -13.2166667,
      "lng": 28.6666667
    },
    {
      "cityName": "Side",
      "lat": -13.3166667,
      "lng": 28.45
    },
    {
      "cityName": "Sindano",
      "lat": -9.0666667,
      "lng": 31.0333333
    },
    {
      "cityName": "Suse",
      "lat": -12.9833333,
      "lng": 28.8
    },
    {
      "cityName": "Venture",
      "lat": -13.0333333,
      "lng": 28.4166667
    },
    {
      "cityName": "Wacha",
      "lat": -13.3333333,
      "lng": 28.8666667
    },
    {
      "cityName": "Walamba",
      "lat": -13.5,
      "lng": 28.75
    },
    {
      "cityName": "Wanashimba",
      "lat": -13.5666667,
      "lng": 28.6166667
    },
    {
      "cityName": "Wusikili",
      "lat": -12.85,
      "lng": 28.2166667
    },
    {
      "cityName": "Zembeshi",
      "lat": -13.4833333,
      "lng": 28.8833333
    }
  ]
}