{
  "name": "Jubbada Dhexe",
  "cities": [
    {
      "cityName": "Abaati",
      "lat": 2.0833333,
      "lng": 42.5166667
    },
    {
      "cityName": "Abaq Dheere",
      "lat": 1.6169444,
      "lng": 42.3833333
    },
    {
      "cityName": "Acaca",
      "lat": 1.5433333,
      "lng": 42.4341667
    },
    {
      "cityName": "Afgooy",
      "lat": 0.9491667,
      "lng": 42.6216667
    },
    {
      "cityName": "Afgooye",
      "lat": 2.2166667,
      "lng": 42.2833333
    },
    {
      "cityName": "Aminow",
      "lat": 0.3730556,
      "lng": 42.8344444
    },
    {
      "cityName": "Angole",
      "lat": 1.0833333,
      "lng": 42.5811111
    },
    {
      "cityName": "Ansubisto",
      "lat": 0.6666667,
      "lng": 41.8166667
    },
    {
      "cityName": "Arbey Cabdi",
      "lat": 0.5102778,
      "lng": 42.9755556
    },
    {
      "cityName": "Arghed",
      "lat": 0.4505556,
      "lng": 42.7063889
    },
    {
      "cityName": "Arosurre",
      "lat": 1.9813889,
      "lng": 42.23
    },
    {
      "cityName": "Arundolei",
      "lat": 0.6333333,
      "lng": 42.7497222
    },
    {
      "cityName": "Baarta Faanye",
      "lat": 2.1,
      "lng": 42.2666667
    },
    {
      "cityName": "Bakal",
      "lat": 2.1333333,
      "lng": 42.2
    },
    {
      "cityName": "Baladul Kariim",
      "lat": 0.5472222,
      "lng": 42.7405556
    },
    {
      "cityName": "Baladu Raxma",
      "lat": 0.4975,
      "lng": 42.7630556
    },
    {
      "cityName": "Baljey",
      "lat": 0.6119444,
      "lng": 42.7525
    },
    {
      "cityName": "Bandar Jidiid",
      "lat": 1.1158333,
      "lng": 42.5838889
    },
    {
      "cityName": "Bandar Salaam",
      "lat": 0.3333333,
      "lng": 42.7666667
    },
    {
      "cityName": "Banta",
      "lat": 1.1841667,
      "lng": 42.5425
    },
    {
      "cityName": "Baqdaad",
      "lat": 0.8,
      "lng": 42.6333333
    },
    {
      "cityName": "Baraka",
      "lat": 0.64,
      "lng": 42.7391667
    },
    {
      "cityName": "Barako",
      "lat": 0.75,
      "lng": 42.6
    },
    {
      "cityName": "Bar Muumin Dhoorow",
      "lat": 1.85,
      "lng": 42.3805556
    },
    {
      "cityName": "Barwaaqo",
      "lat": 0.4711111,
      "lng": 42.7308333
    },
    {
      "cityName": "Bashiir Malaambow",
      "lat": 0.3166667,
      "lng": 42.75
    },
    {
      "cityName": "Basra",
      "lat": 1.6861111,
      "lng": 42.3402778
    },
    {
      "cityName": "Batuulo",
      "lat": 1.7341667,
      "lng": 42.4061111
    },
    {
      "cityName": "Belet Gola",
      "lat": 1.4,
      "lng": 42.465
    },
    {
      "cityName": "Bender Salam",
      "lat": 0.3627778,
      "lng": 42.7722222
    },
    {
      "cityName": "Ber Berisso",
      "lat": 1.6697222,
      "lng": 42.4230556
    },
    {
      "cityName": "Berdaale",
      "lat": 0.8797222,
      "lng": 42.5919444
    },
    {
      "cityName": "Bidde",
      "lat": 0.9827778,
      "lng": 42.6291667
    },
    {
      "cityName": "Bilcisha",
      "lat": 2.0333333,
      "lng": 42.3666667
    },
    {
      "cityName": "Biliq Diinle",
      "lat": 0.5666667,
      "lng": 42.9833333
    },
    {
      "cityName": "Biliq Maro",
      "lat": 0.5386111,
      "lng": 42.9597222
    },
    {
      "cityName": "Bilisa",
      "lat": 0.5269444,
      "lng": 42.6808333
    },
    {
      "cityName": "Bili Uen",
      "lat": 0.9258333,
      "lng": 42.5844444
    },
    {
      "cityName": "Bodboode",
      "lat": 0.6591667,
      "lng": 42.7083333
    },
    {
      "cityName": "Boox",
      "lat": 0.9863889,
      "lng": 42.61
    },
    {
      "cityName": "Boxo",
      "lat": 0.9666667,
      "lng": 42.6166667
    },
    {
      "cityName": "Bu'aale",
      "lat": 1.0833333,
      "lng": 42.5833333
    },
    {
      "cityName": "Bua Barugi",
      "lat": 0.4475,
      "lng": 42.7266667
    },
    {
      "cityName": "Bu Buule",
      "lat": 1.1591667,
      "lng": 42.5525
    },
    {
      "cityName": "Bulo Calangi",
      "lat": 0.375,
      "lng": 42.7419444
    },
    {
      "cityName": "Bulo Er Ueber",
      "lat": 3.35,
      "lng": 45.55
    },
    {
      "cityName": "Bulo Muniassa",
      "lat": 0.4561111,
      "lng": 42.7294444
    },
    {
      "cityName": "Bulo Nassib",
      "lat": 0.6019444,
      "lng": 42.7433333
    },
    {
      "cityName": "Bur `Adde",
      "lat": 1.0166667,
      "lng": 41.9166667
    },
    {
      "cityName": "Bur Fole",
      "lat": 1.1383333,
      "lng": 42.5730556
    },
    {
      "cityName": "Burfuul",
      "lat": 0.6,
      "lng": 42.7166667
    },
    {
      "cityName": "Buulle",
      "lat": 0.2,
      "lng": 42.8
    },
    {
      "cityName": "Buurfule",
      "lat": 1.5244444,
      "lng": 42.4225
    },
    {
      "cityName": "Buur Fuul",
      "lat": 1.6,
      "lng": 42.5
    },
    {
      "cityName": "Buur Gaduud",
      "lat": 1.9219444,
      "lng": 42.28
    },
    {
      "cityName": "Buurka",
      "lat": 1.88,
      "lng": 42.3558333
    },
    {
      "cityName": "Caanoole",
      "lat": 1.0863889,
      "lng": 42.5816667
    },
    {
      "cityName": "Cabdalle Kakane",
      "lat": 0.5166667,
      "lng": 42.75
    },
    {
      "cityName": "Cabdi Cali",
      "lat": 0.7333333,
      "lng": 42.65
    },
    {
      "cityName": "Caboba",
      "lat": 1.5522222,
      "lng": 42.4480556
    },
    {
      "cityName": "Cadey",
      "lat": 1.9216667,
      "lng": 42.3411111
    },
    {
      "cityName": "Caggiaua",
      "lat": 0.5422222,
      "lng": 42.7605556
    },
    {
      "cityName": "Caguri",
      "lat": 1.8677778,
      "lng": 42.2927778
    },
    {
      "cityName": "Calalio",
      "lat": 0.4669444,
      "lng": 42.7480556
    },
    {
      "cityName": "Calihaarrey",
      "lat": 0.3,
      "lng": 42.8666667
    },
    {
      "cityName": "Camtande",
      "lat": 0.4933333,
      "lng": 42.7572222
    },
    {
      "cityName": "Cardale",
      "lat": 1.1130556,
      "lng": 42.5947222
    },
    {
      "cityName": "Caschei",
      "lat": 0.9219444,
      "lng": 42.5988889
    },
    {
      "cityName": "Ceel Baari",
      "lat": 2.05,
      "lng": 42.4
    },
    {
      "cityName": "Chenaf",
      "lat": 1.5833333,
      "lng": 41.5333333
    },
    {
      "cityName": "Cilmi",
      "lat": 1.4294444,
      "lng": 42.4158333
    },
    {
      "cityName": "Cismaan Yarow",
      "lat": 1.2188889,
      "lng": 42.5513889
    },
    {
      "cityName": "Cumar Abooke",
      "lat": 0.4691667,
      "lng": 42.9172222
    },
    {
      "cityName": "Cumberere",
      "lat": 0.5811111,
      "lng": 42.7155556
    },
    {
      "cityName": "Cumlamo",
      "lat": 0.4027778,
      "lng": 42.7413889
    },
    {
      "cityName": "Curale",
      "lat": 1.5002778,
      "lng": 42.4658333
    },
    {
      "cityName": "Curuàe",
      "lat": 1.6916667,
      "lng": 42.4044444
    },
    {
      "cityName": "Cusbooley",
      "lat": 0.5383333,
      "lng": 42.7519444
    },
    {
      "cityName": "Cusmaan Mooto",
      "lat": 0.6955556,
      "lng": 42.6969444
    },
    {
      "cityName": "Cut Berai",
      "lat": 0.7294444,
      "lng": 42.9338889
    },
    {
      "cityName": "Daanyeere",
      "lat": 1.9111111,
      "lng": 42.2594444
    },
    {
      "cityName": "Dabo Dheer",
      "lat": 2.15,
      "lng": 42.2833333
    },
    {
      "cityName": "Daggaras",
      "lat": 1.8322222,
      "lng": 42.3808333
    },
    {
      "cityName": "Dalaama",
      "lat": 0.5833333,
      "lng": 42.7166667
    },
    {
      "cityName": "Dambaley",
      "lat": 0.6702778,
      "lng": 42.7113889
    },
    {
      "cityName": "Danis Sipi",
      "lat": 0.15,
      "lng": 41.4166667
    },
    {
      "cityName": "Dayax",
      "lat": 0.4258333,
      "lng": 42.8827778
    },
    {
      "cityName": "Deg Adei",
      "lat": 0.6158333,
      "lng": 42.935
    },
    {
      "cityName": "Dhaweynta",
      "lat": 1.7491667,
      "lng": 42.3397222
    },
    {
      "cityName": "Dhayo",
      "lat": 0.2333333,
      "lng": 42.7833333
    },
    {
      "cityName": "Dhedhey",
      "lat": 0.5666667,
      "lng": 42.7
    },
    {
      "cityName": "Dheydhey",
      "lat": 0.7147222,
      "lng": 42.6902778
    },
    {
      "cityName": "Dhey Tubaako",
      "lat": 0.4897222,
      "lng": 42.9402778
    },
    {
      "cityName": "Dhimbil",
      "lat": 0.2333333,
      "lng": 42.7666667
    },
    {
      "cityName": "Dhisheek",
      "lat": 2.15,
      "lng": 42.3
    },
    {
      "cityName": "Dhisma",
      "lat": 0.8725,
      "lng": 42.9958333
    },
    {
      "cityName": "Dhokaal",
      "lat": 1.0083333,
      "lng": 42.6005556
    },
    {
      "cityName": "Dhokay",
      "lat": 1.6738889,
      "lng": 42.3880556
    },
    {
      "cityName": "Dhuqay",
      "lat": 1.8080556,
      "lng": 42.3111111
    },
    {
      "cityName": "Didir",
      "lat": -1.3833333,
      "lng": 41.4333333
    },
    {
      "cityName": "Digiuma",
      "lat": 1.2533333,
      "lng": 42.5708333
    },
    {
      "cityName": "Dudun Guduud",
      "lat": 0.6544444,
      "lng": 42.9472222
    },
    {
      "cityName": "Duguia Gussa",
      "lat": 1.1641667,
      "lng": 42.5627778
    },
    {
      "cityName": "Duqiyo Ereey",
      "lat": 1.1683333,
      "lng": 42.6
    },
    {
      "cityName": "Duqiyo Madow",
      "lat": 1.1813889,
      "lng": 42.5608333
    },
    {
      "cityName": "Duqiyo Weyn",
      "lat": 1.1480556,
      "lng": 42.6169444
    },
    {
      "cityName": "Egha Roba",
      "lat": 1.55,
      "lng": 41.6666667
    },
    {
      "cityName": "Esgudud",
      "lat": 1.3333333,
      "lng": 41.4166667
    },
    {
      "cityName": "Fakiya",
      "lat": 0.7166667,
      "lng": 42.65
    },
    {
      "cityName": "Fanole",
      "lat": 0.7508333,
      "lng": 42.6527778
    },
    {
      "cityName": "Fanoole No. 1",
      "lat": 0.7488889,
      "lng": 42.6688889
    },
    {
      "cityName": "Fanoole No. 2",
      "lat": 0.5061111,
      "lng": 42.765
    },
    {
      "cityName": "Farbiito",
      "lat": 0.8872222,
      "lng": 42.6183333
    },
    {
      "cityName": "Farham",
      "lat": 0.5977778,
      "lng": 42.6966667
    },
    {
      "cityName": "Fungamuunyo",
      "lat": 0.3552778,
      "lng": 42.7547222
    },
    {
      "cityName": "Gaaguure",
      "lat": 1.9488889,
      "lng": 42.2669444
    },
    {
      "cityName": "Gaduud",
      "lat": 1.4825,
      "lng": 42.495
    },
    {
      "cityName": "Galaame",
      "lat": 0.5827778,
      "lng": 42.6913889
    },
    {
      "cityName": "Galiyo Guubow",
      "lat": 0.55,
      "lng": 42.75
    },
    {
      "cityName": "Garare",
      "lat": 1.1211111,
      "lng": 42.6052778
    },
    {
      "cityName": "Gasiile",
      "lat": 1.9411111,
      "lng": 42.2997222
    },
    {
      "cityName": "Gèbbi",
      "lat": 1.3552778,
      "lng": 42.4419444
    },
    {
      "cityName": "Geed Ful",
      "lat": 0.8063889,
      "lng": 42.6186111
    },
    {
      "cityName": "Geedgoy",
      "lat": 0.5063889,
      "lng": 42.7391667
    },
    {
      "cityName": "Geele",
      "lat": 1.2372222,
      "lng": 42.5605556
    },
    {
      "cityName": "Gelib",
      "lat": 0.4958333,
      "lng": 42.7727778
    },
    {
      "cityName": "Gerarey",
      "lat": 1.1166667,
      "lng": 42.5830556
    },
    {
      "cityName": "Ghelghel Bur Foli",
      "lat": 1.0333333,
      "lng": 41.0166667
    },
    {
      "cityName": "Gherille",
      "lat": 1.6833333,
      "lng": 41.05
    },
    {
      "cityName": "Ghesso",
      "lat": 1.6666667,
      "lng": 41.9833333
    },
    {
      "cityName": "Gobato",
      "lat": 1.3455556,
      "lng": 42.4611111
    },
    {
      "cityName": "Gobto",
      "lat": 1.9394444,
      "lng": 42.1541667
    },
    {
      "cityName": "Goljano",
      "lat": 1.4533333,
      "lng": 42.4175
    },
    {
      "cityName": "Gonaaf",
      "lat": 1.2988889,
      "lng": 42.5013889
    },
    {
      "cityName": "Goorka",
      "lat": 0.4802778,
      "lng": 42.9313889
    },
    {
      "cityName": "Goriole",
      "lat": 0.9458333,
      "lng": 42.595
    },
    {
      "cityName": "Guduud",
      "lat": 2.1333333,
      "lng": 42.2333333
    },
    {
      "cityName": "Guumarey",
      "lat": 1.8833333,
      "lng": 42.4166667
    },
    {
      "cityName": "Guuraay",
      "lat": 2.2333333,
      "lng": 42.4
    },
    {
      "cityName": "Hangoodle",
      "lat": 1.0966667,
      "lng": 42.5930556
    },
    {
      "cityName": "Hanoole",
      "lat": 0.4333333,
      "lng": 42.7166667
    },
    {
      "cityName": "Harau",
      "lat": 0.6116667,
      "lng": 42.7058333
    },
    {
      "cityName": "Haroris",
      "lat": 1.5666667,
      "lng": 41.45
    },
    {
      "cityName": "Heer Bucool",
      "lat": 0.7686111,
      "lng": 42.9572222
    },
    {
      "cityName": "Helashiid",
      "lat": 0.6433333,
      "lng": 42.7458333
    },
    {
      "cityName": "Hilfato",
      "lat": 2.05,
      "lng": 42.2666667
    },
    {
      "cityName": "Hodooy",
      "lat": 1.6997222,
      "lng": 42.5319444
    },
    {
      "cityName": "Homboy",
      "lat": 0.4002778,
      "lng": 42.8688889
    },
    {
      "cityName": "Hubaar",
      "lat": 0.3833333,
      "lng": 42.85
    },
    {
      "cityName": "Iidow",
      "lat": 0.8333333,
      "lng": 42.6
    },
    {
      "cityName": "Jiima",
      "lat": 0.4213889,
      "lng": 42.7238889
    },
    {
      "cityName": "Jilaalow",
      "lat": 0.8313889,
      "lng": 42.5977778
    },
    {
      "cityName": "Jimaboota",
      "lat": 0.2666667,
      "lng": 42.7666667
    },
    {
      "cityName": "Jirma",
      "lat": 1.4897222,
      "lng": 42.3838889
    },
    {
      "cityName": "Jubba",
      "lat": 1.4313889,
      "lng": 42.4269444
    },
    {
      "cityName": "Kadaarow",
      "lat": 1.6169444,
      "lng": 42.4441667
    },
    {
      "cityName": "Kafiinge",
      "lat": 1.0113889,
      "lng": 42.5883333
    },
    {
      "cityName": "Kalikooka",
      "lat": 0.3797222,
      "lng": 42.7488889
    },
    {
      "cityName": "Kaytooy",
      "lat": 0.7925,
      "lng": 42.6666667
    },
    {
      "cityName": "Kolonyaale",
      "lat": 0.6333333,
      "lng": 42.9333333
    },
    {
      "cityName": "Koreey",
      "lat": 2.2333333,
      "lng": 42.35
    },
    {
      "cityName": "Korisow",
      "lat": 1.4777778,
      "lng": 42.4083333
    },
    {
      "cityName": "Kormey",
      "lat": 2.1666667,
      "lng": 42.4666667
    },
    {
      "cityName": "Kukate",
      "lat": 2.1166667,
      "lng": 42.25
    },
    {
      "cityName": "Kumeyda",
      "lat": 0.45,
      "lng": 42.7333333
    },
    {
      "cityName": "Kuraawo",
      "lat": 1.735,
      "lng": 42.3908333
    },
    {
      "cityName": "Labiileey",
      "lat": 2.1166667,
      "lng": 42.2833333
    },
    {
      "cityName": "Laweyti",
      "lat": 1.7833333,
      "lng": 42.3130556
    },
    {
      "cityName": "Libi Buul",
      "lat": 1.8833333,
      "lng": 42.4333333
    },
    {
      "cityName": "Limale",
      "lat": 0.5255556,
      "lng": 42.7602778
    },
    {
      "cityName": "Maanyagaabo",
      "lat": 0.5094444,
      "lng": 42.7680556
    },
    {
      "cityName": "Mabaarag",
      "lat": 0.8327778,
      "lng": 42.605
    },
    {
      "cityName": "Macalim Iman",
      "lat": 0.7672222,
      "lng": 42.6538889
    },
    {
      "cityName": "Macalim Weyn",
      "lat": 0.8861111,
      "lng": 42.6013889
    },
    {
      "cityName": "Madhooka",
      "lat": 0.5497222,
      "lng": 42.7669444
    },
    {
      "cityName": "Madiina",
      "lat": 0.8205556,
      "lng": 42.6005556
    },
    {
      "cityName": "Maionda",
      "lat": 0.7383333,
      "lng": 42.6925
    },
    {
      "cityName": "Makuuni",
      "lat": 0.4836111,
      "lng": 42.7163889
    },
    {
      "cityName": "Malenda",
      "lat": 0.7408333,
      "lng": 42.6636111
    },
    {
      "cityName": "Manaane",
      "lat": 0.8447222,
      "lng": 42.6455556
    },
    {
      "cityName": "Mansuura",
      "lat": 0.5611111,
      "lng": 42.7119444
    },
    {
      "cityName": "Mansuura Yar",
      "lat": 0.5616667,
      "lng": 42.7169444
    },
    {
      "cityName": "Maqdas",
      "lat": 0.3833333,
      "lng": 42.8
    },
    {
      "cityName": "Mareerey",
      "lat": 0.4302778,
      "lng": 42.7180556
    },
    {
      "cityName": "Mareer",
      "lat": 0.6066667,
      "lng": 42.7419444
    },
    {
      "cityName": "Marmuus",
      "lat": 0.4333333,
      "lng": 42.8666667
    },
    {
      "cityName": "Mashane",
      "lat": 0.8261111,
      "lng": 42.66
    },
    {
      "cityName": "Mashemba",
      "lat": 0.5644444,
      "lng": 42.7375
    },
    {
      "cityName": "Mawgley",
      "lat": 1.2730556,
      "lng": 42.5280556
    },
    {
      "cityName": "Mawunde",
      "lat": 0.7,
      "lng": 42.7
    },
    {
      "cityName": "Maxad",
      "lat": 0.5166667,
      "lng": 42.7666667
    },
    {
      "cityName": "Misra",
      "lat": 0.5041667,
      "lng": 42.7616667
    },
    {
      "cityName": "Mitaaniya",
      "lat": 2.1333333,
      "lng": 42.25
    },
    {
      "cityName": "Mobilen",
      "lat": 0.5091667,
      "lng": 42.7411111
    },
    {
      "cityName": "Moloolow",
      "lat": 0.8883333,
      "lng": 42.5933333
    },
    {
      "cityName": "Moro Bullei",
      "lat": 3.3666667,
      "lng": 45.1166667
    },
    {
      "cityName": "Mubaarak",
      "lat": 0.4286111,
      "lng": 42.7302778
    },
    {
      "cityName": "Munfuudhi",
      "lat": 0.8127778,
      "lng": 42.6183333
    },
    {
      "cityName": "Murjaan",
      "lat": 0.25,
      "lng": 42.7333333
    },
    {
      "cityName": "Muuna",
      "lat": 0.5091667,
      "lng": 42.7605556
    },
    {
      "cityName": "Nadariis",
      "lat": 1.4255556,
      "lng": 42.4644444
    },
    {
      "cityName": "Naftagor",
      "lat": 0.3602778,
      "lng": 42.7494444
    },
    {
      "cityName": "Nasiib Dheer",
      "lat": 0.4602778,
      "lng": 42.7161111
    },
    {
      "cityName": "Nassib",
      "lat": 0.7211111,
      "lng": 42.6925
    },
    {
      "cityName": "Naweytu",
      "lat": 1.7694444,
      "lng": 42.3816667
    },
    {
      "cityName": "Nebsooy",
      "lat": 1.7533333,
      "lng": 42.5063889
    },
    {
      "cityName": "Nimcan",
      "lat": 1.3533333,
      "lng": 42.4480556
    },
    {
      "cityName": "Nus Duniya",
      "lat": 1.6222222,
      "lng": 42.4277778
    },
    {
      "cityName": "Oorof",
      "lat": 1.7163889,
      "lng": 42.5497222
    },
    {
      "cityName": "Qalooliyow",
      "lat": 0.6294444,
      "lng": 42.6961111
    },
    {
      "cityName": "Qasaaleey",
      "lat": 2.2166667,
      "lng": 42.35
    },
    {
      "cityName": "Qasalow",
      "lat": 1.9833333,
      "lng": 42.25
    },
    {
      "cityName": "Qataa Qori",
      "lat": 1.5319444,
      "lng": 42.4166667
    },
    {
      "cityName": "Qeed Cajuuso",
      "lat": 1.6833333,
      "lng": 42.5311111
    },
    {
      "cityName": "Qotiiley",
      "lat": 2.1833333,
      "lng": 42.25
    },
    {
      "cityName": "Qunjaale",
      "lat": 1.5836111,
      "lng": 42.4530556
    },
    {
      "cityName": "Radiile",
      "lat": 1.2844444,
      "lng": 42.5805556
    },
    {
      "cityName": "Raxoole",
      "lat": 0.8527778,
      "lng": 42.5963889
    },
    {
      "cityName": "Reebaay",
      "lat": 1.2644444,
      "lng": 42.5547222
    },
    {
      "cityName": "Riiqata",
      "lat": 0.3166667,
      "lng": 42.65
    },
    {
      "cityName": "Saacow",
      "lat": 1.6333333,
      "lng": 42.45
    },
    {
      "cityName": "Saakow",
      "lat": 1.6441667,
      "lng": 42.4511111
    },
    {
      "cityName": "Saamòggia",
      "lat": -0.35,
      "lng": 42.5333333
    },
    {
      "cityName": "Sagani",
      "lat": 1.5666667,
      "lng": 41.9333333
    },
    {
      "cityName": "Salagle",
      "lat": 1.8125,
      "lng": 42.2922222
    },
    {
      "cityName": "Sciongolo Dunia",
      "lat": 0.3997222,
      "lng": 42.7438889
    },
    {
      "cityName": "Shangaani",
      "lat": 0.8383333,
      "lng": 42.6088889
    },
    {
      "cityName": "Sharaaw",
      "lat": 2.1833333,
      "lng": 42.3333333
    },
    {
      "cityName": "Sharijisaaq",
      "lat": 2.15,
      "lng": 42.1666667
    },
    {
      "cityName": "Shidaad",
      "lat": 0.4930556,
      "lng": 42.7227778
    },
    {
      "cityName": "Shongool Shawawila",
      "lat": 0.6333333,
      "lng": 42.7
    },
    {
      "cityName": "Shoongole",
      "lat": 0.8011111,
      "lng": 42.6727778
    },
    {
      "cityName": "So-gid",
      "lat": 1.1972222,
      "lng": 42.5475
    },
    {
      "cityName": "Soojiida",
      "lat": 1.1947222,
      "lng": 42.5555556
    },
    {
      "cityName": "Suchiello",
      "lat": 1.4605556,
      "lng": 42.4538889
    },
    {
      "cityName": "Tafanyo",
      "lat": 0.7216667,
      "lng": 42.6886111
    },
    {
      "cityName": "Tansaani",
      "lat": 0.7608333,
      "lng": 42.6527778
    },
    {
      "cityName": "Tarba",
      "lat": 0.8113889,
      "lng": 42.6588889
    },
    {
      "cityName": "Tateey",
      "lat": 1.2783333,
      "lng": 42.5152778
    },
    {
      "cityName": "Tosilei",
      "lat": 1.4166667,
      "lng": 41.4
    },
    {
      "cityName": "Tubaako",
      "lat": 2.2166667,
      "lng": 42.3166667
    },
    {
      "cityName": "Uagadi",
      "lat": 0.6872222,
      "lng": 42.7083333
    },
    {
      "cityName": "Uama Idu",
      "lat": -1.05,
      "lng": 41.3666667
    },
    {
      "cityName": "Uanghe Ola",
      "lat": -0.85,
      "lng": 41.45
    },
    {
      "cityName": "Uar Bagilaf",
      "lat": 1.0333333,
      "lng": 41.4833333
    },
    {
      "cityName": "Uar Galloh",
      "lat": 1.1333333,
      "lng": 41.15
    },
    {
      "cityName": "Uarin",
      "lat": 1.4194444,
      "lng": 42.4366667
    },
    {
      "cityName": "Uel Merer",
      "lat": 1.2833333,
      "lng": 41.95
    },
    {
      "cityName": "Urufle",
      "lat": 0.8569444,
      "lng": 42.5983333
    },
    {
      "cityName": "Uusla",
      "lat": 2.2333333,
      "lng": 42.3666667
    },
    {
      "cityName": "Waaba",
      "lat": 2.0166667,
      "lng": 42.2
    },
    {
      "cityName": "Waabo",
      "lat": 1.8794444,
      "lng": 42.3152778
    },
    {
      "cityName": "Wareegto",
      "lat": 1.4647222,
      "lng": 42.4308333
    },
    {
      "cityName": "Washaan",
      "lat": 0.9116667,
      "lng": 42.6066667
    },
    {
      "cityName": "Weheloow",
      "lat": 2.1333333,
      "lng": 42.2833333
    },
    {
      "cityName": "Xaar",
      "lat": 1.8466667,
      "lng": 42.2613889
    },
    {
      "cityName": "Xanyaaleey",
      "lat": 2.25,
      "lng": 42.2666667
    },
    {
      "cityName": "Xaramka",
      "lat": 0.6166667,
      "lng": 42.75
    },
    {
      "cityName": "Xasow",
      "lat": 0.8166667,
      "lng": 42.6072222
    },
    {
      "cityName": "Xatal Baraka",
      "lat": 0.5,
      "lng": 42.7611111
    },
    {
      "cityName": "Xawaal Gedow",
      "lat": 0.595,
      "lng": 42.9055556
    },
    {
      "cityName": "Yaaqle",
      "lat": 0.5669444,
      "lng": 42.7216667
    },
    {
      "cityName": "Yaaq Tiiri",
      "lat": 0.2166667,
      "lng": 42.8166667
    },
    {
      "cityName": "Yaaq",
      "lat": 0.2,
      "lng": 42.7666667
    },
    {
      "cityName": "Yoontoy",
      "lat": 0.6263889,
      "lng": 42.7375
    }
  ]
}