{
  "name": "Kayah State",
  "cities": [
    {
      "cityName": "Banawn Auk",
      "lat": 18.85,
      "lng": 97.3333333
    },
    {
      "cityName": "Bankom",
      "lat": 18.8333333,
      "lng": 97.3833333
    },
    {
      "cityName": "Bato",
      "lat": 19.45,
      "lng": 96.9666667
    },
    {
      "cityName": "Bawla-hke",
      "lat": 19.2333333,
      "lng": 97.6333333
    },
    {
      "cityName": "Bawlake",
      "lat": 19.1833333,
      "lng": 97.35
    },
    {
      "cityName": "Bawmila",
      "lat": 18.85,
      "lng": 97.1166667
    },
    {
      "cityName": "Bekoki",
      "lat": 18.75,
      "lng": 97.2166667
    },
    {
      "cityName": "Belako",
      "lat": 18.9833333,
      "lng": 97.0166667
    },
    {
      "cityName": "Bi-hku",
      "lat": 19.1166667,
      "lng": 97.2333333
    },
    {
      "cityName": "Bimaku",
      "lat": 18.9166667,
      "lng": 97.0166667
    },
    {
      "cityName": "Biya",
      "lat": 19.35,
      "lng": 96.9833333
    },
    {
      "cityName": "Bo-hku",
      "lat": 19.2166667,
      "lng": 97.2666667
    },
    {
      "cityName": "Bo-la",
      "lat": 19.45,
      "lng": 97.3166667
    },
    {
      "cityName": "Bu-hku",
      "lat": 19.2333333,
      "lng": 97.25
    },
    {
      "cityName": "Buko-ywa",
      "lat": 18.9666667,
      "lng": 97.0333333
    },
    {
      "cityName": "Bwako",
      "lat": 18.95,
      "lng": 97.2
    },
    {
      "cityName": "Chenglwa",
      "lat": 19.4166667,
      "lng": 97.4
    },
    {
      "cityName": "Chi-koi",
      "lat": 19.0166667,
      "lng": 97.35
    },
    {
      "cityName": "Chilo Atet",
      "lat": 18.95,
      "lng": 97.1
    },
    {
      "cityName": "Chilo Auk",
      "lat": 18.9666667,
      "lng": 97.1
    },
    {
      "cityName": "Daw Dawle",
      "lat": 19.65,
      "lng": 97.2333333
    },
    {
      "cityName": "Daw Di-po",
      "lat": 19.5666667,
      "lng": 97.1
    },
    {
      "cityName": "Dawdu",
      "lat": 19.2,
      "lng": 97.3333333
    },
    {
      "cityName": "Daw Gla-te",
      "lat": 19.6,
      "lng": 97.2166667
    },
    {
      "cityName": "Daw Glawku",
      "lat": 19.5166667,
      "lng": 97.5333333
    },
    {
      "cityName": "Daw Glaw-tu",
      "lat": 19.6333333,
      "lng": 97.1
    },
    {
      "cityName": "Daw Glo-hku",
      "lat": 19.5333333,
      "lng": 97.2
    },
    {
      "cityName": "Dawhkaw-aw",
      "lat": 19.5,
      "lng": 97.4833333
    },
    {
      "cityName": "Dawhkrawhku",
      "lat": 19.4,
      "lng": 97.0666667
    },
    {
      "cityName": "Daw Hkrawku",
      "lat": 19.5166667,
      "lng": 97.5
    },
    {
      "cityName": "Dawhku-li",
      "lat": 19.5166667,
      "lng": 97.3666667
    },
    {
      "cityName": "Daw Hku-lü",
      "lat": 19.5,
      "lng": 97.1833333
    },
    {
      "cityName": "Daw Hpak-hi",
      "lat": 19.5333333,
      "lng": 97.5
    },
    {
      "cityName": "Daw Hpa-lè-taw",
      "lat": 19.5333333,
      "lng": 97.1666667
    },
    {
      "cityName": "Dawhpre-tu",
      "lat": 19.4,
      "lng": 97.35
    },
    {
      "cityName": "Dawhpu",
      "lat": 19.5166667,
      "lng": 97.2833333
    },
    {
      "cityName": "Daw Hsà",
      "lat": 19.6833333,
      "lng": 97.5
    },
    {
      "cityName": "Daw Hsa-lè",
      "lat": 19.4333333,
      "lng": 97.55
    },
    {
      "cityName": "Daw Hsa-to",
      "lat": 19.45,
      "lng": 97.55
    },
    {
      "cityName": "Daw Hsaw",
      "lat": 19.3,
      "lng": 97.5166667
    },
    {
      "cityName": "Dawhsaw-do",
      "lat": 19.5333333,
      "lng": 97.25
    },
    {
      "cityName": "Daw Hsawgio",
      "lat": 19.7833333,
      "lng": 97.55
    },
    {
      "cityName": "Daw Hsawhkra",
      "lat": 19.5333333,
      "lng": 97.55
    },
    {
      "cityName": "Daw Hsawkya",
      "lat": 19.4833333,
      "lng": 97.5
    },
    {
      "cityName": "Daw Hsawli",
      "lat": 19.6833333,
      "lng": 97.1666667
    },
    {
      "cityName": "Daw Hsawpi",
      "lat": 19.7,
      "lng": 97.25
    },
    {
      "cityName": "Daw Hsawtü",
      "lat": 19.8666667,
      "lng": 97.5333333
    },
    {
      "cityName": "Dawhsaw-wè",
      "lat": 19.8666667,
      "lng": 97.2833333
    },
    {
      "cityName": "Dawhsè-da",
      "lat": 19.6666667,
      "lng": 97.3833333
    },
    {
      "cityName": "Daw Hsè",
      "lat": 19.55,
      "lng": 97.1
    },
    {
      "cityName": "Dawhsè",
      "lat": 19.75,
      "lng": 97.5
    },
    {
      "cityName": "Dawhsè-hpa",
      "lat": 19.7,
      "lng": 97.2666667
    },
    {
      "cityName": "Daw Hsè-kawlè",
      "lat": 19.3666667,
      "lng": 97.7166667
    },
    {
      "cityName": "Daw Hsè-lya",
      "lat": 19.6833333,
      "lng": 97.1833333
    },
    {
      "cityName": "Daw Hsi-ku-lè",
      "lat": 19.55,
      "lng": 97.55
    },
    {
      "cityName": "Daw Hso-hka-lè",
      "lat": 19.6666667,
      "lng": 97.5166667
    },
    {
      "cityName": "Dawhso-hku",
      "lat": 19.3833333,
      "lng": 97.3666667
    },
    {
      "cityName": "Dawhso-hsa",
      "lat": 19.6333333,
      "lng": 97.4666667
    },
    {
      "cityName": "Dawhso-klè",
      "lat": 19.4333333,
      "lng": 97.2833333
    },
    {
      "cityName": "Daw Htè-ku",
      "lat": 19.6833333,
      "lng": 97.5333333
    },
    {
      "cityName": "Dawi-ho",
      "lat": 19.6,
      "lng": 97.2833333
    },
    {
      "cityName": "Daw Ka-hso",
      "lat": 19.5,
      "lng": 97.55
    },
    {
      "cityName": "Dawka-li-hso",
      "lat": 19.5333333,
      "lng": 97.4833333
    },
    {
      "cityName": "Dawka-lo-so",
      "lat": 19.4666667,
      "lng": 97.2833333
    },
    {
      "cityName": "Daw Ka-tö",
      "lat": 19.4833333,
      "lng": 97.5333333
    },
    {
      "cityName": "Dawkaw-htu",
      "lat": 19.5333333,
      "lng": 97.2833333
    },
    {
      "cityName": "Dawkawlè",
      "lat": 19.4,
      "lng": 97.3166667
    },
    {
      "cityName": "Daw Kawlè",
      "lat": 19.55,
      "lng": 97.5166667
    },
    {
      "cityName": "Daw Kawlö",
      "lat": 19.6333333,
      "lng": 97.05
    },
    {
      "cityName": "Dawkla-taw",
      "lat": 19.4666667,
      "lng": 97.15
    },
    {
      "cityName": "Dawklaw-tu",
      "lat": 19.55,
      "lng": 97.3333333
    },
    {
      "cityName": "Dawkle-te",
      "lat": 19.4666667,
      "lng": 97.0833333
    },
    {
      "cityName": "Dawklo-hku",
      "lat": 19.5833333,
      "lng": 97.3166667
    },
    {
      "cityName": "Dawklu-hso",
      "lat": 19.65,
      "lng": 97.4666667
    },
    {
      "cityName": "Dawku-li",
      "lat": 19.3,
      "lng": 97.2666667
    },
    {
      "cityName": "Dawkwe-law",
      "lat": 19.75,
      "lng": 97.3166667
    },
    {
      "cityName": "Dawkye-nè",
      "lat": 19.6666667,
      "lng": 97.4833333
    },
    {
      "cityName": "Daw Kyi-nè",
      "lat": 19.7,
      "lng": 97.15
    },
    {
      "cityName": "Daw La",
      "lat": 19.5166667,
      "lng": 97.55
    },
    {
      "cityName": "Dawla-tè",
      "lat": 19.7166667,
      "lng": 97.3666667
    },
    {
      "cityName": "Dawla-tö",
      "lat": 19.8,
      "lng": 97.2833333
    },
    {
      "cityName": "Dawlawhko",
      "lat": 19.3666667,
      "lng": 97.3333333
    },
    {
      "cityName": "Dawlawhku",
      "lat": 19.3666667,
      "lng": 97.2
    },
    {
      "cityName": "Dawlaw-klè",
      "lat": 19.8833333,
      "lng": 97.3333333
    },
    {
      "cityName": "Dawlaw-sai",
      "lat": 19.55,
      "lng": 97.4666667
    },
    {
      "cityName": "Daw Li-la",
      "lat": 19.4666667,
      "lng": 97.55
    },
    {
      "cityName": "Dawli-lè",
      "lat": 19.65,
      "lng": 97.5
    },
    {
      "cityName": "Daw Lo-hku",
      "lat": 19.5,
      "lng": 97.1166667
    },
    {
      "cityName": "Daw Lo-hsè",
      "lat": 19.7333333,
      "lng": 97.1166667
    },
    {
      "cityName": "Dawlya-daw",
      "lat": 19.4833333,
      "lng": 97.4666667
    },
    {
      "cityName": "Dawlya-hku",
      "lat": 19.4166667,
      "lng": 97.2
    },
    {
      "cityName": "Daw Lya-hku",
      "lat": 19.6333333,
      "lng": 97.2
    },
    {
      "cityName": "Dawlya-lè",
      "lat": 19.45,
      "lng": 97.4666667
    },
    {
      "cityName": "Daw Ma-kra",
      "lat": 19.7166667,
      "lng": 97.15
    },
    {
      "cityName": "Dawmu-ma",
      "lat": 19.7,
      "lng": 97.5
    },
    {
      "cityName": "Daw Na-klö",
      "lat": 19.85,
      "lng": 97.5166667
    },
    {
      "cityName": "Daw Na-lè",
      "lat": 19.5333333,
      "lng": 97.5333333
    },
    {
      "cityName": "Daw No-hku",
      "lat": 19.5666667,
      "lng": 97.1166667
    },
    {
      "cityName": "Dawno-hku",
      "lat": 19.6166667,
      "lng": 97.4833333
    },
    {
      "cityName": "Dawnye-hku",
      "lat": 19.3166667,
      "lng": 97.3666667
    },
    {
      "cityName": "Dawpa-pa",
      "lat": 19.85,
      "lng": 97.3333333
    },
    {
      "cityName": "Daw Pa-ta",
      "lat": 19.7333333,
      "lng": 97.2166667
    },
    {
      "cityName": "Daw Pawgale",
      "lat": 19.5166667,
      "lng": 97.2
    },
    {
      "cityName": "Daw Pawtu",
      "lat": 19.6166667,
      "lng": 97.7333333
    },
    {
      "cityName": "Dawpè",
      "lat": 19.3166667,
      "lng": 97.35
    },
    {
      "cityName": "Daw Pè",
      "lat": 19.6833333,
      "lng": 97.25
    },
    {
      "cityName": "Dawpè-hku",
      "lat": 19.45,
      "lng": 97.0166667
    },
    {
      "cityName": "Daw Pi-ta",
      "lat": 19.65,
      "lng": 97.1166667
    },
    {
      "cityName": "Dawplaw-hsu",
      "lat": 19.5833333,
      "lng": 97.4666667
    },
    {
      "cityName": "Dawplè",
      "lat": 19.4666667,
      "lng": 97.2166667
    },
    {
      "cityName": "Daw Po-hso",
      "lat": 19.5666667,
      "lng": 97.5
    },
    {
      "cityName": "Daw Pu-hsaw",
      "lat": 19.7333333,
      "lng": 97.55
    },
    {
      "cityName": "Dawrahku",
      "lat": 19.4833333,
      "lng": 96.9833333
    },
    {
      "cityName": "Dawru",
      "lat": 19.2666667,
      "lng": 97.25
    },
    {
      "cityName": "Dawsawlè",
      "lat": 19.3166667,
      "lng": 97.3333333
    },
    {
      "cityName": "Dawsawpya",
      "lat": 19.4,
      "lng": 97.3333333
    },
    {
      "cityName": "Dawsawshe",
      "lat": 19.3833333,
      "lng": 97.1166667
    },
    {
      "cityName": "Dawsè",
      "lat": 19.4666667,
      "lng": 97.4666667
    },
    {
      "cityName": "Dawsè-hku",
      "lat": 19.1333333,
      "lng": 97.2166667
    },
    {
      "cityName": "Dawso-hpa",
      "lat": 19.3166667,
      "lng": 97.4833333
    },
    {
      "cityName": "Daw Su-la",
      "lat": 19.7666667,
      "lng": 97.55
    },
    {
      "cityName": "Dawta-cha",
      "lat": 19.2166667,
      "lng": 97.3166667
    },
    {
      "cityName": "Dawta-chè",
      "lat": 19.3833333,
      "lng": 97.3166667
    },
    {
      "cityName": "Dawta-da",
      "lat": 19.4666667,
      "lng": 97.2
    },
    {
      "cityName": "Daw Ta-ho",
      "lat": 19.6833333,
      "lng": 97.1
    },
    {
      "cityName": "Daw Ta-hsö",
      "lat": 19.6666667,
      "lng": 97.1166667
    },
    {
      "cityName": "Dawta-htaw",
      "lat": 19.3333333,
      "lng": 97.2
    },
    {
      "cityName": "Daw Ta-htaw",
      "lat": 19.55,
      "lng": 97.1333333
    },
    {
      "cityName": "Dawta-kle",
      "lat": 19.4166667,
      "lng": 97.2333333
    },
    {
      "cityName": "Dawta-lè",
      "lat": 19.55,
      "lng": 97.25
    },
    {
      "cityName": "Daw Ta-ma",
      "lat": 19.2833333,
      "lng": 97.5166667
    },
    {
      "cityName": "Dawta-ma",
      "lat": 19.3333333,
      "lng": 97.3666667
    },
    {
      "cityName": "Dawta-naw",
      "lat": 19.3833333,
      "lng": 97.1333333
    },
    {
      "cityName": "Daw Ta-naw",
      "lat": 19.8333333,
      "lng": 97.5
    },
    {
      "cityName": "Daw Ta-nawno",
      "lat": 19.8166667,
      "lng": 97.5
    },
    {
      "cityName": "Daw Ta-ngu",
      "lat": 19.5333333,
      "lng": 97.2333333
    },
    {
      "cityName": "Daw Ta-pwè",
      "lat": 19.6,
      "lng": 97.5
    },
    {
      "cityName": "Daw Ta-ri-ta",
      "lat": 19.7666667,
      "lng": 97.5
    },
    {
      "cityName": "Daw Ta-sa",
      "lat": 19.6166667,
      "lng": 97.1333333
    },
    {
      "cityName": "Dawta-so",
      "lat": 19.6166667,
      "lng": 97.2666667
    },
    {
      "cityName": "Daw Ta-wè",
      "lat": 19.5333333,
      "lng": 97.0666667
    },
    {
      "cityName": "Daw Tawhpa",
      "lat": 19.8833333,
      "lng": 97.5166667
    },
    {
      "cityName": "Daw Ta-wi",
      "lat": 19.4666667,
      "lng": 97.5333333
    },
    {
      "cityName": "Daw Taw-lè",
      "lat": 19.5333333,
      "lng": 97.1166667
    },
    {
      "cityName": "Dawtaw-lè",
      "lat": 19.5333333,
      "lng": 97.3666667
    },
    {
      "cityName": "Daw V-hku",
      "lat": 19.6666667,
      "lng": 97.1833333
    },
    {
      "cityName": "Dawwe-lè",
      "lat": 19.8666667,
      "lng": 97.3333333
    },
    {
      "cityName": "Dawwè-nè",
      "lat": 19.3833333,
      "lng": 97.4
    },
    {
      "cityName": "Dawwi-hse",
      "lat": 19.2833333,
      "lng": 97.25
    },
    {
      "cityName": "De-bi-hku",
      "lat": 19.4,
      "lng": 97.0333333
    },
    {
      "cityName": "Deikakhi",
      "lat": 18.7166667,
      "lng": 97.1666667
    },
    {
      "cityName": "Di-ku-le",
      "lat": 19.4,
      "lng": 97.1
    },
    {
      "cityName": "Dolo",
      "lat": 18.85,
      "lng": 97.1666667
    },
    {
      "cityName": "Domusaw",
      "lat": 19.2333333,
      "lng": 96.9666667
    },
    {
      "cityName": "Duhko",
      "lat": 19.1833333,
      "lng": 96.9
    },
    {
      "cityName": "Gekaw",
      "lat": 19.1833333,
      "lng": 96.9166667
    },
    {
      "cityName": "Ha-bi-hku",
      "lat": 19.2,
      "lng": 97.0333333
    },
    {
      "cityName": "Hai-tang",
      "lat": 19.8833333,
      "lng": 97.45
    },
    {
      "cityName": "Ha-u",
      "lat": 19.25,
      "lng": 96.8833333
    },
    {
      "cityName": "Hawhkam",
      "lat": 19.2166667,
      "lng": 97.4166667
    },
    {
      "cityName": "Hawlo",
      "lat": 18.7666667,
      "lng": 97.15
    },
    {
      "cityName": "Hawtipè",
      "lat": 18.9,
      "lng": 97.15
    },
    {
      "cityName": "Hè-sa-hku",
      "lat": 19.2,
      "lng": 97.1166667
    },
    {
      "cityName": "Hkabe",
      "lat": 19.2666667,
      "lng": 96.95
    },
    {
      "cityName": "Hkai-hpaknam",
      "lat": 19.2,
      "lng": 97.5
    },
    {
      "cityName": "Hkawle",
      "lat": 19.1666667,
      "lng": 96.9833333
    },
    {
      "cityName": "Hkè-bè",
      "lat": 19.35,
      "lng": 97.0166667
    },
    {
      "cityName": "Hkè-tu",
      "lat": 19.65,
      "lng": 97.15
    },
    {
      "cityName": "Hki-hsawngla",
      "lat": 19.6166667,
      "lng": 97.0166667
    },
    {
      "cityName": "Hklawpenghko",
      "lat": 19.65,
      "lng": 97.05
    },
    {
      "cityName": "Hko-hpè",
      "lat": 19.25,
      "lng": 97.15
    },
    {
      "cityName": "Hkok-lao",
      "lat": 19.9833333,
      "lng": 97.1833333
    },
    {
      "cityName": "Hko-ra-hku",
      "lat": 19.3333333,
      "lng": 97.1833333
    },
    {
      "cityName": "Hko-ri-hku",
      "lat": 19.4833333,
      "lng": 97.0833333
    },
    {
      "cityName": "Hko-sa-maw",
      "lat": 19.4333333,
      "lng": 97.1666667
    },
    {
      "cityName": "Hkrawhku",
      "lat": 19.25,
      "lng": 97.0333333
    },
    {
      "cityName": "Hkupra",
      "lat": 19.4166667,
      "lng": 96.9333333
    },
    {
      "cityName": "Ho-hko-sao-hpa",
      "lat": 19.85,
      "lng": 97.2166667
    },
    {
      "cityName": "Ho-hta",
      "lat": 19.1333333,
      "lng": 97.4833333
    },
    {
      "cityName": "Ho-hwè-ko-sa-pa",
      "lat": 19.0833333,
      "lng": 97.45
    },
    {
      "cityName": "Ho-hwè-long",
      "lat": 19.2833333,
      "lng": 97.3166667
    },
    {
      "cityName": "Ho-hwe-man",
      "lat": 19.3,
      "lng": 97.55
    },
    {
      "cityName": "Hokyit",
      "lat": 18.6047222,
      "lng": 97.4805556
    },
    {
      "cityName": "Ho-la",
      "lat": 19.95,
      "lng": 97.2
    },
    {
      "cityName": "Ho-mè-la-yu",
      "lat": 19.4936111,
      "lng": 97.8616667
    },
    {
      "cityName": "Homohti",
      "lat": 19.3166667,
      "lng": 96.9833333
    },
    {
      "cityName": "Hoya",
      "lat": 19.3166667,
      "lng": 96.95
    },
    {
      "cityName": "Hpahpu",
      "lat": 19.0833333,
      "lng": 96.9666667
    },
    {
      "cityName": "Hpak-hku",
      "lat": 19.1833333,
      "lng": 97.5
    },
    {
      "cityName": "Hpaktu-monga",
      "lat": 19.0758333,
      "lng": 97.7794444
    },
    {
      "cityName": "Hpasawng",
      "lat": 18.8333333,
      "lng": 97.2666667
    },
    {
      "cityName": "Hpawe",
      "lat": 19.15,
      "lng": 96.95
    },
    {
      "cityName": "Hpe-hso-daw",
      "lat": 19.6166667,
      "lng": 97.0333333
    },
    {
      "cityName": "Hpre-hku",
      "lat": 19.5,
      "lng": 97.3333333
    },
    {
      "cityName": "Hpre-hse-hso",
      "lat": 19.6,
      "lng": 97.2
    },
    {
      "cityName": "Hpre-hso-hku",
      "lat": 19.05,
      "lng": 97.25
    },
    {
      "cityName": "Hpru-so",
      "lat": 19.4166667,
      "lng": 97.1333333
    },
    {
      "cityName": "Hpu Hkya-ku",
      "lat": 19.2833333,
      "lng": 97.1666667
    },
    {
      "cityName": "Hpya-lya",
      "lat": 19.4666667,
      "lng": 97.2333333
    },
    {
      "cityName": "Hpya-ni",
      "lat": 19.6833333,
      "lng": 97.1333333
    },
    {
      "cityName": "Hpya-pyu",
      "lat": 19.6666667,
      "lng": 97.1333333
    },
    {
      "cityName": "Hsanghkeng",
      "lat": 19.2333333,
      "lng": 97.6666667
    },
    {
      "cityName": "Hsa-paw",
      "lat": 19.0166667,
      "lng": 97.5
    },
    {
      "cityName": "Hsa-taw",
      "lat": 19.6333333,
      "lng": 97.5333333
    },
    {
      "cityName": "Hsawhkyi-daw",
      "lat": 19.7166667,
      "lng": 97.1333333
    },
    {
      "cityName": "Hsa-ya",
      "lat": 19.05,
      "lng": 97.5
    },
    {
      "cityName": "Hsè-hsu-lè",
      "lat": 19.6166667,
      "lng": 97.1
    },
    {
      "cityName": "Hsi-sawhku",
      "lat": 19.4833333,
      "lng": 97.15
    },
    {
      "cityName": "Hso-bi-hku",
      "lat": 19.3333333,
      "lng": 97.05
    },
    {
      "cityName": "Hso-hku",
      "lat": 19.25,
      "lng": 97.1666667
    },
    {
      "cityName": "Hso-hpu-lè",
      "lat": 19.7666667,
      "lng": 97.2166667
    },
    {
      "cityName": "Hso-hsè",
      "lat": 19.5666667,
      "lng": 97.2833333
    },
    {
      "cityName": "Hso-lya",
      "lat": 19.5,
      "lng": 97.3
    },
    {
      "cityName": "Hsop Me-la-yu",
      "lat": 19.4833333,
      "lng": 97.6
    },
    {
      "cityName": "Hsoppawngkla",
      "lat": 19.6166667,
      "lng": 97.7811111
    },
    {
      "cityName": "Hsu-hpè-law",
      "lat": 19.7833333,
      "lng": 97.45
    },
    {
      "cityName": "Hta-hpawku",
      "lat": 19.4166667,
      "lng": 97.5
    },
    {
      "cityName": "Hta-hpo-daw",
      "lat": 19.0666667,
      "lng": 97.0666667
    },
    {
      "cityName": "Hta-lè",
      "lat": 19.2666667,
      "lng": 97.2166667
    },
    {
      "cityName": "Htatochi",
      "lat": 19.2333333,
      "lng": 96.8666667
    },
    {
      "cityName": "Hti-bya-nye",
      "lat": 19.3833333,
      "lng": 97.2333333
    },
    {
      "cityName": "Hti-dü-ku",
      "lat": 19.35,
      "lng": 97.15
    },
    {
      "cityName": "Hti-se-hku",
      "lat": 19.3166667,
      "lng": 97.25
    },
    {
      "cityName": "Hti-ta-nga",
      "lat": 19.4333333,
      "lng": 97.4166667
    },
    {
      "cityName": "Hto-du-ku",
      "lat": 19.4166667,
      "lng": 97.0666667
    },
    {
      "cityName": "Hto-hkwi-hso",
      "lat": 19.3166667,
      "lng": 97.0833333
    },
    {
      "cityName": "Htö-htè",
      "lat": 19.8166667,
      "lng": 97.2833333
    },
    {
      "cityName": "Hto-ka-hto",
      "lat": 19.05,
      "lng": 97
    },
    {
      "cityName": "Htö-la-so",
      "lat": 19.3166667,
      "lng": 97.15
    },
    {
      "cityName": "Htuchaung",
      "lat": 18.9833333,
      "lng": 97.3
    },
    {
      "cityName": "Htu-ra-la-le",
      "lat": 19.4166667,
      "lng": 97.3333333
    },
    {
      "cityName": "Humukala",
      "lat": 19,
      "lng": 97
    },
    {
      "cityName": "Hwè-hpakhpai",
      "lat": 19.8333333,
      "lng": 97.55
    },
    {
      "cityName": "Hwè-makhat",
      "lat": 19.1333333,
      "lng": 97.2333333
    },
    {
      "cityName": "Hwè-mawnun",
      "lat": 19.0833333,
      "lng": 97.2166667
    },
    {
      "cityName": "Hwenokkut",
      "lat": 18.5888889,
      "lng": 97.6355556
    },
    {
      "cityName": "Hwè Papük",
      "lat": 18.8,
      "lng": 97.4
    },
    {
      "cityName": "Hweponglaung",
      "lat": 18.6252778,
      "lng": 97.6569444
    },
    {
      "cityName": "Hwese",
      "lat": 18.5761111,
      "lng": 97.7061111
    },
    {
      "cityName": "Hwesun",
      "lat": 18.9333333,
      "lng": 97.25
    },
    {
      "cityName": "Hwè-ün",
      "lat": 19.1666667,
      "lng": 97.7333333
    },
    {
      "cityName": "Hwè-wai",
      "lat": 19.3833333,
      "lng": 97.6833333
    },
    {
      "cityName": "Hwè-yao",
      "lat": 19.4666667,
      "lng": 97.7166667
    },
    {
      "cityName": "Hwunhose",
      "lat": 18.5986111,
      "lng": 97.6630556
    },
    {
      "cityName": "Inkabo-auk",
      "lat": 19.4166667,
      "lng": 96.9666667
    },
    {
      "cityName": "Ka-li-lya",
      "lat": 19.1666667,
      "lng": 97.2
    },
    {
      "cityName": "Ka-li-lya Karen",
      "lat": 19.1833333,
      "lng": 97.1833333
    },
    {
      "cityName": "Ka-lya-lo",
      "lat": 19.2,
      "lng": 97.1666667
    },
    {
      "cityName": "Kang Ti",
      "lat": 19.7,
      "lng": 97.4333333
    },
    {
      "cityName": "Kanna",
      "lat": 18.5966667,
      "lng": 97.4827778
    },
    {
      "cityName": "Kaphpe-hku",
      "lat": 19.6666667,
      "lng": 97.1
    },
    {
      "cityName": "Ka-pre",
      "lat": 19.3666667,
      "lng": 97.1333333
    },
    {
      "cityName": "Kapru",
      "lat": 19.3,
      "lng": 96.8333333
    },
    {
      "cityName": "Ka-pwè-hpo",
      "lat": 19.05,
      "lng": 97.1333333
    },
    {
      "cityName": "Ka-pwè",
      "lat": 19.0166667,
      "lng": 97.0666667
    },
    {
      "cityName": "Ka-ti-pu",
      "lat": 19.1,
      "lng": 97.0166667
    },
    {
      "cityName": "Kawnla",
      "lat": 19.65,
      "lng": 97.0166667
    },
    {
      "cityName": "Kawthudo",
      "lat": 18.85,
      "lng": 97.0833333
    },
    {
      "cityName": "Kawthuhkaw",
      "lat": 19.2333333,
      "lng": 96.9833333
    },
    {
      "cityName": "Kawtodo",
      "lat": 18.85,
      "lng": 97.1333333
    },
    {
      "cityName": "Kayao",
      "lat": 23.95,
      "lng": 96.85
    },
    {
      "cityName": "Ke-hki",
      "lat": 19.1333333,
      "lng": 97
    },
    {
      "cityName": "Kemapyu",
      "lat": 18.8166667,
      "lng": 97.3166667
    },
    {
      "cityName": "Kè-ma-taw",
      "lat": 19.0166667,
      "lng": 97.1833333
    },
    {
      "cityName": "Ki-hki-hpu",
      "lat": 19.0166667,
      "lng": 97.0833333
    },
    {
      "cityName": "Ki-lo-pra",
      "lat": 19.25,
      "lng": 97.0166667
    },
    {
      "cityName": "Kobawdo",
      "lat": 18.7666667,
      "lng": 97.2166667
    },
    {
      "cityName": "Ko-hso",
      "lat": 19.2,
      "lng": 97.0666667
    },
    {
      "cityName": "Ko-kra",
      "lat": 19.2333333,
      "lng": 97.1
    },
    {
      "cityName": "Kong Hsa",
      "lat": 19.7666667,
      "lng": 97.1666667
    },
    {
      "cityName": "Kong Hsut",
      "lat": 19.8,
      "lng": 97.2166667
    },
    {
      "cityName": "Kong Pyek",
      "lat": 19.8666667,
      "lng": 97.2333333
    },
    {
      "cityName": "Kosachi",
      "lat": 18.8833333,
      "lng": 97.05
    },
    {
      "cityName": "Kraw",
      "lat": 19.1833333,
      "lng": 97.1333333
    },
    {
      "cityName": "Kwachi",
      "lat": 18.95,
      "lng": 97
    },
    {
      "cityName": "Kwè-hsawdaw",
      "lat": 19.6166667,
      "lng": 97.0666667
    },
    {
      "cityName": "Kyala",
      "lat": 19.6166667,
      "lng": 96.9666667
    },
    {
      "cityName": "Kyaukhkaung",
      "lat": 19.1166667,
      "lng": 97.2166667
    },
    {
      "cityName": "Kyaukpeneo",
      "lat": 18.8333333,
      "lng": 97.3
    },
    {
      "cityName": "Kyauk-sè",
      "lat": 19.5833333,
      "lng": 97.15
    },
    {
      "cityName": "Kyauk-su",
      "lat": 19.6666667,
      "lng": 97.3
    },
    {
      "cityName": "Kyauktaing",
      "lat": 19.2166667,
      "lng": 97.5166667
    },
    {
      "cityName": "Kyebogyi",
      "lat": 19.35,
      "lng": 97.2333333
    },
    {
      "cityName": "La-hya-daw",
      "lat": 19.6833333,
      "lng": 97.0833333
    },
    {
      "cityName": "La-li-lè",
      "lat": 19.4833333,
      "lng": 97.25
    },
    {
      "cityName": "La-saw-wo-so",
      "lat": 19.4833333,
      "lng": 97.1833333
    },
    {
      "cityName": "Lawbya-ku",
      "lat": 19.4,
      "lng": 97.2166667
    },
    {
      "cityName": "Lawdawhku",
      "lat": 19.5833333,
      "lng": 97.1166667
    },
    {
      "cityName": "Lawhkawhku",
      "lat": 19.4666667,
      "lng": 97.1166667
    },
    {
      "cityName": "Lawhko-hku",
      "lat": 19.4166667,
      "lng": 97.1833333
    },
    {
      "cityName": "Lawku-hku",
      "lat": 19.2166667,
      "lng": 97.0166667
    },
    {
      "cityName": "Law-pi-ta",
      "lat": 19.55,
      "lng": 97.3166667
    },
    {
      "cityName": "Lawsa-hku",
      "lat": 19.45,
      "lng": 97.25
    },
    {
      "cityName": "Lawse-hku",
      "lat": 19.3166667,
      "lng": 97.2
    },
    {
      "cityName": "Lawsya",
      "lat": 19.3833333,
      "lng": 97.15
    },
    {
      "cityName": "La-yu-to",
      "lat": 19.2666667,
      "lng": 97.0666667
    },
    {
      "cityName": "Le-hoa-anhku",
      "lat": 19.5166667,
      "lng": 97.0166667
    },
    {
      "cityName": "Lelawti",
      "lat": 18.8,
      "lng": 97.1166667
    },
    {
      "cityName": "Lepo",
      "lat": 18.9333333,
      "lng": 97.0333333
    },
    {
      "cityName": "Likku-in",
      "lat": 19.6833333,
      "lng": 97.1166667
    },
    {
      "cityName": "Lin Hpong-long",
      "lat": 19.8833333,
      "lng": 97.25
    },
    {
      "cityName": "Linhpun",
      "lat": 19.7333333,
      "lng": 97.1833333
    },
    {
      "cityName": "Lobahku",
      "lat": 19.5333333,
      "lng": 96.95
    },
    {
      "cityName": "Loikaw",
      "lat": 19.6833333,
      "lng": 97.2166667
    },
    {
      "cityName": "Loi",
      "lat": 19.2666667,
      "lng": 97.5166667
    },
    {
      "cityName": "Loi Mun",
      "lat": 18.85,
      "lng": 97.4833333
    },
    {
      "cityName": "Loingum",
      "lat": 19.5666667,
      "lng": 97.1833333
    },
    {
      "cityName": "Loitawngkwetawk",
      "lat": 18.9166667,
      "lng": 97.4333333
    },
    {
      "cityName": "Lom Plu",
      "lat": 19.8333333,
      "lng": 97.4666667
    },
    {
      "cityName": "Lo-mu-hko",
      "lat": 19.1166667,
      "lng": 97.0333333
    },
    {
      "cityName": "Lomuko",
      "lat": 18.9833333,
      "lng": 97.1166667
    },
    {
      "cityName": "Longpenghku",
      "lat": 19.6,
      "lng": 97.05
    },
    {
      "cityName": "Lopu-hkaung-saung",
      "lat": 19.5666667,
      "lng": 96.95
    },
    {
      "cityName": "Lopu",
      "lat": 19.5666667,
      "lng": 96.9666667
    },
    {
      "cityName": "Lota",
      "lat": 18.6897222,
      "lng": 97.7608333
    },
    {
      "cityName": "Lway-ka-hti",
      "lat": 19.5666667,
      "lng": 97
    },
    {
      "cityName": "Lwè-daw",
      "lat": 19.7,
      "lng": 97.1
    },
    {
      "cityName": "Lya-du",
      "lat": 19.3333333,
      "lng": 97.15
    },
    {
      "cityName": "Mahku",
      "lat": 19.15,
      "lng": 97.1166667
    },
    {
      "cityName": "Ma-hsè-la",
      "lat": 19.55,
      "lng": 97.05
    },
    {
      "cityName": "Ma-htö-hku",
      "lat": 19.6,
      "lng": 97.3
    },
    {
      "cityName": "Mai-kang",
      "lat": 19.6,
      "lng": 97.3166667
    },
    {
      "cityName": "Mai-sa-lanhsi-hsawng",
      "lat": 19.1666667,
      "lng": 97.25
    },
    {
      "cityName": "Mai Tung-hsong",
      "lat": 19.8833333,
      "lng": 97.2833333
    },
    {
      "cityName": "Ma-nè-hku",
      "lat": 19.3833333,
      "lng": 97.4833333
    },
    {
      "cityName": "Mawchi",
      "lat": 18.8166667,
      "lng": 97.15
    },
    {
      "cityName": "Mawsachi",
      "lat": 18.7833333,
      "lng": 97.1833333
    },
    {
      "cityName": "Me-hawng",
      "lat": 19.5666667,
      "lng": 97.0833333
    },
    {
      "cityName": "Mè-hping",
      "lat": 19.8666667,
      "lng": 97.35
    },
    {
      "cityName": "Mè-hsa-tè",
      "lat": 19.55,
      "lng": 97.6333333
    },
    {
      "cityName": "Mepawa",
      "lat": 18.8333333,
      "lng": 97.4
    },
    {
      "cityName": "Mèsali",
      "lat": 18.7277778,
      "lng": 97.4675
    },
    {
      "cityName": "Mèsè Ale",
      "lat": 18.6744444,
      "lng": 97.6711111
    },
    {
      "cityName": "Mèsè Atet",
      "lat": 18.6063889,
      "lng": 97.7455556
    },
    {
      "cityName": "Mèsè Auk",
      "lat": 18.6044444,
      "lng": 97.7011111
    },
    {
      "cityName": "Mèsè",
      "lat": 18.6405556,
      "lng": 97.6588889
    },
    {
      "cityName": "Mesenan",
      "lat": 18.6980556,
      "lng": 97.4836111
    },
    {
      "cityName": "Mèsè Ywathit",
      "lat": 18.6558333,
      "lng": 97.6622222
    },
    {
      "cityName": "Mo-hso",
      "lat": 19.4166667,
      "lng": 97.1
    },
    {
      "cityName": "Mong Htang",
      "lat": 19.1166667,
      "lng": 97.3666667
    },
    {
      "cityName": "Möng Noi",
      "lat": 19.2,
      "lng": 97.3666667
    },
    {
      "cityName": "Mya-li-dawhku",
      "lat": 19.1166667,
      "lng": 97.3333333
    },
    {
      "cityName": "Myintabye",
      "lat": 18.6066667,
      "lng": 97.3686111
    },
    {
      "cityName": "Myoung-gwa",
      "lat": 19.6166667,
      "lng": 97.1833333
    },
    {
      "cityName": "Na-keng-awn",
      "lat": 19.7,
      "lng": 97.55
    },
    {
      "cityName": "Na-kenglong",
      "lat": 19.65,
      "lng": 97.6
    },
    {
      "cityName": "Namhumakpin",
      "lat": 18.9166667,
      "lng": 97.25
    },
    {
      "cityName": "Namhu",
      "lat": 18.6675,
      "lng": 97.4844444
    },
    {
      "cityName": "Namhu-twi",
      "lat": 19.5666667,
      "lng": 97.2333333
    },
    {
      "cityName": "Nam-kun",
      "lat": 19.6333333,
      "lng": 97.3166667
    },
    {
      "cityName": "Namlin",
      "lat": 19.1833333,
      "lng": 97.4666667
    },
    {
      "cityName": "Namman",
      "lat": 18.7066667,
      "lng": 97.6855556
    },
    {
      "cityName": "Nammaukom",
      "lat": 18.85,
      "lng": 97.2833333
    },
    {
      "cityName": "Namnao",
      "lat": 19.9333333,
      "lng": 97.3666667
    },
    {
      "cityName": "Namnaü",
      "lat": 19.05,
      "lng": 97.3666667
    },
    {
      "cityName": "Nam Pa-mong",
      "lat": 19.8333333,
      "lng": 97.3333333
    },
    {
      "cityName": "Nampinlin",
      "lat": 18.7327778,
      "lng": 97.4536111
    },
    {
      "cityName": "Nanmahu",
      "lat": 18.8166667,
      "lng": 97.2
    },
    {
      "cityName": "Nantuk",
      "lat": 18.8833333,
      "lng": 97.25
    },
    {
      "cityName": "Natgon",
      "lat": 18.6786111,
      "lng": 97.4863889
    },
    {
      "cityName": "Na-tit",
      "lat": 19.8833333,
      "lng": 97.2333333
    },
    {
      "cityName": "Nawngkeng",
      "lat": 18.7458333,
      "lng": 97.4477778
    },
    {
      "cityName": "Nawng Lom",
      "lat": 19.85,
      "lng": 97.2666667
    },
    {
      "cityName": "Nawnoi",
      "lat": 18.9833333,
      "lng": 97.2833333
    },
    {
      "cityName": "Nawnpakhi",
      "lat": 18.8833333,
      "lng": 97.2666667
    },
    {
      "cityName": "Ngwedaung",
      "lat": 19.5166667,
      "lng": 97.15
    },
    {
      "cityName": "No-hkaw",
      "lat": 19.6666667,
      "lng": 97.1666667
    },
    {
      "cityName": "No-ko",
      "lat": 19.7166667,
      "lng": 97.1666667
    },
    {
      "cityName": "No-ku-klaw",
      "lat": 19.65,
      "lng": 97.7333333
    },
    {
      "cityName": "No-pi",
      "lat": 19.65,
      "lng": 97.2166667
    },
    {
      "cityName": "Nwemu",
      "lat": 18.5608333,
      "lng": 97.4477778
    },
    {
      "cityName": "Nyawngweng",
      "lat": 19.0833333,
      "lng": 97.4833333
    },
    {
      "cityName": "Nye-bu-hku",
      "lat": 19.5,
      "lng": 97.2833333
    },
    {
      "cityName": "Pa-chem",
      "lat": 19.6666667,
      "lng": 97.2833333
    },
    {
      "cityName": "Pahalo Sakan",
      "lat": 18.9166667,
      "lng": 97.2166667
    },
    {
      "cityName": "Pakho",
      "lat": 18.7333333,
      "lng": 97.1166667
    },
    {
      "cityName": "Pa-kyè",
      "lat": 19.7333333,
      "lng": 97.2666667
    },
    {
      "cityName": "Pakyiko",
      "lat": 18.52,
      "lng": 97.4744444
    },
    {
      "cityName": "Pa-lao",
      "lat": 19.6666667,
      "lng": 97.4
    },
    {
      "cityName": "Pang Hathsai-long",
      "lat": 19.3333333,
      "lng": 97.4
    },
    {
      "cityName": "Pang Mai-hkao-lam",
      "lat": 19.2333333,
      "lng": 97.3166667
    },
    {
      "cityName": "Pangnamlong",
      "lat": 19.0666667,
      "lng": 97.45
    },
    {
      "cityName": "Pangsho",
      "lat": 19.2166667,
      "lng": 97.2333333
    },
    {
      "cityName": "Pang Wo-long",
      "lat": 19.4666667,
      "lng": 97.4166667
    },
    {
      "cityName": "Pang-yam",
      "lat": 19.6666667,
      "lng": 97.3333333
    },
    {
      "cityName": "Pantin Sakan",
      "lat": 18.6544444,
      "lng": 97.5641667
    },
    {
      "cityName": "Papu",
      "lat": 18.8833333,
      "lng": 97.3
    },
    {
      "cityName": "Pasawn",
      "lat": 18.8666667,
      "lng": 97.3
    },
    {
      "cityName": "Pawpomudo",
      "lat": 18.6833333,
      "lng": 97.1333333
    },
    {
      "cityName": "Pe-hki",
      "lat": 19.1333333,
      "lng": 97.0333333
    },
    {
      "cityName": "Pelaw Auk",
      "lat": 18.7333333,
      "lng": 97.1666667
    },
    {
      "cityName": "Pè-lè",
      "lat": 19.2333333,
      "lng": 97.4833333
    },
    {
      "cityName": "Pè-li",
      "lat": 19.1333333,
      "lng": 97.2666667
    },
    {
      "cityName": "Pelo",
      "lat": 18.7666667,
      "lng": 97.1333333
    },
    {
      "cityName": "Pi-lu",
      "lat": 19.2166667,
      "lng": 97.4833333
    },
    {
      "cityName": "Ping Chit",
      "lat": 19.9,
      "lng": 97.2
    },
    {
      "cityName": "Plè-lè",
      "lat": 19.2166667,
      "lng": 97.0333333
    },
    {
      "cityName": "Pong Hsa-sè",
      "lat": 19.65,
      "lng": 97.4
    },
    {
      "cityName": "Prè-lè",
      "lat": 19.2,
      "lng": 97.2166667
    },
    {
      "cityName": "Prè-sawhku",
      "lat": 19.15,
      "lng": 97.05
    },
    {
      "cityName": "Pre-taw",
      "lat": 19.25,
      "lng": 97.2333333
    },
    {
      "cityName": "Pru-hkaw",
      "lat": 19.4166667,
      "lng": 97.0166667
    },
    {
      "cityName": "Pru-so",
      "lat": 19.3333333,
      "lng": 97.1333333
    },
    {
      "cityName": "Punghsa-se",
      "lat": 19.1666667,
      "lng": 97.5333333
    },
    {
      "cityName": "Punlumbum",
      "lat": 26.25,
      "lng": 97.65
    },
    {
      "cityName": "Pusung",
      "lat": 18.6602778,
      "lng": 97.4905556
    },
    {
      "cityName": "Pwado",
      "lat": 18.8666667,
      "lng": 97.05
    },
    {
      "cityName": "Pya-mü-daw",
      "lat": 19.5833333,
      "lng": 97.1333333
    },
    {
      "cityName": "Ra-è-pra",
      "lat": 19.3333333,
      "lng": 97.0166667
    },
    {
      "cityName": "Ro-lè",
      "lat": 19.1166667,
      "lng": 97.25
    },
    {
      "cityName": "Rwan-ke",
      "lat": 19.6,
      "lng": 96.9833333
    },
    {
      "cityName": "Sa-aw-daw",
      "lat": 19.75,
      "lng": 97.1333333
    },
    {
      "cityName": "Sa-lawng",
      "lat": 19.6166667,
      "lng": 97.6
    },
    {
      "cityName": "Sang Hkam",
      "lat": 19.9833333,
      "lng": 97.2
    },
    {
      "cityName": "Sawdaw",
      "lat": 18.9333333,
      "lng": 97.0833333
    },
    {
      "cityName": "Sawkawkhido",
      "lat": 18.7333333,
      "lng": 97.1833333
    },
    {
      "cityName": "Sawnglaw",
      "lat": 18.9666667,
      "lng": 97.3333333
    },
    {
      "cityName": "Sawpahe",
      "lat": 18.6416667,
      "lng": 97.4922222
    },
    {
      "cityName": "Sawpalehko",
      "lat": 19.1333333,
      "lng": 96.9666667
    },
    {
      "cityName": "Sawpalikho Shawle",
      "lat": 19.1333333,
      "lng": 96.95
    },
    {
      "cityName": "Sawta-po",
      "lat": 19.0833333,
      "lng": 97.0833333
    },
    {
      "cityName": "Sehnamaing",
      "lat": 18.8666667,
      "lng": 97.1
    },
    {
      "cityName": "Shawlo",
      "lat": 18.9333333,
      "lng": 97.0666667
    },
    {
      "cityName": "Sholo",
      "lat": 18.8666667,
      "lng": 97.1666667
    },
    {
      "cityName": "Sinbyu",
      "lat": 18.8666667,
      "lng": 97.3333333
    },
    {
      "cityName": "So-lya-hku",
      "lat": 19.45,
      "lng": 97.1166667
    },
    {
      "cityName": "Soppa",
      "lat": 18.8166667,
      "lng": 97.4333333
    },
    {
      "cityName": "Sopwa",
      "lat": 18.8666667,
      "lng": 97.4666667
    },
    {
      "cityName": "Swapa",
      "lat": 18.8833333,
      "lng": 97.1666667
    },
    {
      "cityName": "Swekale",
      "lat": 18.75,
      "lng": 97.1833333
    },
    {
      "cityName": "Tabanlè",
      "lat": 19.1333333,
      "lng": 97.5166667
    },
    {
      "cityName": "Ta-hkè-pra-lè",
      "lat": 19.4333333,
      "lng": 97.5
    },
    {
      "cityName": "Ta-hkli-daw",
      "lat": 19.5166667,
      "lng": 97.05
    },
    {
      "cityName": "Ta Ho-hta",
      "lat": 19.1,
      "lng": 97.5
    },
    {
      "cityName": "Ta-ka-lè-hso",
      "lat": 19.2833333,
      "lng": 97.1333333
    },
    {
      "cityName": "Ta-lai-long",
      "lat": 19.15,
      "lng": 97.2666667
    },
    {
      "cityName": "Ta-la-le",
      "lat": 19.5333333,
      "lng": 97.15
    },
    {
      "cityName": "Talalo",
      "lat": 18.85,
      "lng": 97.2166667
    },
    {
      "cityName": "Ta-lè-hkrè",
      "lat": 19.25,
      "lng": 97.0666667
    },
    {
      "cityName": "Ta-longlao",
      "lat": 19.2,
      "lng": 97.3166667
    },
    {
      "cityName": "Tamohku",
      "lat": 19.3833333,
      "lng": 96.9333333
    },
    {
      "cityName": "Ta-mö-lè",
      "lat": 19.55,
      "lng": 97.0833333
    },
    {
      "cityName": "Ta-mö-pwè",
      "lat": 19.1,
      "lng": 97
    },
    {
      "cityName": "Ta-ni-la-lè",
      "lat": 19.5166667,
      "lng": 97.2333333
    },
    {
      "cityName": "Ta Nyawnghkam",
      "lat": 19.1833333,
      "lng": 97.5333333
    },
    {
      "cityName": "Ta-pu-nan",
      "lat": 19.2833333,
      "lng": 97.4166667
    },
    {
      "cityName": "Ta Ta-plu",
      "lat": 19.6333333,
      "lng": 97.2666667
    },
    {
      "cityName": "Ta-tawmaw",
      "lat": 19.6166667,
      "lng": 97.6166667
    },
    {
      "cityName": "Tat Wa",
      "lat": 19.8333333,
      "lng": 97.4333333
    },
    {
      "cityName": "Taungoh",
      "lat": 18.6022222,
      "lng": 97.7205556
    },
    {
      "cityName": "Tawhku",
      "lat": 19,
      "lng": 97.3
    },
    {
      "cityName": "Te-hprawhku",
      "lat": 19.7166667,
      "lng": 97.2166667
    },
    {
      "cityName": "Te-kya",
      "lat": 19.2833333,
      "lng": 97.0333333
    },
    {
      "cityName": "Thalawlo",
      "lat": 18.95,
      "lng": 97.1666667
    },
    {
      "cityName": "Thawilo",
      "lat": 18.95,
      "lng": 97.1833333
    },
    {
      "cityName": "Tikakhi",
      "lat": 18.7,
      "lng": 97.1666667
    },
    {
      "cityName": "Ti-ku-lè",
      "lat": 19.2833333,
      "lng": 97.1
    },
    {
      "cityName": "Tilawhsu",
      "lat": 19.55,
      "lng": 97
    },
    {
      "cityName": "Tinloi-pu-la-wa",
      "lat": 19.7166667,
      "lng": 97.5666667
    },
    {
      "cityName": "Ti-ta",
      "lat": 19.5833333,
      "lng": 97.2
    },
    {
      "cityName": "Todoleko",
      "lat": 18.8,
      "lng": 97.1
    },
    {
      "cityName": "To-long",
      "lat": 19.8833333,
      "lng": 97.3
    },
    {
      "cityName": "Tum Kai",
      "lat": 19.7666667,
      "lng": 97.2333333
    },
    {
      "cityName": "Tun Kwi",
      "lat": 19.8333333,
      "lng": 97.2166667
    },
    {
      "cityName": "Wan Ai-num",
      "lat": 19.05,
      "lng": 97.45
    },
    {
      "cityName": "Wana",
      "lat": 18.5422222,
      "lng": 97.5072222
    },
    {
      "cityName": "Wanche",
      "lat": 19.1,
      "lng": 97.35
    },
    {
      "cityName": "Wan Hkang",
      "lat": 19.2,
      "lng": 97.4666667
    },
    {
      "cityName": "Wan Hkawnghtwa",
      "lat": 19.15,
      "lng": 97.4333333
    },
    {
      "cityName": "Wan Ho-ha",
      "lat": 19.5666667,
      "lng": 97.7166667
    },
    {
      "cityName": "Wan Ho-hta",
      "lat": 19.8166667,
      "lng": 97.15
    },
    {
      "cityName": "Wan Hpi-hai",
      "lat": 19.0166667,
      "lng": 97.45
    },
    {
      "cityName": "Wan Hsa-hkyawng",
      "lat": 19.25,
      "lng": 97.5333333
    },
    {
      "cityName": "Wan Hsai-lon",
      "lat": 19.55,
      "lng": 97.75
    },
    {
      "cityName": "Wan Hsa-tawtao",
      "lat": 19.6166667,
      "lng": 97.5166667
    },
    {
      "cityName": "Wan Hson-kwe",
      "lat": 19.65,
      "lng": 97.5166667
    },
    {
      "cityName": "Wan Hsoppai",
      "lat": 19.1333333,
      "lng": 97.55
    },
    {
      "cityName": "Wan Hsu-le",
      "lat": 19.25,
      "lng": 97.6833333
    },
    {
      "cityName": "Wan Hsuppawn",
      "lat": 19.0833333,
      "lng": 97.2666667
    },
    {
      "cityName": "Wan Hwa-pung",
      "lat": 19.2833333,
      "lng": 97.55
    },
    {
      "cityName": "Wan Hwe-aw",
      "lat": 19.1666667,
      "lng": 97.65
    },
    {
      "cityName": "Wan Hwebaung",
      "lat": 19.2166667,
      "lng": 97.65
    },
    {
      "cityName": "Wan Hwe-heng",
      "lat": 19.5833333,
      "lng": 97.6833333
    },
    {
      "cityName": "Wan Hwe-hka-no",
      "lat": 19.0983333,
      "lng": 97.7822222
    },
    {
      "cityName": "Wan Hwe-ho",
      "lat": 19.65,
      "lng": 97.5666667
    },
    {
      "cityName": "Wan Hwe-hpak-kat-nek",
      "lat": 19.4333333,
      "lng": 97.7333333
    },
    {
      "cityName": "Wan Hwe-hpakkatnok",
      "lat": 19.3152778,
      "lng": 97.8066667
    },
    {
      "cityName": "Wan Hwe-hsai",
      "lat": 19.5988889,
      "lng": 97.7611111
    },
    {
      "cityName": "Wan Hwe-la-bu-le",
      "lat": 19.2936111,
      "lng": 97.8136111
    },
    {
      "cityName": "Wan Hwe-man",
      "lat": 19.6666667,
      "lng": 97.55
    },
    {
      "cityName": "Wan Hwe-miao",
      "lat": 19.2666667,
      "lng": 97.6666667
    },
    {
      "cityName": "Wan Hwe-mong",
      "lat": 19.2166667,
      "lng": 97.7
    },
    {
      "cityName": "Wan Hwe-na-awn",
      "lat": 19.4766667,
      "lng": 97.8394444
    },
    {
      "cityName": "Wan Hwe-namhsawm",
      "lat": 19.6,
      "lng": 97.5333333
    },
    {
      "cityName": "Wan Hwe-nawbo-le",
      "lat": 19.35,
      "lng": 97.7333333
    },
    {
      "cityName": "Wan I-sam",
      "lat": 19.655,
      "lng": 97.7711111
    },
    {
      "cityName": "Wan Kang",
      "lat": 19.9166667,
      "lng": 97.35
    },
    {
      "cityName": "Wan Kawngpe",
      "lat": 19.6447222,
      "lng": 97.7733333
    },
    {
      "cityName": "Wan Ko-sa-pa",
      "lat": 19.0666667,
      "lng": 97.4666667
    },
    {
      "cityName": "Wan Kyaukpet",
      "lat": 19.35,
      "lng": 97.6166667
    },
    {
      "cityName": "Wan La-htawhku",
      "lat": 19.3333333,
      "lng": 97.6666667
    },
    {
      "cityName": "Wan Lao",
      "lat": 19.1166667,
      "lng": 97.2666667
    },
    {
      "cityName": "Wan Loi-mongmong",
      "lat": 19.5094444,
      "lng": 97.8755556
    },
    {
      "cityName": "Wan Loi-nanghpa",
      "lat": 19.5833333,
      "lng": 97.0833333
    },
    {
      "cityName": "Wan Long",
      "lat": 19.55,
      "lng": 97.7
    },
    {
      "cityName": "Wan Lu-li",
      "lat": 19.65,
      "lng": 97.35
    },
    {
      "cityName": "Wan Lu-pe",
      "lat": 19.3666667,
      "lng": 97.7333333
    },
    {
      "cityName": "Wan Manbalaing",
      "lat": 19.15,
      "lng": 97.5
    },
    {
      "cityName": "Wan Mau",
      "lat": 19.1666667,
      "lng": 97.5
    },
    {
      "cityName": "Wan Na-awn",
      "lat": 19.0838889,
      "lng": 97.7680556
    },
    {
      "cityName": "Wan Na-henghkam",
      "lat": 19.3913889,
      "lng": 97.7847222
    },
    {
      "cityName": "Wan Na-mon",
      "lat": 19.3666667,
      "lng": 97.4833333
    },
    {
      "cityName": "Wan Namsa-lan",
      "lat": 19.1166667,
      "lng": 97.4833333
    },
    {
      "cityName": "Wan Na-namsang",
      "lat": 19.6,
      "lng": 97.5166667
    },
    {
      "cityName": "Wan Nawla",
      "lat": 19.3,
      "lng": 97.6666667
    },
    {
      "cityName": "Wan Nga-sang",
      "lat": 19.45,
      "lng": 97.6333333
    },
    {
      "cityName": "Wan Ngawn",
      "lat": 19.9,
      "lng": 97.3333333
    },
    {
      "cityName": "Wan Om-tung",
      "lat": 19.8833333,
      "lng": 97.2666667
    },
    {
      "cityName": "Wan Pa-Hpyet",
      "lat": 19.2333333,
      "lng": 97.5333333
    },
    {
      "cityName": "Wan Panghak",
      "lat": 19.4569444,
      "lng": 97.8127778
    },
    {
      "cityName": "Wan Pangnwat",
      "lat": 19.1166667,
      "lng": 97.45
    },
    {
      "cityName": "Wanpla Wankong",
      "lat": 19.0166667,
      "lng": 97.4833333
    },
    {
      "cityName": "Wanpla",
      "lat": 19.0333333,
      "lng": 97.4833333
    },
    {
      "cityName": "Wan Ponglao",
      "lat": 19.195,
      "lng": 97.8152778
    },
    {
      "cityName": "Wan Sa-le",
      "lat": 19.9,
      "lng": 97.3166667
    },
    {
      "cityName": "Wan Sa-rai",
      "lat": 19.2552778,
      "lng": 97.8058333
    },
    {
      "cityName": "Wan Sa-re-aw",
      "lat": 19.5666667,
      "lng": 97.15
    },
    {
      "cityName": "Wan Ta-hku",
      "lat": 19.35,
      "lng": 97.45
    },
    {
      "cityName": "Wan Ta-la",
      "lat": 19.2333333,
      "lng": 97.5166667
    },
    {
      "cityName": "Wan Tau",
      "lat": 19.8166667,
      "lng": 97.5833333
    },
    {
      "cityName": "Wan Tumkai",
      "lat": 19.6177778,
      "lng": 97.7594444
    },
    {
      "cityName": "Wan Ung-sang",
      "lat": 19.8833333,
      "lng": 97.1833333
    },
    {
      "cityName": "Wan Yang",
      "lat": 19.4483333,
      "lng": 97.7638889
    },
    {
      "cityName": "Wataki",
      "lat": 18.8258333,
      "lng": 97.735
    },
    {
      "cityName": "We-ban-hku",
      "lat": 19.55,
      "lng": 97.0166667
    },
    {
      "cityName": "Wè-kle-hku",
      "lat": 19.35,
      "lng": 97.0666667
    },
    {
      "cityName": "Wem Ban-hku",
      "lat": 19.5666667,
      "lng": 97.0333333
    },
    {
      "cityName": "Wè-sü-hso",
      "lat": 19.5833333,
      "lng": 97.3333333
    },
    {
      "cityName": "Wewa Dako",
      "lat": 19.0333333,
      "lng": 96.95
    },
    {
      "cityName": "Wi-sa-ku",
      "lat": 19.7,
      "lng": 97.1166667
    },
    {
      "cityName": "Wisalaw",
      "lat": 18.6869444,
      "lng": 97.7391667
    },
    {
      "cityName": "Yahku",
      "lat": 19.5166667,
      "lng": 96.9
    },
    {
      "cityName": "Yataka",
      "lat": 18.9666667,
      "lng": 97.1166667
    },
    {
      "cityName": "Yawpa-hku",
      "lat": 19.25,
      "lng": 97.0833333
    },
    {
      "cityName": "Ye-hkaw",
      "lat": 19.1,
      "lng": 97.05
    },
    {
      "cityName": "Ye-yo",
      "lat": 19.7166667,
      "lng": 97.1833333
    },
    {
      "cityName": "Yu-pra",
      "lat": 19.3,
      "lng": 97.05
    },
    {
      "cityName": "Yu-so-pra",
      "lat": 19.3166667,
      "lng": 97.0166667
    },
    {
      "cityName": "Zayat",
      "lat": 19.0333333,
      "lng": 97.3333333
    },
    {
      "cityName": "Zisawng",
      "lat": 19.4333333,
      "lng": 96.9833333
    }
  ]
}