{
  "name": "Mandalay",
  "cities": [
    {
      "cityName": "Aingbok",
      "lat": 20.4666667,
      "lng": 95.9833333
    },
    {
      "cityName": "Aingdaing",
      "lat": 22.1166667,
      "lng": 96.0166667
    },
    {
      "cityName": "Aingdo",
      "lat": 20.3666667,
      "lng": 95.9333333
    },
    {
      "cityName": "Ainggye",
      "lat": 19.6833333,
      "lng": 96.1166667
    },
    {
      "cityName": "Ainggyi",
      "lat": 21.2166667,
      "lng": 95.1333333
    },
    {
      "cityName": "Ainggyile Okshitkon",
      "lat": 20.7666667,
      "lng": 95.9833333
    },
    {
      "cityName": "Ainggyi West",
      "lat": 21.2166667,
      "lng": 95.1166667
    },
    {
      "cityName": "Aingma",
      "lat": 20.8666667,
      "lng": 95.45
    },
    {
      "cityName": "Aingmayo",
      "lat": 21.15,
      "lng": 95.6333333
    },
    {
      "cityName": "Aingtha",
      "lat": 21.1166667,
      "lng": 95.95
    },
    {
      "cityName": "Aingywa",
      "lat": 20.7,
      "lng": 95.1833333
    },
    {
      "cityName": "Aingzauk",
      "lat": 19.7666667,
      "lng": 96.25
    },
    {
      "cityName": "Alanbe",
      "lat": 21.2166667,
      "lng": 95.8333333
    },
    {
      "cityName": "Alebon",
      "lat": 22.1833333,
      "lng": 96.1166667
    },
    {
      "cityName": "Alegan",
      "lat": 21,
      "lng": 96.15
    },
    {
      "cityName": "Alegon",
      "lat": 20.35,
      "lng": 96.1333333
    },
    {
      "cityName": "Alegyaung",
      "lat": 19.5,
      "lng": 96.6166667
    },
    {
      "cityName": "Alegyaung Atet",
      "lat": 19.4833333,
      "lng": 96.5833333
    },
    {
      "cityName": "Alegyun",
      "lat": 19.5333333,
      "lng": 96.3
    },
    {
      "cityName": "Aleywa",
      "lat": 20.7666667,
      "lng": 95.7833333
    },
    {
      "cityName": "Alezu",
      "lat": 22.4333333,
      "lng": 95.9833333
    },
    {
      "cityName": "Amarapura",
      "lat": 21.9,
      "lng": 96.05
    },
    {
      "cityName": "Amherst",
      "lat": 22.55,
      "lng": 96
    },
    {
      "cityName": "Amyaunggan",
      "lat": 20.7,
      "lng": 95.0166667
    },
    {
      "cityName": "Anauk Wunbade",
      "lat": 21.7333333,
      "lng": 96.0166667
    },
    {
      "cityName": "Andaing",
      "lat": 21.1833333,
      "lng": 94.9666667
    },
    {
      "cityName": "Anein",
      "lat": 21.5333333,
      "lng": 95.3666667
    },
    {
      "cityName": "Aneintaunggyun",
      "lat": 21.5166667,
      "lng": 95.3666667
    },
    {
      "cityName": "Anisakan",
      "lat": 21.9666667,
      "lng": 96.4166667
    },
    {
      "cityName": "Antu",
      "lat": 20.9166667,
      "lng": 95.8
    },
    {
      "cityName": "Ashebette",
      "lat": 21.1166667,
      "lng": 95.45
    },
    {
      "cityName": "Ashebyin",
      "lat": 21.9833333,
      "lng": 96.1166667
    },
    {
      "cityName": "Ashe-magyibin",
      "lat": 21.1833333,
      "lng": 95.4333333
    },
    {
      "cityName": "Ashe Wunbade",
      "lat": 21.7333333,
      "lng": 96
    },
    {
      "cityName": "Ason",
      "lat": 21.0333333,
      "lng": 95.6
    },
    {
      "cityName": "Atet-nyin",
      "lat": 21.25,
      "lng": 95.0333333
    },
    {
      "cityName": "Athingon",
      "lat": 19.6833333,
      "lng": 96.3333333
    },
    {
      "cityName": "Aungbangon",
      "lat": 21.35,
      "lng": 95.65
    },
    {
      "cityName": "Aungbauk",
      "lat": 21.3,
      "lng": 96.3166667
    },
    {
      "cityName": "Aungbaw",
      "lat": 21.75,
      "lng": 95.4333333
    },
    {
      "cityName": "Aungbinle",
      "lat": 21.95,
      "lng": 96.1333333
    },
    {
      "cityName": "Aungchantha",
      "lat": 21.6333333,
      "lng": 95.7
    },
    {
      "cityName": "Aunggon",
      "lat": 19.6666667,
      "lng": 96.25
    },
    {
      "cityName": "Aunggyigon",
      "lat": 19.65,
      "lng": 95.9833333
    },
    {
      "cityName": "Aungmin",
      "lat": 19.7,
      "lng": 96
    },
    {
      "cityName": "Aungtha",
      "lat": 19.5,
      "lng": 96.1333333
    },
    {
      "cityName": "Aungtha North",
      "lat": 21.5666667,
      "lng": 95.9833333
    },
    {
      "cityName": "Aungtha South",
      "lat": 21.2333333,
      "lng": 95.8166667
    },
    {
      "cityName": "Awzachan",
      "lat": 20.95,
      "lng": 95.55
    },
    {
      "cityName": "Ayadaw",
      "lat": 20.9166667,
      "lng": 94.9833333
    },
    {
      "cityName": "Ayinlo",
      "lat": 19.7166667,
      "lng": 96.1833333
    },
    {
      "cityName": "Ba-battiya",
      "lat": 22.05,
      "lng": 96.45
    },
    {
      "cityName": "Badazo",
      "lat": 21.1833333,
      "lng": 95.7833333
    },
    {
      "cityName": "Bagan",
      "lat": 21.3666667,
      "lng": 95.4666667
    },
    {
      "cityName": "Bahet",
      "lat": 21.5666667,
      "lng": 95.6833333
    },
    {
      "cityName": "Balon",
      "lat": 20.7666667,
      "lng": 95.4166667
    },
    {
      "cityName": "Banaw",
      "lat": 21.8,
      "lng": 96.0166667
    },
    {
      "cityName": "Bandauk",
      "lat": 22.3666667,
      "lng": 96.3166667
    },
    {
      "cityName": "Bantha",
      "lat": 21.9333333,
      "lng": 96.6
    },
    {
      "cityName": "Baw",
      "lat": 20.15,
      "lng": 96.2666667
    },
    {
      "cityName": "Bawgata Atet",
      "lat": 19.5333333,
      "lng": 96.6
    },
    {
      "cityName": "Bawhlaing",
      "lat": 20.1166667,
      "lng": 96.25
    },
    {
      "cityName": "Bawkada Ale",
      "lat": 19.55,
      "lng": 96.6166667
    },
    {
      "cityName": "Bawkada Auk",
      "lat": 19.55,
      "lng": 96.5833333
    },
    {
      "cityName": "Begon",
      "lat": 19.7833333,
      "lng": 96.2
    },
    {
      "cityName": "Beindaga",
      "lat": 20.6166667,
      "lng": 96.1833333
    },
    {
      "cityName": "Beingwe",
      "lat": 21.1,
      "lng": 96.0333333
    },
    {
      "cityName": "Bilin",
      "lat": 21.6833333,
      "lng": 96.15
    },
    {
      "cityName": "Bingwa",
      "lat": 20.7833333,
      "lng": 95.05
    },
    {
      "cityName": "Bingyidaw",
      "lat": 21.3166667,
      "lng": 95.6833333
    },
    {
      "cityName": "Bodetkon",
      "lat": 21.9333333,
      "lng": 96.15
    },
    {
      "cityName": "Bogon",
      "lat": 20.6333333,
      "lng": 95.6
    },
    {
      "cityName": "Bogyi-kyun",
      "lat": 22.2666667,
      "lng": 96
    },
    {
      "cityName": "Bok",
      "lat": 22.0833333,
      "lng": 96.2
    },
    {
      "cityName": "Bokkon",
      "lat": 21.2166667,
      "lng": 95.9333333
    },
    {
      "cityName": "Boma Ale",
      "lat": 19.55,
      "lng": 96.5
    },
    {
      "cityName": "Boma Ywama",
      "lat": 19.5666667,
      "lng": 96.5333333
    },
    {
      "cityName": "Bondalok",
      "lat": 20.7166667,
      "lng": 96.05
    },
    {
      "cityName": "Bongwin",
      "lat": 21.4166667,
      "lng": 96.2666667
    },
    {
      "cityName": "Bono",
      "lat": 20.8666667,
      "lng": 95.7
    },
    {
      "cityName": "Bon-o",
      "lat": 21.8666667,
      "lng": 96.0333333
    },
    {
      "cityName": "Bonthagon",
      "lat": 22.4666667,
      "lng": 95.9833333
    },
    {
      "cityName": "Bonzukan",
      "lat": 20.8333333,
      "lng": 95.8333333
    },
    {
      "cityName": "Bo-so-kôn",
      "lat": 22.1166667,
      "lng": 96.5
    },
    {
      "cityName": "Boyaywa",
      "lat": 21.9333333,
      "lng": 96.1
    },
    {
      "cityName": "Bu-da-ywa",
      "lat": 22.1166667,
      "lng": 96.6
    },
    {
      "cityName": "Bugaing",
      "lat": 21.4666667,
      "lng": 95.6
    },
    {
      "cityName": "Bumeindaya",
      "lat": 22.1,
      "lng": 96.0666667
    },
    {
      "cityName": "Buthigyin",
      "lat": 21.45,
      "lng": 95.65
    },
    {
      "cityName": "Bwasaw",
      "lat": 21.15,
      "lng": 94.9
    },
    {
      "cityName": "Bwegya",
      "lat": 20.9333333,
      "lng": 96.0666667
    },
    {
      "cityName": "Bwetnge",
      "lat": 21.25,
      "lng": 95.6166667
    },
    {
      "cityName": "Bwetywa",
      "lat": 20.4,
      "lng": 96.2666667
    },
    {
      "cityName": "Byaing-in",
      "lat": 20.15,
      "lng": 96.2333333
    },
    {
      "cityName": "Byaingmabyu",
      "lat": 21.1833333,
      "lng": 95.3666667
    },
    {
      "cityName": "Byangyi",
      "lat": 19.5666667,
      "lng": 96.25
    },
    {
      "cityName": "Byaunglu",
      "lat": 19.95,
      "lng": 96.2
    },
    {
      "cityName": "Byibôn",
      "lat": 22.3333333,
      "lng": 96.25
    },
    {
      "cityName": "Byingat",
      "lat": 20.4166667,
      "lng": 96.25
    },
    {
      "cityName": "Byingye",
      "lat": 19.6166667,
      "lng": 96.4666667
    },
    {
      "cityName": "Byingyi",
      "lat": 21.3833333,
      "lng": 96.0666667
    },
    {
      "cityName": "Chaukkan",
      "lat": 21.0833333,
      "lng": 95.0166667
    },
    {
      "cityName": "Chaukkwe",
      "lat": 20.9333333,
      "lng": 95.9833333
    },
    {
      "cityName": "Chaukpin",
      "lat": 20.85,
      "lng": 95.9166667
    },
    {
      "cityName": "Chaukywa",
      "lat": 22.1666667,
      "lng": 96.1
    },
    {
      "cityName": "Chaungbauk",
      "lat": 21.3666667,
      "lng": 95.2833333
    },
    {
      "cityName": "Chaungbya",
      "lat": 20.3833333,
      "lng": 96.3333333
    },
    {
      "cityName": "Chaungbyu",
      "lat": 20.5833333,
      "lng": 96.4666667
    },
    {
      "cityName": "Chaungcha",
      "lat": 21.95,
      "lng": 96.5833333
    },
    {
      "cityName": "Chaungdaung",
      "lat": 21.4666667,
      "lng": 95.4
    },
    {
      "cityName": "Chaungdaung South",
      "lat": 21.45,
      "lng": 95.4
    },
    {
      "cityName": "Chaunggwa",
      "lat": 19.5166667,
      "lng": 95.9166667
    },
    {
      "cityName": "Chaunggya",
      "lat": 20.7333333,
      "lng": 95.2166667
    },
    {
      "cityName": "Chaunggyauk",
      "lat": 20.5333333,
      "lng": 96.5
    },
    {
      "cityName": "Chaunggyi",
      "lat": 22.7333333,
      "lng": 96.0166667
    },
    {
      "cityName": "Chaungkangyi",
      "lat": 19.7333333,
      "lng": 96.3
    },
    {
      "cityName": "Chaungle",
      "lat": 21.6833333,
      "lng": 95.55
    },
    {
      "cityName": "Chaung-lon",
      "lat": 22.0666667,
      "lng": 96.5833333
    },
    {
      "cityName": "Chaungmagyi",
      "lat": 19.8333333,
      "lng": 96.1166667
    },
    {
      "cityName": "Chaungmange",
      "lat": 19.7833333,
      "lng": 95.95
    },
    {
      "cityName": "Chaungna",
      "lat": 20.85,
      "lng": 95.8
    },
    {
      "cityName": "Chaungshi",
      "lat": 21.0166667,
      "lng": 94.9833333
    },
    {
      "cityName": "Chaungwin",
      "lat": 21.1833333,
      "lng": 95.5333333
    },
    {
      "cityName": "Chaungywa",
      "lat": 22.5,
      "lng": 96
    },
    {
      "cityName": "Chaungzauk",
      "lat": 19.8,
      "lng": 96.2166667
    },
    {
      "cityName": "Chaungzon",
      "lat": 21.0166667,
      "lng": 95.8166667
    },
    {
      "cityName": "Chaungzu",
      "lat": 19.6833333,
      "lng": 95.9333333
    },
    {
      "cityName": "Chinbyit",
      "lat": 19.7166667,
      "lng": 95.9666667
    },
    {
      "cityName": "Chinbyitkyin",
      "lat": 21.6333333,
      "lng": 95.5333333
    },
    {
      "cityName": "Chinthelet",
      "lat": 21.2666667,
      "lng": 96.1
    },
    {
      "cityName": "Chinyadaung",
      "lat": 21.1166667,
      "lng": 95.2166667
    },
    {
      "cityName": "Chinywa",
      "lat": 21.8333333,
      "lng": 96.0166667
    },
    {
      "cityName": "Chinzu",
      "lat": 20.2833333,
      "lng": 96.3
    },
    {
      "cityName": "Chize",
      "lat": 21.4,
      "lng": 95.4333333
    },
    {
      "cityName": "Chon",
      "lat": 19.9166667,
      "lng": 96.3333333
    },
    {
      "cityName": "Chongyi",
      "lat": 21.3166667,
      "lng": 95.4
    },
    {
      "cityName": "Chonzun",
      "lat": 20.9833333,
      "lng": 95.9333333
    },
    {
      "cityName": "Dahat",
      "lat": 21.2833333,
      "lng": 95.8166667
    },
    {
      "cityName": "Dahatkon",
      "lat": 20.75,
      "lng": 95.25
    },
    {
      "cityName": "Dahatsi",
      "lat": 20.95,
      "lng": 95.0833333
    },
    {
      "cityName": "Dahattaw",
      "lat": 20.1833333,
      "lng": 96.2666667
    },
    {
      "cityName": "Dainggaungkon",
      "lat": 21.2,
      "lng": 96.0333333
    },
    {
      "cityName": "Daingle",
      "lat": 21.3666667,
      "lng": 95.7833333
    },
    {
      "cityName": "Dalangyun",
      "lat": 19.65,
      "lng": 95.7666667
    },
    {
      "cityName": "Dandaing",
      "lat": 21.2666667,
      "lng": 95.5
    },
    {
      "cityName": "Dangyin",
      "lat": 20.8,
      "lng": 95.3166667
    },
    {
      "cityName": "Dathwe",
      "lat": 20.4166667,
      "lng": 96.3166667
    },
    {
      "cityName": "Dathwe-kyauk",
      "lat": 21.9166667,
      "lng": 96.3666667
    },
    {
      "cityName": "Daungbo",
      "lat": 21.3666667,
      "lng": 95.7333333
    },
    {
      "cityName": "Daunggyigwe",
      "lat": 21.7833333,
      "lng": 96.1666667
    },
    {
      "cityName": "Daungle",
      "lat": 20.9833333,
      "lng": 95.1833333
    },
    {
      "cityName": "Daungthit",
      "lat": 21.4166667,
      "lng": 95.3166667
    },
    {
      "cityName": "Daungu",
      "lat": 21.4666667,
      "lng": 95.8833333
    },
    {
      "cityName": "Dawa",
      "lat": 20.8333333,
      "lng": 95.05
    },
    {
      "cityName": "Dawe",
      "lat": 21.5833333,
      "lng": 96.1666667
    },
    {
      "cityName": "Dawe-in",
      "lat": 21.3333333,
      "lng": 96.3
    },
    {
      "cityName": "Daw-wa-kyaung",
      "lat": 22.1666667,
      "lng": 96.3166667
    },
    {
      "cityName": "Dayaukku",
      "lat": 20.1666667,
      "lng": 96.2666667
    },
    {
      "cityName": "Dayegaung",
      "lat": 21.4833333,
      "lng": 96.0666667
    },
    {
      "cityName": "Didok",
      "lat": 20.9833333,
      "lng": 95.3833333
    },
    {
      "cityName": "Didokkon",
      "lat": 20.5,
      "lng": 95.8
    },
    {
      "cityName": "Diga",
      "lat": 22.3666667,
      "lng": 96.1333333
    },
    {
      "cityName": "Dingagyun",
      "lat": 22.1,
      "lng": 96.0333333
    },
    {
      "cityName": "Dongon",
      "lat": 21.1166667,
      "lng": 96.1
    },
    {
      "cityName": "Donwe",
      "lat": 19.6666667,
      "lng": 96.05
    },
    {
      "cityName": "Do-oin",
      "lat": 22.0666667,
      "lng": 96.4166667
    },
    {
      "cityName": "Dulabo",
      "lat": 21.5,
      "lng": 95.55
    },
    {
      "cityName": "Duwun",
      "lat": 21.5166667,
      "lng": 95.4666667
    },
    {
      "cityName": "Dwehla",
      "lat": 21.6333333,
      "lng": 96.0166667
    },
    {
      "cityName": "Ebya",
      "lat": 21.7666667,
      "lng": 96.15
    },
    {
      "cityName": "Eino",
      "lat": 20.7166667,
      "lng": 95.25
    },
    {
      "cityName": "Eka",
      "lat": 20.8333333,
      "lng": 96.4
    },
    {
      "cityName": "Ela",
      "lat": 19.6166667,
      "lng": 96.2166667
    },
    {
      "cityName": "Eywa",
      "lat": 21.1166667,
      "lng": 95.35
    },
    {
      "cityName": "Fort Dufferin",
      "lat": 21.9833333,
      "lng": 96.1
    },
    {
      "cityName": "Gamondaung",
      "lat": 19.8,
      "lng": 96.4666667
    },
    {
      "cityName": "Gatkon Anauk",
      "lat": 20.0166667,
      "lng": 96.2
    },
    {
      "cityName": "Gatkon Ashe",
      "lat": 20.0166667,
      "lng": 96.2166667
    },
    {
      "cityName": "Gaunggwe",
      "lat": 21.5,
      "lng": 95.3833333
    },
    {
      "cityName": "Gaungsegan",
      "lat": 21.1166667,
      "lng": 95.5166667
    },
    {
      "cityName": "Gaungsin",
      "lat": 21.7166667,
      "lng": 95.5666667
    },
    {
      "cityName": "Gegyi",
      "lat": 20.5,
      "lng": 95.7833333
    },
    {
      "cityName": "Gonywa",
      "lat": 21.1833333,
      "lng": 96.15
    },
    {
      "cityName": "Gweaing",
      "lat": 20.8833333,
      "lng": 95.6666667
    },
    {
      "cityName": "Gwe bin ayaung",
      "lat": 20.6333333,
      "lng": 95.6166667
    },
    {
      "cityName": "Gwebin",
      "lat": 20.0833333,
      "lng": 96.1833333
    },
    {
      "cityName": "Gwebintha",
      "lat": 21.45,
      "lng": 95.7
    },
    {
      "cityName": "Gwebinyo",
      "lat": 20.6666667,
      "lng": 96.15
    },
    {
      "cityName": "Gwedaukkan",
      "lat": 20.95,
      "lng": 95.6
    },
    {
      "cityName": "Gwedaukkon",
      "lat": 21.0166667,
      "lng": 95.2333333
    },
    {
      "cityName": "Gwegan",
      "lat": 21.2,
      "lng": 95.85
    },
    {
      "cityName": "Gwegon",
      "lat": 20.4666667,
      "lng": 95.9166667
    },
    {
      "cityName": "Gwegyaung",
      "lat": 22.45,
      "lng": 96.3166667
    },
    {
      "cityName": "Gwegyigon",
      "lat": 21.95,
      "lng": 96.15
    },
    {
      "cityName": "Gwegyi",
      "lat": 20.1333333,
      "lng": 96.1
    },
    {
      "cityName": "Gwegyo",
      "lat": 21.65,
      "lng": 95.55
    },
    {
      "cityName": "Gwehmyaunggon",
      "lat": 21.3166667,
      "lng": 95.5666667
    },
    {
      "cityName": "Gwein",
      "lat": 20.6166667,
      "lng": 95.9666667
    },
    {
      "cityName": "Gwenyowin",
      "lat": 20.9333333,
      "lng": 95.5166667
    },
    {
      "cityName": "Gweywa",
      "lat": 21.5,
      "lng": 96.0333333
    },
    {
      "cityName": "Gyainggyi",
      "lat": 21.9833333,
      "lng": 96.0166667
    },
    {
      "cityName": "Gyaingywa",
      "lat": 20.9666667,
      "lng": 95.2333333
    },
    {
      "cityName": "Gyanlon",
      "lat": 21,
      "lng": 95.8833333
    },
    {
      "cityName": "Gyobinchan",
      "lat": 21.3666667,
      "lng": 96.1666667
    },
    {
      "cityName": "Gyobintha",
      "lat": 21.0666667,
      "lng": 95.1833333
    },
    {
      "cityName": "Gyogyain",
      "lat": 20.2666667,
      "lng": 96.1666667
    },
    {
      "cityName": "Gyogya-u",
      "lat": 21.0166667,
      "lng": 95.7666667
    },
    {
      "cityName": "Hamyinbo",
      "lat": 21.5166667,
      "lng": 96.1833333
    },
    {
      "cityName": "Hansa",
      "lat": 20.9833333,
      "lng": 96.0333333
    },
    {
      "cityName": "Haungnwe",
      "lat": 21.35,
      "lng": 96.2166667
    },
    {
      "cityName": "Hele",
      "lat": 21.7666667,
      "lng": 96.75
    },
    {
      "cityName": "Hingudaing",
      "lat": 20.6833333,
      "lng": 95.1166667
    },
    {
      "cityName": "Hingwet-aing",
      "lat": 20.7,
      "lng": 96.0166667
    },
    {
      "cityName": "Hin-ngu",
      "lat": 21.6833333,
      "lng": 96.0666667
    },
    {
      "cityName": "Hinthabo",
      "lat": 22.4,
      "lng": 95.9833333
    },
    {
      "cityName": "Hinthagon",
      "lat": 22.1833333,
      "lng": 96.0333333
    },
    {
      "cityName": "Hinthagyi",
      "lat": 22.4,
      "lng": 95.9666667
    },
    {
      "cityName": "Hinyangan",
      "lat": 21.4333333,
      "lng": 95.9333333
    },
    {
      "cityName": "Hkadin",
      "lat": 20.4666667,
      "lng": 96.0666667
    },
    {
      "cityName": "Hkanbu",
      "lat": 20.4666667,
      "lng": 96.0166667
    },
    {
      "cityName": "Hlaingban",
      "lat": 20.5333333,
      "lng": 95.8
    },
    {
      "cityName": "Hlaingdet",
      "lat": 20.8166667,
      "lng": 96.2
    },
    {
      "cityName": "Hlaingtha",
      "lat": 20.9833333,
      "lng": 95.3
    },
    {
      "cityName": "Hlebeingwe",
      "lat": 21.0833333,
      "lng": 95.3166667
    },
    {
      "cityName": "Hlebwegon",
      "lat": 21.1,
      "lng": 95.3833333
    },
    {
      "cityName": "Hleguma",
      "lat": 21.3166667,
      "lng": 95.3833333
    },
    {
      "cityName": "Hlezadun",
      "lat": 21.3333333,
      "lng": 95.8833333
    },
    {
      "cityName": "Hlwabon",
      "lat": 20.2333333,
      "lng": 95.9666667
    },
    {
      "cityName": "Hlwazin",
      "lat": 20.3666667,
      "lng": 95.8166667
    },
    {
      "cityName": "Hlwebauk",
      "lat": 21.3666667,
      "lng": 96.2333333
    },
    {
      "cityName": "Hmaingmaw",
      "lat": 21.3,
      "lng": 96.2166667
    },
    {
      "cityName": "Hmanbin",
      "lat": 22.0333333,
      "lng": 96.1833333
    },
    {
      "cityName": "Hmanzi",
      "lat": 20.4,
      "lng": 96.2
    },
    {
      "cityName": "Hmyaung-u",
      "lat": 20.95,
      "lng": 96.15
    },
    {
      "cityName": "Hnangan",
      "lat": 20.8166667,
      "lng": 96.05
    },
    {
      "cityName": "Hnangyi",
      "lat": 22.0166667,
      "lng": 96.1833333
    },
    {
      "cityName": "Hnatchodaw",
      "lat": 21.6166667,
      "lng": 95.6
    },
    {
      "cityName": "Hnawbingon",
      "lat": 20.65,
      "lng": 95.9333333
    },
    {
      "cityName": "Hnawdaw",
      "lat": 21.1666667,
      "lng": 95.6333333
    },
    {
      "cityName": "Hnawdwin",
      "lat": 21.15,
      "lng": 95.1333333
    },
    {
      "cityName": "Hnawgan",
      "lat": 21.2333333,
      "lng": 95.7166667
    },
    {
      "cityName": "Hnewe",
      "lat": 21.4,
      "lng": 96.1833333
    },
    {
      "cityName": "Hngetkadaung",
      "lat": 21.6,
      "lng": 96.1666667
    },
    {
      "cityName": "Hngetkyithaik",
      "lat": 21.75,
      "lng": 96.3166667
    },
    {
      "cityName": "Hngetmi",
      "lat": 20.6166667,
      "lng": 96.3
    },
    {
      "cityName": "Hngetpyawdaw",
      "lat": 20.85,
      "lng": 96.5666667
    },
    {
      "cityName": "Hngetthaik",
      "lat": 20.4666667,
      "lng": 96.15
    },
    {
      "cityName": "Hnitkyatkwe",
      "lat": 20.8833333,
      "lng": 95.1166667
    },
    {
      "cityName": "Hnonae",
      "lat": 22.5166667,
      "lng": 96.3
    },
    {
      "cityName": "Hponzogyi",
      "lat": 20.2833333,
      "lng": 96.25
    },
    {
      "cityName": "Hpothudaw-in",
      "lat": 19.5333333,
      "lng": 96.3333333
    },
    {
      "cityName": "Htandawgyi Chaing",
      "lat": 20.05,
      "lng": 96.1666667
    },
    {
      "cityName": "Htandaw",
      "lat": 21.0833333,
      "lng": 96.15
    },
    {
      "cityName": "Htankobin",
      "lat": 22.5,
      "lng": 96.05
    },
    {
      "cityName": "Hteinbin-in",
      "lat": 21.1666667,
      "lng": 96.0166667
    },
    {
      "cityName": "Hteingangyi",
      "lat": 21.2666667,
      "lng": 96.0666667
    },
    {
      "cityName": "Htidawmo",
      "lat": 22.1,
      "lng": 96.15
    },
    {
      "cityName": "Htihlaing",
      "lat": 20.35,
      "lng": 96.2
    },
    {
      "cityName": "Htonbo",
      "lat": 22.0666667,
      "lng": 96.5666667
    },
    {
      "cityName": "Htongyidaung",
      "lat": 20.35,
      "lng": 96.4333333
    },
    {
      "cityName": "Inbaung",
      "lat": 20.3333333,
      "lng": 96.0166667
    },
    {
      "cityName": "Inbetkon",
      "lat": 20.15,
      "lng": 96.1666667
    },
    {
      "cityName": "Inbingyi",
      "lat": 20.3333333,
      "lng": 96.15
    },
    {
      "cityName": "Inbin",
      "lat": 20.2333333,
      "lng": 96.15
    },
    {
      "cityName": "Inbintha",
      "lat": 19.5833333,
      "lng": 96.1166667
    },
    {
      "cityName": "Inbinwa",
      "lat": 20.75,
      "lng": 95.5833333
    },
    {
      "cityName": "Indaing",
      "lat": 20.4333333,
      "lng": 96.3166667
    },
    {
      "cityName": "Indaingtha",
      "lat": 20.9333333,
      "lng": 96.2
    },
    {
      "cityName": "Indawgale",
      "lat": 20.4166667,
      "lng": 96.0166667
    },
    {
      "cityName": "Indawgyi",
      "lat": 20.4,
      "lng": 96
    },
    {
      "cityName": "Indaw",
      "lat": 20.8166667,
      "lng": 95.1833333
    },
    {
      "cityName": "Indayaw",
      "lat": 21.3333333,
      "lng": 96.2833333
    },
    {
      "cityName": "Inde",
      "lat": 21.3,
      "lng": 95.3833333
    },
    {
      "cityName": "Inde South",
      "lat": 21.2666667,
      "lng": 95.3833333
    },
    {
      "cityName": "Ingade",
      "lat": 22.65,
      "lng": 95.9333333
    },
    {
      "cityName": "Ingangon",
      "lat": 21.2333333,
      "lng": 96.0666667
    },
    {
      "cityName": "Ingan",
      "lat": 21.2166667,
      "lng": 96.0833333
    },
    {
      "cityName": "Ingon",
      "lat": 20.6666667,
      "lng": 95.7833333
    },
    {
      "cityName": "Ingyaung",
      "lat": 21.35,
      "lng": 95.5666667
    },
    {
      "cityName": "Ingyi",
      "lat": 21.95,
      "lng": 96.4333333
    },
    {
      "cityName": "Ingyingan",
      "lat": 20.4666667,
      "lng": 96.1166667
    },
    {
      "cityName": "Ingyin",
      "lat": 22.0666667,
      "lng": 96.1833333
    },
    {
      "cityName": "Ingyin-thadaw",
      "lat": 21.05,
      "lng": 95.45
    },
    {
      "cityName": "Inhlya",
      "lat": 21.8166667,
      "lng": 96.0666667
    },
    {
      "cityName": "Inma",
      "lat": 20.8,
      "lng": 95.6333333
    },
    {
      "cityName": "Inni",
      "lat": 20.8833333,
      "lng": 96.55
    },
    {
      "cityName": "Inpetlet",
      "lat": 20.9,
      "lng": 95.8166667
    },
    {
      "cityName": "Inson",
      "lat": 21.9666667,
      "lng": 96.5166667
    },
    {
      "cityName": "In-ta-ga",
      "lat": 22.2833333,
      "lng": 96.1833333
    },
    {
      "cityName": "Inwin",
      "lat": 20.8166667,
      "lng": 96.0333333
    },
    {
      "cityName": "Inya",
      "lat": 21.9833333,
      "lng": 96.55
    },
    {
      "cityName": "Inyan",
      "lat": 21.4333333,
      "lng": 96.1
    },
    {
      "cityName": "Inyaung",
      "lat": 21.5166667,
      "lng": 96.15
    },
    {
      "cityName": "Inyin",
      "lat": 21.0833333,
      "lng": 95.9
    },
    {
      "cityName": "Inzin",
      "lat": 20.3833333,
      "lng": 96.15
    },
    {
      "cityName": "Kaatywa",
      "lat": 21.0666667,
      "lng": 95.3
    },
    {
      "cityName": "Kabaing",
      "lat": 22.0666667,
      "lng": 96.1166667
    },
    {
      "cityName": "Kabaunggon",
      "lat": 20.7333333,
      "lng": 95.3666667
    },
    {
      "cityName": "Kabe",
      "lat": 22.15,
      "lng": 96.1166667
    },
    {
      "cityName": "Kabyu",
      "lat": 21.05,
      "lng": 95.2166667
    },
    {
      "cityName": "Kada",
      "lat": 21.6666667,
      "lng": 95.3666667
    },
    {
      "cityName": "Kade",
      "lat": 21.5833333,
      "lng": 96.1166667
    },
    {
      "cityName": "Kadetchin",
      "lat": 22.4166667,
      "lng": 96.1333333
    },
    {
      "cityName": "Kado",
      "lat": 21.6666667,
      "lng": 96.2666667
    },
    {
      "cityName": "Kadozeik",
      "lat": 19.7,
      "lng": 96.3
    },
    {
      "cityName": "Kadugan",
      "lat": 20.8666667,
      "lng": 95.7666667
    },
    {
      "cityName": "Kaingdaw",
      "lat": 22.4833333,
      "lng": 96.0166667
    },
    {
      "cityName": "Kainggyi",
      "lat": 20.8666667,
      "lng": 95.3666667
    },
    {
      "cityName": "Kaing",
      "lat": 19.75,
      "lng": 96.0666667
    },
    {
      "cityName": "Kaing North",
      "lat": 21.4333333,
      "lng": 95.3333333
    },
    {
      "cityName": "Kaingpadaung",
      "lat": 22.4333333,
      "lng": 96.3333333
    },
    {
      "cityName": "Kaingtat",
      "lat": 20.5833333,
      "lng": 95.8166667
    },
    {
      "cityName": "Kaingywathit",
      "lat": 21.6333333,
      "lng": 95.3833333
    },
    {
      "cityName": "Kaingzauk",
      "lat": 21.1333333,
      "lng": 95.5333333
    },
    {
      "cityName": "Kalade",
      "lat": 21.1833333,
      "lng": 95.1166667
    },
    {
      "cityName": "Kalagon",
      "lat": 22.1,
      "lng": 96.5
    },
    {
      "cityName": "Kalagyaung",
      "lat": 21.5833333,
      "lng": 96.2
    },
    {
      "cityName": "Kalahpongyiywa",
      "lat": 21.75,
      "lng": 96.15
    },
    {
      "cityName": "Kalamadaung",
      "lat": 22.0833333,
      "lng": 96.15
    },
    {
      "cityName": "Kalamyaw",
      "lat": 20.45,
      "lng": 96.0166667
    },
    {
      "cityName": "Kalaywa",
      "lat": 21.1666667,
      "lng": 95.9166667
    },
    {
      "cityName": "Kale",
      "lat": 21.5333333,
      "lng": 96.2333333
    },
    {
      "cityName": "Kama",
      "lat": 21.2166667,
      "lng": 95.2166667
    },
    {
      "cityName": "Kamma",
      "lat": 20.4,
      "lng": 96.0333333
    },
    {
      "cityName": "Kamye",
      "lat": 21.2666667,
      "lng": 95.3
    },
    {
      "cityName": "Kan-auk",
      "lat": 20.5333333,
      "lng": 96.1333333
    },
    {
      "cityName": "Kanbani",
      "lat": 20.5666667,
      "lng": 96.5166667
    },
    {
      "cityName": "Kanbauk",
      "lat": 21.1,
      "lng": 94.9
    },
    {
      "cityName": "Kanbe",
      "lat": 19.5833333,
      "lng": 96.25
    },
    {
      "cityName": "Kanbingwe",
      "lat": 21.1666667,
      "lng": 95.3833333
    },
    {
      "cityName": "Kanbin",
      "lat": 21.15,
      "lng": 95.3666667
    },
    {
      "cityName": "Kanbu",
      "lat": 21.05,
      "lng": 95.8833333
    },
    {
      "cityName": "Kanbya",
      "lat": 20.7,
      "lng": 95.9166667
    },
    {
      "cityName": "Kanbyu",
      "lat": 20.7833333,
      "lng": 96.1166667
    },
    {
      "cityName": "Kandaung",
      "lat": 20.8,
      "lng": 95.9166667
    },
    {
      "cityName": "Kandaw",
      "lat": 21.25,
      "lng": 95.95
    },
    {
      "cityName": "Kandein",
      "lat": 21.1166667,
      "lng": 95.1333333
    },
    {
      "cityName": "Kande",
      "lat": 20.55,
      "lng": 95.7333333
    },
    {
      "cityName": "Kangale",
      "lat": 21.1166667,
      "lng": 95.6166667
    },
    {
      "cityName": "Kangauk",
      "lat": 21.9666667,
      "lng": 96.1333333
    },
    {
      "cityName": "Kangon",
      "lat": 21,
      "lng": 95.2833333
    },
    {
      "cityName": "Kangwe",
      "lat": 21.2166667,
      "lng": 96
    },
    {
      "cityName": "Kangyaw",
      "lat": 21.6333333,
      "lng": 95.5666667
    },
    {
      "cityName": "Kangyi Auk",
      "lat": 20.8,
      "lng": 96.1666667
    },
    {
      "cityName": "Kangyigon",
      "lat": 20.7333333,
      "lng": 95.6833333
    },
    {
      "cityName": "Kangyi",
      "lat": 20.1333333,
      "lng": 96.3166667
    },
    {
      "cityName": "Kangyikon",
      "lat": 21.05,
      "lng": 94.9666667
    },
    {
      "cityName": "Kangyoya",
      "lat": 20.9666667,
      "lng": 95.8833333
    },
    {
      "cityName": "Kanhla",
      "lat": 19.6333333,
      "lng": 96.0666667
    },
    {
      "cityName": "Kanhle",
      "lat": 19.7833333,
      "lng": 96.1666667
    },
    {
      "cityName": "Kanlwin",
      "lat": 20.6833333,
      "lng": 95.0833333
    },
    {
      "cityName": "Kanmade",
      "lat": 20.9833333,
      "lng": 95.45
    },
    {
      "cityName": "Kanna",
      "lat": 21.3833333,
      "lng": 95.5
    },
    {
      "cityName": "Kannibauk",
      "lat": 21.0666667,
      "lng": 94.9
    },
    {
      "cityName": "Kannigyi",
      "lat": 21.1333333,
      "lng": 95.1166667
    },
    {
      "cityName": "Kanni",
      "lat": 20.7666667,
      "lng": 95.8166667
    },
    {
      "cityName": "Kann",
      "lat": 21.7,
      "lng": 95.4833333
    },
    {
      "cityName": "Kanpatle",
      "lat": 20.8333333,
      "lng": 95.1833333
    },
    {
      "cityName": "Kanshe",
      "lat": 20.9,
      "lng": 96.1
    },
    {
      "cityName": "Kanswe",
      "lat": 21.1166667,
      "lng": 95.7
    },
    {
      "cityName": "Kantaya-taung",
      "lat": 21.1666667,
      "lng": 95.0666667
    },
    {
      "cityName": "Kantha",
      "lat": 19.5,
      "lng": 96.05
    },
    {
      "cityName": "Kanthit",
      "lat": 21.0666667,
      "lng": 95.7666667
    },
    {
      "cityName": "Kanthitkon",
      "lat": 20.9333333,
      "lng": 96.05
    },
    {
      "cityName": "Kantigale",
      "lat": 21.4166667,
      "lng": 96.1833333
    },
    {
      "cityName": "Kan-u",
      "lat": 20.4333333,
      "lng": 95.8166667
    },
    {
      "cityName": "Kanye",
      "lat": 20.7666667,
      "lng": 95.1166667
    },
    {
      "cityName": "Kanyogyi",
      "lat": 20.3,
      "lng": 96.2
    },
    {
      "cityName": "Kanywa",
      "lat": 20.75,
      "lng": 95.4833333
    },
    {
      "cityName": "Kanzatko",
      "lat": 21.4833333,
      "lng": 95.6
    },
    {
      "cityName": "Kanze",
      "lat": 21.1833333,
      "lng": 96.3166667
    },
    {
      "cityName": "Kanzin",
      "lat": 21.35,
      "lng": 95.4
    },
    {
      "cityName": "Kanzwe",
      "lat": 20.85,
      "lng": 96.0333333
    },
    {
      "cityName": "Kasun",
      "lat": 21.35,
      "lng": 96.1666667
    },
    {
      "cityName": "Kataing",
      "lat": 20.9666667,
      "lng": 95.4333333
    },
    {
      "cityName": "Kathegon",
      "lat": 21.4333333,
      "lng": 96.1333333
    },
    {
      "cityName": "Kaukyabon",
      "lat": 22.3666667,
      "lng": 96.05
    },
    {
      "cityName": "Kaungbinsi-myoma",
      "lat": 21.0166667,
      "lng": 95.0333333
    },
    {
      "cityName": "Kaungdin",
      "lat": 21.6166667,
      "lng": 96.0333333
    },
    {
      "cityName": "Kaungnyo",
      "lat": 20.9833333,
      "lng": 95.05
    },
    {
      "cityName": "Kawadaw",
      "lat": 21.8666667,
      "lng": 96
    },
    {
      "cityName": "Kawazu",
      "lat": 21.9333333,
      "lng": 96.0666667
    },
    {
      "cityName": "Kayudok Ashe",
      "lat": 21.3333333,
      "lng": 96.2
    },
    {
      "cityName": "Kaywa",
      "lat": 21.1833333,
      "lng": 95.65
    },
    {
      "cityName": "Kazun-in",
      "lat": 19.9833333,
      "lng": 96.2166667
    },
    {
      "cityName": "Kebinzin",
      "lat": 21.1333333,
      "lng": 95.5
    },
    {
      "cityName": "Ketlangyin",
      "lat": 20.5833333,
      "lng": 95.7833333
    },
    {
      "cityName": "Ketlan",
      "lat": 21.3666667,
      "lng": 95.8166667
    },
    {
      "cityName": "Ketthin",
      "lat": 22.4833333,
      "lng": 95.9833333
    },
    {
      "cityName": "Khai-aw",
      "lat": 22.1166667,
      "lng": 96.4
    },
    {
      "cityName": "Khangon",
      "lat": 22.0333333,
      "lng": 96.1
    },
    {
      "cityName": "Khanpa",
      "lat": 22.5333333,
      "lng": 96.0333333
    },
    {
      "cityName": "Khingyi",
      "lat": 21.15,
      "lng": 96.0666667
    },
    {
      "cityName": "Khwezawun",
      "lat": 20.1833333,
      "lng": 96.4166667
    },
    {
      "cityName": "Kinbet",
      "lat": 21.7833333,
      "lng": 96.1333333
    },
    {
      "cityName": "Kinbungyon",
      "lat": 20.5,
      "lng": 95.9666667
    },
    {
      "cityName": "Kinde",
      "lat": 20.8166667,
      "lng": 95.8666667
    },
    {
      "cityName": "Kindonbe",
      "lat": 21.7833333,
      "lng": 96.2
    },
    {
      "cityName": "Kingaze Anauk",
      "lat": 21.4166667,
      "lng": 96.1166667
    },
    {
      "cityName": "Kingaze Ashe",
      "lat": 21.4,
      "lng": 96.1166667
    },
    {
      "cityName": "Kinka",
      "lat": 21.0833333,
      "lng": 94.8666667
    },
    {
      "cityName": "Kinlat",
      "lat": 21.7833333,
      "lng": 96.1
    },
    {
      "cityName": "Kinlu",
      "lat": 20.8333333,
      "lng": 95.9166667
    },
    {
      "cityName": "Kinmagan",
      "lat": 21.4833333,
      "lng": 95.4666667
    },
    {
      "cityName": "Kinmagyibin",
      "lat": 21.4666667,
      "lng": 95.9
    },
    {
      "cityName": "Kinmun",
      "lat": 20.6333333,
      "lng": 95
    },
    {
      "cityName": "Kintha",
      "lat": 20.0833333,
      "lng": 96.2666667
    },
    {
      "cityName": "Kobin",
      "lat": 22.2166667,
      "lng": 96.0666667
    },
    {
      "cityName": "Koditsindaung",
      "lat": 19.5,
      "lng": 96.5
    },
    {
      "cityName": "Kokke",
      "lat": 21.6,
      "lng": 95.5166667
    },
    {
      "cityName": "Kokkobin",
      "lat": 21.05,
      "lng": 96.1166667
    },
    {
      "cityName": "Kokkogaing",
      "lat": 20.7833333,
      "lng": 95.9333333
    },
    {
      "cityName": "Kokkogan",
      "lat": 20.7166667,
      "lng": 96.1666667
    },
    {
      "cityName": "Kokkogyin",
      "lat": 21.1666667,
      "lng": 95.5166667
    },
    {
      "cityName": "Kokko",
      "lat": 22.5833333,
      "lng": 96.1166667
    },
    {
      "cityName": "Kokkozi",
      "lat": 21.3166667,
      "lng": 95.8333333
    },
    {
      "cityName": "Kokkozu",
      "lat": 20.8166667,
      "lng": 96.0833333
    },
    {
      "cityName": "Kombamyin",
      "lat": 20.9,
      "lng": 95.95
    },
    {
      "cityName": "Konaing",
      "lat": 22.6333333,
      "lng": 96.05
    },
    {
      "cityName": "Konbaw",
      "lat": 20.8333333,
      "lng": 96.5833333
    },
    {
      "cityName": "Konbawzu",
      "lat": 19.65,
      "lng": 96.0333333
    },
    {
      "cityName": "Kondan",
      "lat": 20.7,
      "lng": 95.6166667
    },
    {
      "cityName": "Kondanywathit",
      "lat": 22.1,
      "lng": 96.05
    },
    {
      "cityName": "Kondaung",
      "lat": 20.8833333,
      "lng": 95.9666667
    },
    {
      "cityName": "Konde",
      "lat": 21.0666667,
      "lng": 95.6666667
    },
    {
      "cityName": "Kongan",
      "lat": 21.0833333,
      "lng": 95.8666667
    },
    {
      "cityName": "Kongyi",
      "lat": 20.6,
      "lng": 96.5
    },
    {
      "cityName": "Konkaw",
      "lat": 22.1,
      "lng": 96.4333333
    },
    {
      "cityName": "Konle",
      "lat": 21.7833333,
      "lng": 95.5
    },
    {
      "cityName": "Konni",
      "lat": 21.7166667,
      "lng": 96.0833333
    },
    {
      "cityName": "Konpato",
      "lat": 21.3333333,
      "lng": 95.25
    },
    {
      "cityName": "Koywa",
      "lat": 19.6333333,
      "lng": 96.5
    },
    {
      "cityName": "Kozin",
      "lat": 21.0666667,
      "lng": 95.4166667
    },
    {
      "cityName": "Kubyin",
      "lat": 20.9,
      "lng": 96.4
    },
    {
      "cityName": "Kudaw",
      "lat": 21.05,
      "lng": 95.1833333
    },
    {
      "cityName": "Kugon",
      "lat": 21.4833333,
      "lng": 95.5833333
    },
    {
      "cityName": "Kugyi",
      "lat": 21.1,
      "lng": 95.7166667
    },
    {
      "cityName": "Kulbintha",
      "lat": 22.5166667,
      "lng": 96.0333333
    },
    {
      "cityName": "Kule",
      "lat": 20.95,
      "lng": 95.3333333
    },
    {
      "cityName": "Kundaw",
      "lat": 20.2,
      "lng": 96.3166667
    },
    {
      "cityName": "Kungezon",
      "lat": 20.95,
      "lng": 96.4333333
    },
    {
      "cityName": "Kunhnachet",
      "lat": 21.0666667,
      "lng": 95.7333333
    },
    {
      "cityName": "Kuni",
      "lat": 21.0666667,
      "lng": 95.8
    },
    {
      "cityName": "Kun-lein",
      "lat": 21.8833333,
      "lng": 96.4
    },
    {
      "cityName": "Kunon",
      "lat": 21.3666667,
      "lng": 95.55
    },
    {
      "cityName": "Kunywa",
      "lat": 21.0166667,
      "lng": 95.0166667
    },
    {
      "cityName": "Kunzaik",
      "lat": 21.4166667,
      "lng": 95.4166667
    },
    {
      "cityName": "Kuywa",
      "lat": 21.1166667,
      "lng": 94.9833333
    },
    {
      "cityName": "Kwebyok",
      "lat": 21.0166667,
      "lng": 95.0666667
    },
    {
      "cityName": "Kwedugyi",
      "lat": 19.85,
      "lng": 96.4333333
    },
    {
      "cityName": "Kwegyadwin",
      "lat": 20.7166667,
      "lng": 95.15
    },
    {
      "cityName": "Kwè-ngabyubyaung",
      "lat": 19.7666667,
      "lng": 96.1166667
    },
    {
      "cityName": "Kwetnge",
      "lat": 20.7833333,
      "lng": 95.95
    },
    {
      "cityName": "Kyaaing",
      "lat": 21.2333333,
      "lng": 95.65
    },
    {
      "cityName": "Kyabauk",
      "lat": 20.9,
      "lng": 95.7333333
    },
    {
      "cityName": "Kyabinaing",
      "lat": 21.3166667,
      "lng": 95.9666667
    },
    {
      "cityName": "Kyabinin",
      "lat": 20.7666667,
      "lng": 95.8833333
    },
    {
      "cityName": "Kyabin",
      "lat": 22.2333333,
      "lng": 96.3166667
    },
    {
      "cityName": "Kyabwa",
      "lat": 21.3333333,
      "lng": 95.65
    },
    {
      "cityName": "Kyabyitkan",
      "lat": 20.95,
      "lng": 96.1166667
    },
    {
      "cityName": "Kyadwin",
      "lat": 21.4,
      "lng": 96.0166667
    },
    {
      "cityName": "Kyaga",
      "lat": 21.4666667,
      "lng": 96.2166667
    },
    {
      "cityName": "Kyagani",
      "lat": 20.8333333,
      "lng": 95.6666667
    },
    {
      "cityName": "Kyaingtaung",
      "lat": 21.9666667,
      "lng": 96.5833333
    },
    {
      "cityName": "Kyalègôn",
      "lat": 19.9333333,
      "lng": 96.2
    },
    {
      "cityName": "Kyamadwin",
      "lat": 21.1666667,
      "lng": 95.2833333
    },
    {
      "cityName": "Kyandaw",
      "lat": 21.4166667,
      "lng": 96.1333333
    },
    {
      "cityName": "Kya-ne-aing",
      "lat": 21.0166667,
      "lng": 95.2833333
    },
    {
      "cityName": "Kya-o",
      "lat": 21,
      "lng": 94.8666667
    },
    {
      "cityName": "Kyatchaung",
      "lat": 20.1166667,
      "lng": 96.1
    },
    {
      "cityName": "Kyathaungdaung",
      "lat": 19.6,
      "lng": 96
    },
    {
      "cityName": "Kyathegan",
      "lat": 21.3166667,
      "lng": 96.05
    },
    {
      "cityName": "Kyatkan",
      "lat": 21.3,
      "lng": 95.9666667
    },
    {
      "cityName": "Kyatkon",
      "lat": 20.8166667,
      "lng": 95.25
    },
    {
      "cityName": "Kyatpye",
      "lat": 20.15,
      "lng": 96.3333333
    },
    {
      "cityName": "Kyatpyu",
      "lat": 21.1833333,
      "lng": 95.7166667
    },
    {
      "cityName": "Kyatsakan",
      "lat": 20.8166667,
      "lng": 96.45
    },
    {
      "cityName": "Kyatti",
      "lat": 20.8333333,
      "lng": 96.1
    },
    {
      "cityName": "Kyattwinkala",
      "lat": 20.7333333,
      "lng": 95.9666667
    },
    {
      "cityName": "Kyaukchat",
      "lat": 20.5666667,
      "lng": 96.1833333
    },
    {
      "cityName": "Kyaukchaw",
      "lat": 20.9,
      "lng": 95.3833333
    },
    {
      "cityName": "Kyaukchet",
      "lat": 19.7666667,
      "lng": 96.2333333
    },
    {
      "cityName": "Kyaukka",
      "lat": 21.1666667,
      "lng": 95.4
    },
    {
      "cityName": "Kyaukkan",
      "lat": 21.0666667,
      "lng": 94.9166667
    },
    {
      "cityName": "Kyaukkwet",
      "lat": 20.9333333,
      "lng": 95.3166667
    },
    {
      "cityName": "Kyaukmi",
      "lat": 21.9,
      "lng": 96.1833333
    },
    {
      "cityName": "Kyaukmo",
      "lat": 22.4,
      "lng": 96.3666667
    },
    {
      "cityName": "Kyauknga-nwa",
      "lat": 22.4,
      "lng": 96.0666667
    },
    {
      "cityName": "Kyauk-ni",
      "lat": 21.8,
      "lng": 96.5166667
    },
    {
      "cityName": "Kyauk-o",
      "lat": 19.5833333,
      "lng": 96.3166667
    },
    {
      "cityName": "Kyauko",
      "lat": 20.8,
      "lng": 95.5833333
    },
    {
      "cityName": "Kyaukpadaung",
      "lat": 20.8333333,
      "lng": 95.1333333
    },
    {
      "cityName": "Kyaukpal",
      "lat": 22.7666667,
      "lng": 96.1166667
    },
    {
      "cityName": "Kyaukpana",
      "lat": 20.9833333,
      "lng": 96.0666667
    },
    {
      "cityName": "Kyaukpingan",
      "lat": 21.0166667,
      "lng": 94.9
    },
    {
      "cityName": "Kyaukpongan",
      "lat": 20.8333333,
      "lng": 95.7
    },
    {
      "cityName": "Kyaukpongon",
      "lat": 21.0833333,
      "lng": 96.1
    },
    {
      "cityName": "Kyaukpon",
      "lat": 20.9,
      "lng": 95.7666667
    },
    {
      "cityName": "Kyaukpu",
      "lat": 20.7,
      "lng": 95.7
    },
    {
      "cityName": "Kyaukpya",
      "lat": 21.5,
      "lng": 96.3
    },
    {
      "cityName": "Kyauk-pyo",
      "lat": 21.9,
      "lng": 96.3666667
    },
    {
      "cityName": "Kyaukpyugon",
      "lat": 20.8833333,
      "lng": 95.8166667
    },
    {
      "cityName": "Kyauksa",
      "lat": 20.5666667,
      "lng": 96.15
    },
    {
      "cityName": "Kyauksaukkale",
      "lat": 21.55,
      "lng": 96.0333333
    },
    {
      "cityName": "Kyauksaukkon",
      "lat": 21.5333333,
      "lng": 96.0333333
    },
    {
      "cityName": "Kyauksayit",
      "lat": 20.9833333,
      "lng": 96.15
    },
    {
      "cityName": "Kyaukse",
      "lat": 21.6,
      "lng": 96.1333333
    },
    {
      "cityName": "Kyaukse Tezu",
      "lat": 20.5833333,
      "lng": 96.25
    },
    {
      "cityName": "Kyauksitkon",
      "lat": 20.7333333,
      "lng": 95.15
    },
    {
      "cityName": "Kyauktada",
      "lat": 22.2,
      "lng": 96.1833333
    },
    {
      "cityName": "Kyauktaing",
      "lat": 20.5666667,
      "lng": 96.0166667
    },
    {
      "cityName": "Kyaukta",
      "lat": 21.0666667,
      "lng": 95.5833333
    },
    {
      "cityName": "Kyauktalon",
      "lat": 21.1333333,
      "lng": 95.45
    },
    {
      "cityName": "Kyaukthanbat",
      "lat": 19.8666667,
      "lng": 96.3666667
    },
    {
      "cityName": "Kyaukyan",
      "lat": 21.45,
      "lng": 95.4166667
    },
    {
      "cityName": "Kyaukyin",
      "lat": 21.2833333,
      "lng": 95.4166667
    },
    {
      "cityName": "Kyaungbandaw",
      "lat": 21.5,
      "lng": 96.05
    },
    {
      "cityName": "Kyaungbangon",
      "lat": 21.6333333,
      "lng": 96.0333333
    },
    {
      "cityName": "Kyaungbyugan",
      "lat": 21.5333333,
      "lng": 95.45
    },
    {
      "cityName": "Kyaungdo",
      "lat": 20.75,
      "lng": 95.15
    },
    {
      "cityName": "Kyaunggon",
      "lat": 20.1833333,
      "lng": 96.5
    },
    {
      "cityName": "Kyaungingyi",
      "lat": 20.9166667,
      "lng": 95.1
    },
    {
      "cityName": "Kyaung",
      "lat": 22.3166667,
      "lng": 96.25
    },
    {
      "cityName": "Kyaungnan",
      "lat": 21.45,
      "lng": 95.5833333
    },
    {
      "cityName": "Kyaungo",
      "lat": 21.25,
      "lng": 95.3
    },
    {
      "cityName": "Kyaungyagon",
      "lat": 20.9333333,
      "lng": 95.8
    },
    {
      "cityName": "Kyaungye",
      "lat": 19.6,
      "lng": 96.1833333
    },
    {
      "cityName": "Kyaungywa",
      "lat": 20.1833333,
      "lng": 96.15
    },
    {
      "cityName": "Kyawegon",
      "lat": 20.6666667,
      "lng": 95.7333333
    },
    {
      "cityName": "Kyawzi",
      "lat": 21.3166667,
      "lng": 95.1833333
    },
    {
      "cityName": "Kyayebo",
      "lat": 19.9666667,
      "lng": 95.95
    },
    {
      "cityName": "Kyedangu",
      "lat": 19.5666667,
      "lng": 95.9666667
    },
    {
      "cityName": "Kyein",
      "lat": 20.2,
      "lng": 95.9833333
    },
    {
      "cityName": "Kyetbyute",
      "lat": 20.7833333,
      "lng": 95.3833333
    },
    {
      "cityName": "Kyethmya",
      "lat": 21.6833333,
      "lng": 96.1
    },
    {
      "cityName": "Kyetpye",
      "lat": 19.7333333,
      "lng": 96.1166667
    },
    {
      "cityName": "Kyetsein",
      "lat": 21.7,
      "lng": 96.1
    },
    {
      "cityName": "Kyetsha",
      "lat": 21.6666667,
      "lng": 96.0666667
    },
    {
      "cityName": "Kyetsuaing",
      "lat": 19.7666667,
      "lng": 96.1
    },
    {
      "cityName": "Kyetsudaw",
      "lat": 20.7666667,
      "lng": 95.45
    },
    {
      "cityName": "Kyette",
      "lat": 20.6166667,
      "lng": 96.0833333
    },
    {
      "cityName": "Kyetthungin",
      "lat": 20.2166667,
      "lng": 96.2166667
    },
    {
      "cityName": "Kyettu-ywe-kyûn",
      "lat": 22.35,
      "lng": 96.0166667
    },
    {
      "cityName": "Kyeza-u",
      "lat": 19.6833333,
      "lng": 96.0333333
    },
    {
      "cityName": "Kyia-aing",
      "lat": 20.7666667,
      "lng": 95.6333333
    },
    {
      "cityName": "Kyi-aung",
      "lat": 19.5,
      "lng": 96.0166667
    },
    {
      "cityName": "Kyibingan",
      "lat": 21.5166667,
      "lng": 95.5166667
    },
    {
      "cityName": "Kyibin",
      "lat": 21.5333333,
      "lng": 95.9333333
    },
    {
      "cityName": "Kyidaunggan",
      "lat": 19.8833333,
      "lng": 96.2
    },
    {
      "cityName": "Kyidaung",
      "lat": 19.7666667,
      "lng": 96.3166667
    },
    {
      "cityName": "Kyi-eik",
      "lat": 21.6166667,
      "lng": 96.0166667
    },
    {
      "cityName": "Kyigaung",
      "lat": 21.5666667,
      "lng": 95.5833333
    },
    {
      "cityName": "Kyigon",
      "lat": 21.75,
      "lng": 96.05
    },
    {
      "cityName": "Kyigyaung",
      "lat": 20.1666667,
      "lng": 96.1666667
    },
    {
      "cityName": "Kyigyi",
      "lat": 21.45,
      "lng": 95.9333333
    },
    {
      "cityName": "Kyigyizu",
      "lat": 21.9833333,
      "lng": 96.1666667
    },
    {
      "cityName": "Kyini",
      "lat": 20.6833333,
      "lng": 96.0166667
    },
    {
      "cityName": "Kyintha",
      "lat": 21.05,
      "lng": 95.65
    },
    {
      "cityName": "Kyinywa",
      "lat": 21.15,
      "lng": 95.8833333
    },
    {
      "cityName": "Kyiywa",
      "lat": 20.6666667,
      "lng": 95.9166667
    },
    {
      "cityName": "Kyizu",
      "lat": 20.5333333,
      "lng": 96.2
    },
    {
      "cityName": "Kyobin",
      "lat": 22.2666667,
      "lng": 96.25
    },
    {
      "cityName": "Kyogon",
      "lat": 19.6,
      "lng": 96.1166667
    },
    {
      "cityName": "Kyonywa",
      "lat": 22.1333333,
      "lng": 96.1166667
    },
    {
      "cityName": "Kyu-in",
      "lat": 20.1666667,
      "lng": 96.0666667
    },
    {
      "cityName": "Kyunbingyi",
      "lat": 22.6833333,
      "lng": 96.1166667
    },
    {
      "cityName": "Kyun-bin",
      "lat": 22.25,
      "lng": 96.3166667
    },
    {
      "cityName": "Kyunbogon",
      "lat": 20.7166667,
      "lng": 95.0833333
    },
    {
      "cityName": "Kyundaing",
      "lat": 22.1666667,
      "lng": 96.4666667
    },
    {
      "cityName": "Kyundaung",
      "lat": 21.5666667,
      "lng": 95.7333333
    },
    {
      "cityName": "Kyundon",
      "lat": 20.5166667,
      "lng": 95.7333333
    },
    {
      "cityName": "Kyungale",
      "lat": 21.55,
      "lng": 95.3666667
    },
    {
      "cityName": "Kyungyi",
      "lat": 22.3166667,
      "lng": 96.0166667
    },
    {
      "cityName": "Kyungyin",
      "lat": 20.3333333,
      "lng": 95.95
    },
    {
      "cityName": "Kyunhla",
      "lat": 21.45,
      "lng": 96.1166667
    },
    {
      "cityName": "Kyuntabetkon",
      "lat": 19.6833333,
      "lng": 96.1333333
    },
    {
      "cityName": "Kyun-ta-pin",
      "lat": 22.1,
      "lng": 96.6
    },
    {
      "cityName": "Kyunywa",
      "lat": 21.3,
      "lng": 95.3666667
    },
    {
      "cityName": "Kyunzu",
      "lat": 21.3833333,
      "lng": 95.2833333
    },
    {
      "cityName": "Kyutkan",
      "lat": 21.2666667,
      "lng": 96.05
    },
    {
      "cityName": "Kyuwun",
      "lat": 21.8833333,
      "lng": 96.2333333
    },
    {
      "cityName": "Kywedalin",
      "lat": 20.65,
      "lng": 95.1166667
    },
    {
      "cityName": "Kywedat",
      "lat": 20.4166667,
      "lng": 96.1166667
    },
    {
      "cityName": "Kywegan",
      "lat": 20.65,
      "lng": 95.0333333
    },
    {
      "cityName": "Kywegu",
      "lat": 20.5833333,
      "lng": 95.05
    },
    {
      "cityName": "Kywegya",
      "lat": 20.7,
      "lng": 96.2333333
    },
    {
      "cityName": "Kywegyan",
      "lat": 21.2166667,
      "lng": 95.65
    },
    {
      "cityName": "Kywegyaung",
      "lat": 21.0833333,
      "lng": 95.7666667
    },
    {
      "cityName": "Kywenadauk",
      "lat": 22,
      "lng": 96.4
    },
    {
      "cityName": "Kyweshi",
      "lat": 19.85,
      "lng": 96.0333333
    },
    {
      "cityName": "Kywetalin",
      "lat": 21.0333333,
      "lng": 95.4333333
    },
    {
      "cityName": "Kywetnapa",
      "lat": 21.85,
      "lng": 96.25
    },
    {
      "cityName": "Kywettaw",
      "lat": 20.3,
      "lng": 96.3666667
    },
    {
      "cityName": "Kyweyegon",
      "lat": 22.0166667,
      "lng": 96.1333333
    },
    {
      "cityName": "Kywezin",
      "lat": 21.3666667,
      "lng": 95.3166667
    },
    {
      "cityName": "Lahpettaung",
      "lat": 20.1666667,
      "lng": 96.4333333
    },
    {
      "cityName": "Lamainggon",
      "lat": 21.4666667,
      "lng": 96.1
    },
    {
      "cityName": "Lamaing",
      "lat": 22.2,
      "lng": 96.2
    },
    {
      "cityName": "Lama",
      "lat": 19.6,
      "lng": 95.9166667
    },
    {
      "cityName": "Langwa",
      "lat": 21.3833333,
      "lng": 96.1833333
    },
    {
      "cityName": "Lanlegwa",
      "lat": 21.3333333,
      "lng": 95.6666667
    },
    {
      "cityName": "Lanzon",
      "lat": 20.5,
      "lng": 96.4833333
    },
    {
      "cityName": "Lapettaung",
      "lat": 19.6,
      "lng": 96.45
    },
    {
      "cityName": "Lawu",
      "lat": 19.65,
      "lng": 96.6
    },
    {
      "cityName": "Lawywa",
      "lat": 20.6833333,
      "lng": 96.45
    },
    {
      "cityName": "Lebin",
      "lat": 21,
      "lng": 95.4333333
    },
    {
      "cityName": "Lebya",
      "lat": 21.0166667,
      "lng": 95.5166667
    },
    {
      "cityName": "Lebyaungbyan",
      "lat": 22.0333333,
      "lng": 96.4
    },
    {
      "cityName": "Lebyintha",
      "lat": 20.0666667,
      "lng": 96.15
    },
    {
      "cityName": "Ledagale",
      "lat": 19.8166667,
      "lng": 95.95
    },
    {
      "cityName": "Ledagaung",
      "lat": 21,
      "lng": 95.7166667
    },
    {
      "cityName": "Ledagyi",
      "lat": 19.8333333,
      "lng": 95.9333333
    },
    {
      "cityName": "Ledan",
      "lat": 21.6,
      "lng": 95.5
    },
    {
      "cityName": "Ledaunggan",
      "lat": 21.0833333,
      "lng": 95.75
    },
    {
      "cityName": "Ledaw",
      "lat": 20.9166667,
      "lng": 95.6333333
    },
    {
      "cityName": "Ledet",
      "lat": 22.05,
      "lng": 96.4166667
    },
    {
      "cityName": "Legan",
      "lat": 20.9833333,
      "lng": 94.9
    },
    {
      "cityName": "Legaung",
      "lat": 20.8166667,
      "lng": 96.5
    },
    {
      "cityName": "Legwa",
      "lat": 20.8333333,
      "lng": 95.2166667
    },
    {
      "cityName": "Legwetkyi",
      "lat": 21.15,
      "lng": 95.45
    },
    {
      "cityName": "Legyaing",
      "lat": 21.2833333,
      "lng": 95.4833333
    },
    {
      "cityName": "Legyi",
      "lat": 21.0166667,
      "lng": 95.2666667
    },
    {
      "cityName": "Leikkwe",
      "lat": 21.0333333,
      "lng": 95.6833333
    },
    {
      "cityName": "Leikkya",
      "lat": 21.8166667,
      "lng": 96.4166667
    },
    {
      "cityName": "Leiksangun",
      "lat": 21.8166667,
      "lng": 96.05
    },
    {
      "cityName": "Leinbin",
      "lat": 21.0833333,
      "lng": 96.0166667
    },
    {
      "cityName": "Leingon",
      "lat": 22.2666667,
      "lng": 96.0833333
    },
    {
      "cityName": "Leluaing",
      "lat": 19.7166667,
      "lng": 96.2166667
    },
    {
      "cityName": "Lemyethna",
      "lat": 21.1666667,
      "lng": 95.8666667
    },
    {
      "cityName": "Lethagon",
      "lat": 20.5166667,
      "lng": 95.7666667
    },
    {
      "cityName": "Letha",
      "lat": 19.9333333,
      "lng": 96.2166667
    },
    {
      "cityName": "Lethaung",
      "lat": 21.1333333,
      "lng": 95.3666667
    },
    {
      "cityName": "Le-thit",
      "lat": 21.4833333,
      "lng": 95.4333333
    },
    {
      "cityName": "Letkaunggyi",
      "lat": 22.2333333,
      "lng": 96.15
    },
    {
      "cityName": "Letkhokpin",
      "lat": 22.65,
      "lng": 96.0333333
    },
    {
      "cityName": "Letpabya",
      "lat": 20.8166667,
      "lng": 95.4
    },
    {
      "cityName": "Letpadaw Anauk",
      "lat": 20.4333333,
      "lng": 96.0333333
    },
    {
      "cityName": "Letpanaing",
      "lat": 20.85,
      "lng": 95.5333333
    },
    {
      "cityName": "Letpanbin",
      "lat": 20.8666667,
      "lng": 95.1166667
    },
    {
      "cityName": "Letpanchaing",
      "lat": 21.7666667,
      "lng": 96.0333333
    },
    {
      "cityName": "Letpanchibaw",
      "lat": 21.2833333,
      "lng": 95.0666667
    },
    {
      "cityName": "Letpandaing",
      "lat": 20.6666667,
      "lng": 95.6166667
    },
    {
      "cityName": "Letpandaw",
      "lat": 22.4,
      "lng": 96.3333333
    },
    {
      "cityName": "Letpande",
      "lat": 21.15,
      "lng": 95.0166667
    },
    {
      "cityName": "Letpangon",
      "lat": 21.8166667,
      "lng": 96.3666667
    },
    {
      "cityName": "Letpanhkahla Ale",
      "lat": 20.4833333,
      "lng": 96.0333333
    },
    {
      "cityName": "Letpan",
      "lat": 20.25,
      "lng": 96.0666667
    },
    {
      "cityName": "Letpanseik",
      "lat": 21.3833333,
      "lng": 96.1666667
    },
    {
      "cityName": "Letpanzauk",
      "lat": 21.1333333,
      "lng": 95.6
    },
    {
      "cityName": "Letpanzeik",
      "lat": 21.3666667,
      "lng": 96.05
    },
    {
      "cityName": "Letswe",
      "lat": 21.2333333,
      "lng": 95.7666667
    },
    {
      "cityName": "Letthamagan",
      "lat": 21.4,
      "lng": 95.4666667
    },
    {
      "cityName": "Letthamagu",
      "lat": 21.8333333,
      "lng": 96.0833333
    },
    {
      "cityName": "Letthegyin",
      "lat": 21.2666667,
      "lng": 95.4166667
    },
    {
      "cityName": "Letthegyo",
      "lat": 20.7,
      "lng": 95.8166667
    },
    {
      "cityName": "Letthit",
      "lat": 21.9333333,
      "lng": 96.1833333
    },
    {
      "cityName": "Lettok",
      "lat": 21.2833333,
      "lng": 95.1166667
    },
    {
      "cityName": "Letwe",
      "lat": 21.4166667,
      "lng": 95.5
    },
    {
      "cityName": "Lewe",
      "lat": 19.6333333,
      "lng": 96.1166667
    },
    {
      "cityName": "Leya",
      "lat": 20.8166667,
      "lng": 95.1166667
    },
    {
      "cityName": "Leywa",
      "lat": 22.45,
      "lng": 96
    },
    {
      "cityName": "Leywazon",
      "lat": 21.4166667,
      "lng": 95.9
    },
    {
      "cityName": "Lezamyaung",
      "lat": 19.65,
      "lng": 95.95
    },
    {
      "cityName": "Lezegon",
      "lat": 21.4833333,
      "lng": 96.1333333
    },
    {
      "cityName": "Linzwe",
      "lat": 21.4666667,
      "lng": 96.0833333
    },
    {
      "cityName": "Londaw",
      "lat": 21.4333333,
      "lng": 95.55
    },
    {
      "cityName": "Lugingyi",
      "lat": 20.85,
      "lng": 95.85
    },
    {
      "cityName": "Lugin",
      "lat": 21.2,
      "lng": 95.9166667
    },
    {
      "cityName": "Lugon",
      "lat": 20.7333333,
      "lng": 96.0166667
    },
    {
      "cityName": "Lunaing",
      "lat": 20.8666667,
      "lng": 95.3166667
    },
    {
      "cityName": "Lundaung",
      "lat": 21.1666667,
      "lng": 95.3666667
    },
    {
      "cityName": "Lungyaw",
      "lat": 21.3833333,
      "lng": 96.2833333
    },
    {
      "cityName": "Lun-kaung",
      "lat": 21.8,
      "lng": 96.3333333
    },
    {
      "cityName": "Lwingin",
      "lat": 20.5833333,
      "lng": 96.0166667
    },
    {
      "cityName": "Madawbin",
      "lat": 19.6666667,
      "lng": 96
    },
    {
      "cityName": "Madaya",
      "lat": 22.2166667,
      "lng": 96.1166667
    },
    {
      "cityName": "Magwe-taya",
      "lat": 22.4,
      "lng": 96.1
    },
    {
      "cityName": "Magyibinbu",
      "lat": 21.1666667,
      "lng": 95.6833333
    },
    {
      "cityName": "Magyibinde",
      "lat": 20.8333333,
      "lng": 95.7666667
    },
    {
      "cityName": "Magyibin",
      "lat": 20.1666667,
      "lng": 96.1833333
    },
    {
      "cityName": "Magyidan",
      "lat": 20.5666667,
      "lng": 96.1
    },
    {
      "cityName": "Magyidaw",
      "lat": 21.1,
      "lng": 96.0833333
    },
    {
      "cityName": "Magyigaing",
      "lat": 21.8333333,
      "lng": 96.1333333
    },
    {
      "cityName": "Magyigan",
      "lat": 21.0833333,
      "lng": 95.7833333
    },
    {
      "cityName": "Magyigon",
      "lat": 20.1166667,
      "lng": 96.2666667
    },
    {
      "cityName": "Magyigon Myauk",
      "lat": 20.4,
      "lng": 96.1
    },
    {
      "cityName": "Magyigon Taung",
      "lat": 20.3833333,
      "lng": 96.1
    },
    {
      "cityName": "Magyigwa",
      "lat": 20.7,
      "lng": 96.05
    },
    {
      "cityName": "Magyigyaung",
      "lat": 21.3,
      "lng": 96.2333333
    },
    {
      "cityName": "Magyigyo",
      "lat": 20.8166667,
      "lng": 95.7833333
    },
    {
      "cityName": "Magyi-in",
      "lat": 21.7166667,
      "lng": 96.3333333
    },
    {
      "cityName": "Magyikahla",
      "lat": 21.2,
      "lng": 95.4333333
    },
    {
      "cityName": "Magyingokto",
      "lat": 20.6333333,
      "lng": 95.05
    },
    {
      "cityName": "Magyi-ok",
      "lat": 21.1166667,
      "lng": 96.15
    },
    {
      "cityName": "Magyizu",
      "lat": 21,
      "lng": 95.3
    },
    {
      "cityName": "Mahlaing",
      "lat": 21.1,
      "lng": 95.65
    },
    {
      "cityName": "Mahlwabin",
      "lat": 21.0833333,
      "lng": 95.9333333
    },
    {
      "cityName": "Mahnaingtha",
      "lat": 21.3333333,
      "lng": 95.7166667
    },
    {
      "cityName": "Maingban",
      "lat": 21.55,
      "lng": 96.2166667
    },
    {
      "cityName": "Maingleze",
      "lat": 21.85,
      "lng": 96.1833333
    },
    {
      "cityName": "Mainglon",
      "lat": 22.05,
      "lng": 96.6
    },
    {
      "cityName": "Malegyi",
      "lat": 22.5666667,
      "lng": 96.1
    },
    {
      "cityName": "Male",
      "lat": 21.3666667,
      "lng": 95.5166667
    },
    {
      "cityName": "Mandalay",
      "lat": 22,
      "lng": 96.0833333
    },
    {
      "cityName": "Mashet",
      "lat": 21.4833333,
      "lng": 96.0833333
    },
    {
      "cityName": "Mathe",
      "lat": 21.3666667,
      "lng": 96.25
    },
    {
      "cityName": "Ma-u-bin",
      "lat": 21.0166667,
      "lng": 94.8666667
    },
    {
      "cityName": "Maungdon",
      "lat": 20.6,
      "lng": 95.9833333
    },
    {
      "cityName": "Maunggwe",
      "lat": 21.2333333,
      "lng": 96.3166667
    },
    {
      "cityName": "Maungyan",
      "lat": 19.8166667,
      "lng": 96.05
    },
    {
      "cityName": "Mayabin",
      "lat": 22.2,
      "lng": 96.05
    },
    {
      "cityName": "Mayandaung Auk",
      "lat": 19.6666667,
      "lng": 96.3833333
    },
    {
      "cityName": "Mayangon",
      "lat": 19.8833333,
      "lng": 96.0333333
    },
    {
      "cityName": "Mayan",
      "lat": 21.2333333,
      "lng": 95.9
    },
    {
      "cityName": "Mayaukye-Ngalaing",
      "lat": 21.05,
      "lng": 95.0166667
    },
    {
      "cityName": "Mayingin",
      "lat": 19.6666667,
      "lng": 95.75
    },
    {
      "cityName": "Maymo",
      "lat": 22.0333333,
      "lng": 96.4666667
    },
    {
      "cityName": "Mayogon",
      "lat": 21.4,
      "lng": 95.2833333
    },
    {
      "cityName": "Mayo",
      "lat": 21.05,
      "lng": 95.7833333
    },
    {
      "cityName": "Maywe",
      "lat": 20.8,
      "lng": 96.0833333
    },
    {
      "cityName": "Mebauk",
      "lat": 19.8,
      "lng": 96.4333333
    },
    {
      "cityName": "Medaw",
      "lat": 20.9166667,
      "lng": 96.0833333
    },
    {
      "cityName": "Medi",
      "lat": 20.65,
      "lng": 95.1666667
    },
    {
      "cityName": "Mehaw",
      "lat": 19.6166667,
      "lng": 96.4
    },
    {
      "cityName": "Me-hgun",
      "lat": 22.0333333,
      "lng": 96.7666667
    },
    {
      "cityName": "Meiktila",
      "lat": 20.8666667,
      "lng": 95.8666667
    },
    {
      "cityName": "Mezaligon",
      "lat": 20.85,
      "lng": 95.6666667
    },
    {
      "cityName": "Mezaligyin",
      "lat": 20.1666667,
      "lng": 96.0166667
    },
    {
      "cityName": "Mezebin",
      "lat": 21.6166667,
      "lng": 96.0666667
    },
    {
      "cityName": "Mezegyan",
      "lat": 21.4333333,
      "lng": 96.2333333
    },
    {
      "cityName": "Mibak West",
      "lat": 21.35,
      "lng": 95.2166667
    },
    {
      "cityName": "Mibauk East",
      "lat": 21.35,
      "lng": 95.2333333
    },
    {
      "cityName": "Migyaunggan",
      "lat": 20.8,
      "lng": 95.8333333
    },
    {
      "cityName": "Milaungbya",
      "lat": 20.9833333,
      "lng": 94.8666667
    },
    {
      "cityName": "Minbyin",
      "lat": 19.6,
      "lng": 95.8666667
    },
    {
      "cityName": "Mindan",
      "lat": 20.5666667,
      "lng": 96.0666667
    },
    {
      "cityName": "Mindegon",
      "lat": 20.6666667,
      "lng": 95.9
    },
    {
      "cityName": "Mingaing",
      "lat": 21.8166667,
      "lng": 96.0833333
    },
    {
      "cityName": "Mingala",
      "lat": 21.8833333,
      "lng": 96.1833333
    },
    {
      "cityName": "Mingan",
      "lat": 21.2666667,
      "lng": 95.45
    },
    {
      "cityName": "Mingon",
      "lat": 19.8333333,
      "lng": 96.05
    },
    {
      "cityName": "Mingyun",
      "lat": 21.3166667,
      "lng": 95.2333333
    },
    {
      "cityName": "Minle",
      "lat": 21.4166667,
      "lng": 96.25
    },
    {
      "cityName": "Minnegon",
      "lat": 21.7,
      "lng": 95.5666667
    },
    {
      "cityName": "Minpalaung",
      "lat": 20.9333333,
      "lng": 96.45
    },
    {
      "cityName": "Minyehla",
      "lat": 22.0166667,
      "lng": 96.05
    },
    {
      "cityName": "Minye",
      "lat": 19.4666667,
      "lng": 96.1166667
    },
    {
      "cityName": "Minyin",
      "lat": 21.2333333,
      "lng": 95.35
    },
    {
      "cityName": "Minywa",
      "lat": 22.5166667,
      "lng": 96.05
    },
    {
      "cityName": "Minzu",
      "lat": 21.5166667,
      "lng": 96.1166667
    },
    {
      "cityName": "Mipayagon",
      "lat": 20.5833333,
      "lng": 95.6333333
    },
    {
      "cityName": "Mithwebok",
      "lat": 21.8333333,
      "lng": 96.2166667
    },
    {
      "cityName": "Mi-thwe-bo",
      "lat": 22.1,
      "lng": 96.5666667
    },
    {
      "cityName": "Modeinbyin",
      "lat": 21.3333333,
      "lng": 95.5666667
    },
    {
      "cityName": "Mogan",
      "lat": 21.4333333,
      "lng": 95.6333333
    },
    {
      "cityName": "Mogaunggyi",
      "lat": 22.55,
      "lng": 96.1166667
    },
    {
      "cityName": "Mogaung",
      "lat": 20.6,
      "lng": 96.2666667
    },
    {
      "cityName": "Mogyo-byit",
      "lat": 22.0666667,
      "lng": 96.5166667
    },
    {
      "cityName": "Mogyogon",
      "lat": 21.5833333,
      "lng": 96.0833333
    },
    {
      "cityName": "Mogyogyun",
      "lat": 22.2166667,
      "lng": 96.0166667
    },
    {
      "cityName": "Momzin",
      "lat": 20.9166667,
      "lng": 95.7166667
    },
    {
      "cityName": "Monatkon",
      "lat": 21.1,
      "lng": 94.8666667
    },
    {
      "cityName": "Monaunggin",
      "lat": 21.3333333,
      "lng": 95.4666667
    },
    {
      "cityName": "Monbaung",
      "lat": 21.55,
      "lng": 96.1666667
    },
    {
      "cityName": "Monbin",
      "lat": 21.0666667,
      "lng": 95.6
    },
    {
      "cityName": "Monbinzon",
      "lat": 20.7333333,
      "lng": 96.2333333
    },
    {
      "cityName": "Mondaing",
      "lat": 20.8,
      "lng": 95.75
    },
    {
      "cityName": "Mondaw",
      "lat": 21.1,
      "lng": 95.8666667
    },
    {
      "cityName": "Mongan",
      "lat": 20.7,
      "lng": 95.2833333
    },
    {
      "cityName": "Mongon",
      "lat": 20.75,
      "lng": 95.85
    },
    {
      "cityName": "Mongor",
      "lat": 20.8166667,
      "lng": 95.2333333
    },
    {
      "cityName": "Monnawgale",
      "lat": 21.4,
      "lng": 96.2333333
    },
    {
      "cityName": "Moswe",
      "lat": 19.9333333,
      "lng": 95.9666667
    },
    {
      "cityName": "Mundigwin Ashe",
      "lat": 19.7666667,
      "lng": 96.2666667
    },
    {
      "cityName": "Mwebongan",
      "lat": 22.3333333,
      "lng": 96.0666667
    },
    {
      "cityName": "Mwedaw",
      "lat": 20.8,
      "lng": 96.5833333
    },
    {
      "cityName": "Mwegon",
      "lat": 21.5333333,
      "lng": 96.1333333
    },
    {
      "cityName": "Mwehintha",
      "lat": 22.2833333,
      "lng": 96.05
    },
    {
      "cityName": "Mwehintha South",
      "lat": 22.2833333,
      "lng": 96.0333333
    },
    {
      "cityName": "Mweyogyi",
      "lat": 19.6166667,
      "lng": 96.1166667
    },
    {
      "cityName": "Myainggon",
      "lat": 21.3,
      "lng": 96.15
    },
    {
      "cityName": "Myaingtha",
      "lat": 20.8833333,
      "lng": 96.1833333
    },
    {
      "cityName": "Myanadi",
      "lat": 21.3,
      "lng": 96.3
    },
    {
      "cityName": "Myatlebin",
      "lat": 21.2666667,
      "lng": 96.3333333
    },
    {
      "cityName": "Myaukhmyaik",
      "lat": 20.1666667,
      "lng": 96.1166667
    },
    {
      "cityName": "Myaukkaing",
      "lat": 21.3333333,
      "lng": 96.1166667
    },
    {
      "cityName": "Myaukkon",
      "lat": 21,
      "lng": 95.1833333
    },
    {
      "cityName": "Myaukle",
      "lat": 20.75,
      "lng": 95.6833333
    },
    {
      "cityName": "Myaukmigon",
      "lat": 20.6333333,
      "lng": 96.1833333
    },
    {
      "cityName": "Myauktaw",
      "lat": 20.9666667,
      "lng": 95.25
    },
    {
      "cityName": "Myaukywa",
      "lat": 21.3166667,
      "lng": 95.4166667
    },
    {
      "cityName": "Myaunggya",
      "lat": 21.3666667,
      "lng": 96.2166667
    },
    {
      "cityName": "Myaungtha",
      "lat": 19.5666667,
      "lng": 95.9833333
    },
    {
      "cityName": "Myaungu",
      "lat": 20.6666667,
      "lng": 95.25
    },
    {
      "cityName": "Myaung-u",
      "lat": 22.2,
      "lng": 96.2166667
    },
    {
      "cityName": "Myaungywa",
      "lat": 20.9833333,
      "lng": 94.9166667
    },
    {
      "cityName": "Myebon",
      "lat": 21.85,
      "lng": 96.4
    },
    {
      "cityName": "Myedaingkan",
      "lat": 21.1333333,
      "lng": 96.0333333
    },
    {
      "cityName": "Myemyo Auk",
      "lat": 19.8333333,
      "lng": 96.5333333
    },
    {
      "cityName": "Myene",
      "lat": 21.1833333,
      "lng": 94.9166667
    },
    {
      "cityName": "Myetchenu",
      "lat": 22.0166667,
      "lng": 96.4
    },
    {
      "cityName": "Mye-thindwin",
      "lat": 21.1333333,
      "lng": 95
    },
    {
      "cityName": "Myetkha-in",
      "lat": 20.8166667,
      "lng": 96.5333333
    },
    {
      "cityName": "Myetnigyin",
      "lat": 20.9166667,
      "lng": 96.2833333
    },
    {
      "cityName": "Myetshu",
      "lat": 21.5333333,
      "lng": 95.8
    },
    {
      "cityName": "Myetthigyin",
      "lat": 21.1,
      "lng": 95.7
    },
    {
      "cityName": "Myezo",
      "lat": 21.55,
      "lng": 96.1166667
    },
    {
      "cityName": "Myezun",
      "lat": 22.2666667,
      "lng": 96.0166667
    },
    {
      "cityName": "Myindaung",
      "lat": 21.9833333,
      "lng": 96.5666667
    },
    {
      "cityName": "Myindawgan",
      "lat": 20.9166667,
      "lng": 95.8333333
    },
    {
      "cityName": "Myinde",
      "lat": 20.6166667,
      "lng": 95.7666667
    },
    {
      "cityName": "Myindwin",
      "lat": 21.1666667,
      "lng": 95.75
    },
    {
      "cityName": "Myingan",
      "lat": 20.8333333,
      "lng": 95.8
    },
    {
      "cityName": "Myingondaing",
      "lat": 21.5166667,
      "lng": 96.1
    },
    {
      "cityName": "Myingyakan",
      "lat": 21.1666667,
      "lng": 96.1333333
    },
    {
      "cityName": "Myingyangon",
      "lat": 21.0166667,
      "lng": 95.3666667
    },
    {
      "cityName": "Myingyan",
      "lat": 21.4666667,
      "lng": 95.3833333
    },
    {
      "cityName": "Myinkapa",
      "lat": 21.15,
      "lng": 94.8666667
    },
    {
      "cityName": "Myinni",
      "lat": 21.3833333,
      "lng": 95.4833333
    },
    {
      "cityName": "Myinthadaung",
      "lat": 21.0666667,
      "lng": 95.3333333
    },
    {
      "cityName": "Myintha",
      "lat": 20.8666667,
      "lng": 95.8
    },
    {
      "cityName": "Myintheywa",
      "lat": 21.2333333,
      "lng": 95.8
    },
    {
      "cityName": "Myinuhle",
      "lat": 21.1,
      "lng": 95.5333333
    },
    {
      "cityName": "Myitkan",
      "lat": 22.2833333,
      "lng": 96.2333333
    },
    {
      "cityName": "Myitkauk",
      "lat": 22.15,
      "lng": 96.0833333
    },
    {
      "cityName": "Myitnge",
      "lat": 21.8666667,
      "lng": 96.0833333
    },
    {
      "cityName": "Myoba",
      "lat": 21.2333333,
      "lng": 95.3166667
    },
    {
      "cityName": "Myodaung",
      "lat": 20.5833333,
      "lng": 96.5166667
    },
    {
      "cityName": "Myodaw",
      "lat": 21.9166667,
      "lng": 96.1833333
    },
    {
      "cityName": "Myodin",
      "lat": 22.2833333,
      "lng": 96.2166667
    },
    {
      "cityName": "Myodwin",
      "lat": 21.2833333,
      "lng": 96.1666667
    },
    {
      "cityName": "Myogon",
      "lat": 19.6,
      "lng": 96.0833333
    },
    {
      "cityName": "Myogyigon",
      "lat": 20.9666667,
      "lng": 96.0166667
    },
    {
      "cityName": "Myohla",
      "lat": 20.35,
      "lng": 96.05
    },
    {
      "cityName": "Myothagon",
      "lat": 21.75,
      "lng": 96.1
    },
    {
      "cityName": "Myotha",
      "lat": 21.25,
      "lng": 96.1166667
    },
    {
      "cityName": "Nabegyin",
      "lat": 21.2,
      "lng": 95.7333333
    },
    {
      "cityName": "Nabemyit",
      "lat": 21.5,
      "lng": 95.8
    },
    {
      "cityName": "Nabuaing",
      "lat": 21.6666667,
      "lng": 95.55
    },
    {
      "cityName": "Nabudaw",
      "lat": 21.55,
      "lng": 95.6666667
    },
    {
      "cityName": "Nabudaw South",
      "lat": 21.5333333,
      "lng": 95.6666667
    },
    {
      "cityName": "Nabugyin",
      "lat": 20.3166667,
      "lng": 96.1333333
    },
    {
      "cityName": "Nagabo",
      "lat": 21.05,
      "lng": 95.4
    },
    {
      "cityName": "Nagale",
      "lat": 20.9166667,
      "lng": 95.3
    },
    {
      "cityName": "Nagthayauk",
      "lat": 21.15,
      "lng": 95.15
    },
    {
      "cityName": "Nam-hu",
      "lat": 21.7833333,
      "lng": 96.7
    },
    {
      "cityName": "Nam-lin-khan",
      "lat": 22.1333333,
      "lng": 96.6
    },
    {
      "cityName": "Namozin",
      "lat": 21.2,
      "lng": 95.6166667
    },
    {
      "cityName": "Nanaw",
      "lat": 19.9333333,
      "lng": 96.25
    },
    {
      "cityName": "Nancho",
      "lat": 19.5833333,
      "lng": 96.55
    },
    {
      "cityName": "Nandalamaing",
      "lat": 22.0333333,
      "lng": 96.1166667
    },
    {
      "cityName": "Nanda",
      "lat": 22.05,
      "lng": 96.1
    },
    {
      "cityName": "Nandawgon",
      "lat": 20.9166667,
      "lng": 96.1666667
    },
    {
      "cityName": "Nan-kat",
      "lat": 22.0333333,
      "lng": 96.4166667
    },
    {
      "cityName": "Nankwe",
      "lat": 20.5166667,
      "lng": 96.35
    },
    {
      "cityName": "Nanlon",
      "lat": 20.5166667,
      "lng": 96.2333333
    },
    {
      "cityName": "Nanni",
      "lat": 21.6666667,
      "lng": 96.0333333
    },
    {
      "cityName": "Nanwindawbo",
      "lat": 21.4833333,
      "lng": 95.5666667
    },
    {
      "cityName": "Nanywa",
      "lat": 21.3666667,
      "lng": 95.3833333
    },
    {
      "cityName": "Nata",
      "lat": 21.4666667,
      "lng": 95.4333333
    },
    {
      "cityName": "Nat-in",
      "lat": 20.5166667,
      "lng": 96.3
    },
    {
      "cityName": "Natkan Anauk",
      "lat": 21.0333333,
      "lng": 96.0333333
    },
    {
      "cityName": "Natkan Ashe",
      "lat": 21.05,
      "lng": 96.0333333
    },
    {
      "cityName": "Natkan",
      "lat": 19.5333333,
      "lng": 96.1166667
    },
    {
      "cityName": "Natkin",
      "lat": 20.1666667,
      "lng": 96.3
    },
    {
      "cityName": "Natkyidaung",
      "lat": 20.45,
      "lng": 96.45
    },
    {
      "cityName": "Natlwe",
      "lat": 21.3166667,
      "lng": 96.2833333
    },
    {
      "cityName": "Natma Myauk",
      "lat": 20.2,
      "lng": 96.3333333
    },
    {
      "cityName": "Natogyi",
      "lat": 21.4166667,
      "lng": 95.65
    },
    {
      "cityName": "Natpalindangyin",
      "lat": 21.05,
      "lng": 94.9833333
    },
    {
      "cityName": "Natsingon",
      "lat": 21.1166667,
      "lng": 95.7833333
    },
    {
      "cityName": "Natsingyi",
      "lat": 20.45,
      "lng": 96.1833333
    },
    {
      "cityName": "Natsin",
      "lat": 20.2833333,
      "lng": 96.3333333
    },
    {
      "cityName": "Natsonhmaw",
      "lat": 20.6,
      "lng": 95.8333333
    },
    {
      "cityName": "Nattaung",
      "lat": 20.2666667,
      "lng": 96.25
    },
    {
      "cityName": "Natthaye",
      "lat": 19.6833333,
      "lng": 96.25
    },
    {
      "cityName": "Naungkan",
      "lat": 21.4833333,
      "lng": 96.2833333
    },
    {
      "cityName": "Naunglaung",
      "lat": 22.0333333,
      "lng": 96.5833333
    },
    {
      "cityName": "Naung-pein",
      "lat": 22.2,
      "lng": 96.4666667
    },
    {
      "cityName": "Naung-tha-kaw",
      "lat": 22.15,
      "lng": 96.5166667
    },
    {
      "cityName": "Naungwe",
      "lat": 21.8333333,
      "lng": 96.3333333
    },
    {
      "cityName": "Nebugon",
      "lat": 21.2,
      "lng": 95.95
    },
    {
      "cityName": "Ngadôk",
      "lat": 19.8,
      "lng": 96.0666667
    },
    {
      "cityName": "Ngaginge",
      "lat": 21.6666667,
      "lng": 95.3833333
    },
    {
      "cityName": "Ngahmundaung",
      "lat": 22.15,
      "lng": 96.1833333
    },
    {
      "cityName": "Ngaminme",
      "lat": 20.9333333,
      "lng": 95.05
    },
    {
      "cityName": "Ngamya",
      "lat": 21.7833333,
      "lng": 95.4666667
    },
    {
      "cityName": "Nga-o",
      "lat": 21.65,
      "lng": 96.0833333
    },
    {
      "cityName": "Ngapyawaing",
      "lat": 21.4833333,
      "lng": 95.6666667
    },
    {
      "cityName": "Ngapyin-in",
      "lat": 22.6,
      "lng": 95.95
    },
    {
      "cityName": "Ngashandaung",
      "lat": 20.6333333,
      "lng": 95.0666667
    },
    {
      "cityName": "Ngasigyi",
      "lat": 21.35,
      "lng": 95.7333333
    },
    {
      "cityName": "Ngasingu",
      "lat": 22.5666667,
      "lng": 96.0333333
    },
    {
      "cityName": "Ngata Sakan",
      "lat": 21.7833333,
      "lng": 96.5
    },
    {
      "cityName": "Ngathayauk",
      "lat": 20.7333333,
      "lng": 95.05
    },
    {
      "cityName": "Ngathet",
      "lat": 21,
      "lng": 95.9833333
    },
    {
      "cityName": "Ngazu",
      "lat": 21.3833333,
      "lng": 96.1333333
    },
    {
      "cityName": "Ngedaw",
      "lat": 21.6333333,
      "lng": 96.1833333
    },
    {
      "cityName": "Ngedo",
      "lat": 22.15,
      "lng": 96.0333333
    },
    {
      "cityName": "Ngwedaung",
      "lat": 21.3,
      "lng": 95.55
    },
    {
      "cityName": "Ngwe-o-daung",
      "lat": 20.4,
      "lng": 96.4166667
    },
    {
      "cityName": "Nikalon",
      "lat": 19.6833333,
      "lng": 96.6666667
    },
    {
      "cityName": "Nwabyin",
      "lat": 21.3333333,
      "lng": 95.4166667
    },
    {
      "cityName": "Nwadatkon",
      "lat": 21.5666667,
      "lng": 96.0166667
    },
    {
      "cityName": "Nwadawgon",
      "lat": 21.5166667,
      "lng": 95.95
    },
    {
      "cityName": "Nwade",
      "lat": 21.3166667,
      "lng": 95.3666667
    },
    {
      "cityName": "Nwado",
      "lat": 20.7833333,
      "lng": 96.05
    },
    {
      "cityName": "Nwagu",
      "lat": 20.5166667,
      "lng": 96.1666667
    },
    {
      "cityName": "Nwanan",
      "lat": 21.1166667,
      "lng": 95.9833333
    },
    {
      "cityName": "Nwanawa",
      "lat": 22.5833333,
      "lng": 96.2833333
    },
    {
      "cityName": "Nwanozu",
      "lat": 21.8833333,
      "lng": 96.0666667
    },
    {
      "cityName": "Nwapyunge",
      "lat": 21.4166667,
      "lng": 96.0833333
    },
    {
      "cityName": "Nwasangok",
      "lat": 20.7666667,
      "lng": 95.7666667
    },
    {
      "cityName": "Nwashayo",
      "lat": 21.3833333,
      "lng": 96.05
    },
    {
      "cityName": "Nwenwe",
      "lat": 20.6333333,
      "lng": 96.2666667
    },
    {
      "cityName": "Nweyon",
      "lat": 22.6666667,
      "lng": 96.0333333
    },
    {
      "cityName": "Nyandaw",
      "lat": 20.5166667,
      "lng": 95.8666667
    },
    {
      "cityName": "Nyanyintha",
      "lat": 21.9333333,
      "lng": 96.4166667
    },
    {
      "cityName": "Nyaungaing",
      "lat": 20.3666667,
      "lng": 96.1833333
    },
    {
      "cityName": "Nyaungbaw",
      "lat": 21.85,
      "lng": 96.3
    },
    {
      "cityName": "Nyaungbinde",
      "lat": 21.05,
      "lng": 95.7
    },
    {
      "cityName": "Nyaungbingon",
      "lat": 20.8,
      "lng": 95.85
    },
    {
      "cityName": "Nyaungbingyi",
      "lat": 21.7666667,
      "lng": 96.0833333
    },
    {
      "cityName": "Nyaungbinhla",
      "lat": 20.7166667,
      "lng": 96.15
    },
    {
      "cityName": "Nyaungbin",
      "lat": 21.1166667,
      "lng": 95.7166667
    },
    {
      "cityName": "Nyaungbintha",
      "lat": 20.1333333,
      "lng": 96.2833333
    },
    {
      "cityName": "Nyaungbinywa",
      "lat": 21.2833333,
      "lng": 96.1166667
    },
    {
      "cityName": "Nyaungbinzauk",
      "lat": 21.4166667,
      "lng": 95.7166667
    },
    {
      "cityName": "Nyaungbyubin",
      "lat": 20.8333333,
      "lng": 95.2333333
    },
    {
      "cityName": "Nyaungchaung",
      "lat": 21.25,
      "lng": 95.5166667
    },
    {
      "cityName": "Nyaungdo",
      "lat": 20.8333333,
      "lng": 96.0166667
    },
    {
      "cityName": "Nyaunggaing",
      "lat": 20.2,
      "lng": 96.2333333
    },
    {
      "cityName": "Nyaunggandaung",
      "lat": 20.85,
      "lng": 95.0833333
    },
    {
      "cityName": "Nyaunggan",
      "lat": 20.8833333,
      "lng": 95.1833333
    },
    {
      "cityName": "Nyaungga",
      "lat": 21.15,
      "lng": 95.7166667
    },
    {
      "cityName": "Nyaunggon Myauk",
      "lat": 22.0833333,
      "lng": 96.0833333
    },
    {
      "cityName": "Nyaunggon",
      "lat": 20.9333333,
      "lng": 95.9166667
    },
    {
      "cityName": "Nyaunggwe",
      "lat": 22.0166667,
      "lng": 96.0833333
    },
    {
      "cityName": "Nyaunggyaing",
      "lat": 20.8,
      "lng": 95.2666667
    },
    {
      "cityName": "Nyaunggyidaung",
      "lat": 21.1666667,
      "lng": 95
    },
    {
      "cityName": "Nyaunggyinbingon",
      "lat": 20.5166667,
      "lng": 96.4833333
    },
    {
      "cityName": "Nyaungkaya",
      "lat": 21.1166667,
      "lng": 95.8833333
    },
    {
      "cityName": "Nyaunglebin",
      "lat": 20.35,
      "lng": 96.1666667
    },
    {
      "cityName": "Nyaunglun",
      "lat": 20.2333333,
      "lng": 96.2
    },
    {
      "cityName": "Nyaungngabin",
      "lat": 20.2,
      "lng": 96.1833333
    },
    {
      "cityName": "Nyaungnigyin",
      "lat": 20.8666667,
      "lng": 95
    },
    {
      "cityName": "Nyaungni",
      "lat": 21.95,
      "lng": 96.45
    },
    {
      "cityName": "Nyaungnwe",
      "lat": 20.6333333,
      "lng": 96.0333333
    },
    {
      "cityName": "Nyaungok",
      "lat": 21.25,
      "lng": 95.75
    },
    {
      "cityName": "Nyaung-ok",
      "lat": 22.3666667,
      "lng": 96.0666667
    },
    {
      "cityName": "Nyaungoo",
      "lat": 21.2,
      "lng": 94.9166667
    },
    {
      "cityName": "Nyaungshwe",
      "lat": 20.6166667,
      "lng": 96.0166667
    },
    {
      "cityName": "Nyaungwin",
      "lat": 21.4833333,
      "lng": 95.9666667
    },
    {
      "cityName": "Nyaungwun",
      "lat": 21.6333333,
      "lng": 96.0833333
    },
    {
      "cityName": "Nyaungyan",
      "lat": 20.75,
      "lng": 96.0333333
    },
    {
      "cityName": "Nyaungzin",
      "lat": 21.5166667,
      "lng": 95.65
    },
    {
      "cityName": "Nyinyaung",
      "lat": 21.2,
      "lng": 95.65
    },
    {
      "cityName": "Nyobin",
      "lat": 19.6666667,
      "lng": 96.2
    },
    {
      "cityName": "Oaingywa",
      "lat": 20.7833333,
      "lng": 95.2333333
    },
    {
      "cityName": "Obodaik",
      "lat": 19.75,
      "lng": 96.2166667
    },
    {
      "cityName": "Obo",
      "lat": 21.3,
      "lng": 95.4166667
    },
    {
      "cityName": "Obyuingan",
      "lat": 21,
      "lng": 95.8
    },
    {
      "cityName": "Obyungan",
      "lat": 20.9833333,
      "lng": 95.8
    },
    {
      "cityName": "Odeindaung",
      "lat": 21.8,
      "lng": 96.0833333
    },
    {
      "cityName": "Odokkon",
      "lat": 21.2166667,
      "lng": 96.1166667
    },
    {
      "cityName": "Okgale",
      "lat": 20.9833333,
      "lng": 95.6166667
    },
    {
      "cityName": "Okhmonyo",
      "lat": 20.8333333,
      "lng": 95.45
    },
    {
      "cityName": "Okhne",
      "lat": 21.0333333,
      "lng": 96.1166667
    },
    {
      "cityName": "Okhpo",
      "lat": 22.0666667,
      "lng": 96.4
    },
    {
      "cityName": "Okhpozaung",
      "lat": 19.6,
      "lng": 96.2833333
    },
    {
      "cityName": "Okkon",
      "lat": 20.7666667,
      "lng": 96.15
    },
    {
      "cityName": "Okkyi",
      "lat": 20.9666667,
      "lng": 95.6333333
    },
    {
      "cityName": "Okpo",
      "lat": 20.5166667,
      "lng": 96.15
    },
    {
      "cityName": "Okshithlain",
      "lat": 19.7333333,
      "lng": 95.95
    },
    {
      "cityName": "Okshitkon",
      "lat": 20.4,
      "lng": 96.15
    },
    {
      "cityName": "Okshitmyaung",
      "lat": 20.5833333,
      "lng": 95.6
    },
    {
      "cityName": "Okshitpin",
      "lat": 20.6,
      "lng": 96
    },
    {
      "cityName": "Oktwin",
      "lat": 20.9,
      "lng": 96.1666667
    },
    {
      "cityName": "Omatwe",
      "lat": 20.85,
      "lng": 95.7666667
    },
    {
      "cityName": "Onbindaw",
      "lat": 21.2166667,
      "lng": 95.45
    },
    {
      "cityName": "Onbingyan",
      "lat": 20.6666667,
      "lng": 95.95
    },
    {
      "cityName": "Onbin",
      "lat": 20.25,
      "lng": 96.2833333
    },
    {
      "cityName": "Ondazin",
      "lat": 22.1,
      "lng": 96
    },
    {
      "cityName": "Ondon",
      "lat": 20.8833333,
      "lng": 95.6166667
    },
    {
      "cityName": "Ongon",
      "lat": 21.3333333,
      "lng": 96.1666667
    },
    {
      "cityName": "Ongyaw",
      "lat": 21.7833333,
      "lng": 96.7166667
    },
    {
      "cityName": "Ongyin",
      "lat": 21.1333333,
      "lng": 95.2833333
    },
    {
      "cityName": "Onhmin",
      "lat": 20.65,
      "lng": 96.15
    },
    {
      "cityName": "Onhnechaung",
      "lat": 21.2833333,
      "lng": 95.1
    },
    {
      "cityName": "Onletkauk",
      "lat": 21.65,
      "lng": 96.0333333
    },
    {
      "cityName": "Onthigwe",
      "lat": 20.4333333,
      "lng": 96.0833333
    },
    {
      "cityName": "Oyin",
      "lat": 21.1,
      "lng": 95.1833333
    },
    {
      "cityName": "Pabaung",
      "lat": 21.2,
      "lng": 95.5333333
    },
    {
      "cityName": "Padainggon",
      "lat": 21.45,
      "lng": 95.8666667
    },
    {
      "cityName": "Padaing",
      "lat": 20.9833333,
      "lng": 94.9833333
    },
    {
      "cityName": "Padatchaung",
      "lat": 19.6833333,
      "lng": 96.5833333
    },
    {
      "cityName": "Padatsakon",
      "lat": 21.2333333,
      "lng": 95.3833333
    },
    {
      "cityName": "Padaukkon",
      "lat": 19.7,
      "lng": 96.0333333
    },
    {
      "cityName": "Padigon",
      "lat": 20.3666667,
      "lng": 96.0666667
    },
    {
      "cityName": "Padin",
      "lat": 21.25,
      "lng": 95.8833333
    },
    {
      "cityName": "Padi",
      "lat": 21.2166667,
      "lng": 95.4
    },
    {
      "cityName": "Padwin",
      "lat": 20.7833333,
      "lng": 95.9666667
    },
    {
      "cityName": "Pagandat",
      "lat": 22.0166667,
      "lng": 96.0666667
    },
    {
      "cityName": "Pagan",
      "lat": 21.1666667,
      "lng": 94.8666667
    },
    {
      "cityName": "Pahtodaing",
      "lat": 21.6166667,
      "lng": 96.0833333
    },
    {
      "cityName": "Pahudaung",
      "lat": 22.1,
      "lng": 96.4166667
    },
    {
      "cityName": "Pakang",
      "lat": 22.1166667,
      "lng": 96.4166667
    },
    {
      "cityName": "Pakan",
      "lat": 21.3,
      "lng": 96.1166667
    },
    {
      "cityName": "Pa-kan",
      "lat": 21.95,
      "lng": 96.4666667
    },
    {
      "cityName": "Paket-magyibin",
      "lat": 21.1833333,
      "lng": 95.4166667
    },
    {
      "cityName": "Palambo",
      "lat": 21.7,
      "lng": 96.05
    },
    {
      "cityName": "Palandaw",
      "lat": 20.6666667,
      "lng": 95.3833333
    },
    {
      "cityName": "Palangan",
      "lat": 21.2166667,
      "lng": 95.95
    },
    {
      "cityName": "Palangyin",
      "lat": 20.8166667,
      "lng": 95.7
    },
    {
      "cityName": "Palawa",
      "lat": 21.1166667,
      "lng": 95.8666667
    },
    {
      "cityName": "Palin",
      "lat": 21.2166667,
      "lng": 94.9833333
    },
    {
      "cityName": "Pan-ainghla",
      "lat": 20.7,
      "lng": 96.0833333
    },
    {
      "cityName": "Panaing",
      "lat": 21.1333333,
      "lng": 95.6333333
    },
    {
      "cityName": "Pandin",
      "lat": 20.2166667,
      "lng": 96.4833333
    },
    {
      "cityName": "Pangagon",
      "lat": 20.7333333,
      "lng": 95.8
    },
    {
      "cityName": "Pangonbin",
      "lat": 20.9833333,
      "lng": 95
    },
    {
      "cityName": "Pang-sang Sakan",
      "lat": 22.0166667,
      "lng": 96.7666667
    },
    {
      "cityName": "Panidwin",
      "lat": 21.0333333,
      "lng": 95.0666667
    },
    {
      "cityName": "Patheingale",
      "lat": 22.0666667,
      "lng": 96.15
    },
    {
      "cityName": "Patheingyi",
      "lat": 22,
      "lng": 96.1666667
    },
    {
      "cityName": "Pathein",
      "lat": 22.2666667,
      "lng": 96.0333333
    },
    {
      "cityName": "Patta Ywathit",
      "lat": 19.6166667,
      "lng": 96.1333333
    },
    {
      "cityName": "Paukaing",
      "lat": 20.4333333,
      "lng": 96.0666667
    },
    {
      "cityName": "Paukkani",
      "lat": 20.5666667,
      "lng": 95.7666667
    },
    {
      "cityName": "Paukkan",
      "lat": 21.1666667,
      "lng": 95.5833333
    },
    {
      "cityName": "Paukkwedaw",
      "lat": 21.2166667,
      "lng": 95.7333333
    },
    {
      "cityName": "Paukpingyauk",
      "lat": 21.2833333,
      "lng": 95.8333333
    },
    {
      "cityName": "Pauksein",
      "lat": 21.6833333,
      "lng": 95.5833333
    },
    {
      "cityName": "Pauktaw",
      "lat": 20.45,
      "lng": 96.0333333
    },
    {
      "cityName": "Pauk-taw",
      "lat": 21.8333333,
      "lng": 96.3833333
    },
    {
      "cityName": "Paungdaw",
      "lat": 20.6666667,
      "lng": 96.2833333
    },
    {
      "cityName": "Paungga",
      "lat": 21.45,
      "lng": 95.45
    },
    {
      "cityName": "Paunggyin",
      "lat": 21.5833333,
      "lng": 95.65
    },
    {
      "cityName": "Paunglaung",
      "lat": 19.8166667,
      "lng": 96.0166667
    },
    {
      "cityName": "Paungyodaw",
      "lat": 21.0666667,
      "lng": 95.6833333
    },
    {
      "cityName": "Pa-waing",
      "lat": 21.8833333,
      "lng": 96.3833333
    },
    {
      "cityName": "Pawkainggwe",
      "lat": 22.5666667,
      "lng": 96.0666667
    },
    {
      "cityName": "Pawpyin",
      "lat": 21.9166667,
      "lng": 96.55
    },
    {
      "cityName": "Paya-amagon",
      "lat": 22.1166667,
      "lng": 96.05
    },
    {
      "cityName": "Payadaungywa",
      "lat": 20.05,
      "lng": 95.95
    },
    {
      "cityName": "Payagon",
      "lat": 20.4666667,
      "lng": 96.35
    },
    {
      "cityName": "Payagyi",
      "lat": 20.6166667,
      "lng": 96.1333333
    },
    {
      "cityName": "Payahla",
      "lat": 21.3333333,
      "lng": 95.4
    },
    {
      "cityName": "Payangazu",
      "lat": 20.75,
      "lng": 96.2
    },
    {
      "cityName": "Payapyu",
      "lat": 21.2166667,
      "lng": 96.0333333
    },
    {
      "cityName": "Payazu",
      "lat": 21.1666667,
      "lng": 96.0333333
    },
    {
      "cityName": "Payon",
      "lat": 20.9166667,
      "lng": 95.9833333
    },
    {
      "cityName": "Pazunseik",
      "lat": 21.9833333,
      "lng": 96.7166667
    },
    {
      "cityName": "Pebingon",
      "lat": 19.6,
      "lng": 96.0166667
    },
    {
      "cityName": "Pe-bin",
      "lat": 21.8666667,
      "lng": 96.3166667
    },
    {
      "cityName": "Pebinye",
      "lat": 20.4333333,
      "lng": 95.75
    },
    {
      "cityName": "Pebyit",
      "lat": 21.0333333,
      "lng": 96.0833333
    },
    {
      "cityName": "Pedaw",
      "lat": 21.3666667,
      "lng": 96.2833333
    },
    {
      "cityName": "Pegingyaw",
      "lat": 21.0333333,
      "lng": 95.9666667
    },
    {
      "cityName": "Pegin",
      "lat": 21.4666667,
      "lng": 96.25
    },
    {
      "cityName": "Pegyet",
      "lat": 21.4666667,
      "lng": 95.7666667
    },
    {
      "cityName": "Pegyigin",
      "lat": 21.55,
      "lng": 95.6333333
    },
    {
      "cityName": "Peinhnebin",
      "lat": 21.25,
      "lng": 96.3166667
    },
    {
      "cityName": "Pein-in",
      "lat": 20.3166667,
      "lng": 96.2666667
    },
    {
      "cityName": "Peinnedaik Taung",
      "lat": 19.65,
      "lng": 96.5666667
    },
    {
      "cityName": "Pein",
      "lat": 21.6833333,
      "lng": 96.4333333
    },
    {
      "cityName": "Peleze",
      "lat": 21.55,
      "lng": 96.0833333
    },
    {
      "cityName": "Penantha",
      "lat": 21.2666667,
      "lng": 95.9833333
    },
    {
      "cityName": "Petbinaing",
      "lat": 21.7166667,
      "lng": 95.4666667
    },
    {
      "cityName": "Petkon",
      "lat": 21.0166667,
      "lng": 95.8
    },
    {
      "cityName": "Petku",
      "lat": 21.4,
      "lng": 95.7666667
    },
    {
      "cityName": "Pet-sut-te",
      "lat": 21.9333333,
      "lng": 96.4666667
    },
    {
      "cityName": "Pettaw",
      "lat": 20.8833333,
      "lng": 95.7333333
    },
    {
      "cityName": "Pettawye",
      "lat": 20.85,
      "lng": 95.4166667
    },
    {
      "cityName": "Petyin",
      "lat": 21.6166667,
      "lng": 95.4833333
    },
    {
      "cityName": "Peze",
      "lat": 20.3166667,
      "lng": 96.0666667
    },
    {
      "cityName": "Phogon",
      "lat": 20.7666667,
      "lng": 95.2333333
    },
    {
      "cityName": "Pindale",
      "lat": 21.1833333,
      "lng": 95.85
    },
    {
      "cityName": "Pindalewama",
      "lat": 21.5666667,
      "lng": 96.1666667
    },
    {
      "cityName": "Pinda",
      "lat": 20.65,
      "lng": 95.9666667
    },
    {
      "cityName": "Pingamyaung",
      "lat": 19.5666667,
      "lng": 95.9166667
    },
    {
      "cityName": "Pingyaing",
      "lat": 20.7,
      "lng": 95.3833333
    },
    {
      "cityName": "Pingya",
      "lat": 21.7,
      "lng": 96.1166667
    },
    {
      "cityName": "Pinle-in",
      "lat": 22.3666667,
      "lng": 96.1166667
    },
    {
      "cityName": "Pinle",
      "lat": 21.7,
      "lng": 95.5333333
    },
    {
      "cityName": "Pinmon",
      "lat": 20.6166667,
      "lng": 96.4833333
    },
    {
      "cityName": "Pinnwe",
      "lat": 20.55,
      "lng": 96.4833333
    },
    {
      "cityName": "Pinson",
      "lat": 20.25,
      "lng": 96.35
    },
    {
      "cityName": "Pinthaung",
      "lat": 19.6,
      "lng": 96.3166667
    },
    {
      "cityName": "Pinya",
      "lat": 22.2333333,
      "lng": 96.1
    },
    {
      "cityName": "Podudaw",
      "lat": 19.9833333,
      "lng": 96.0166667
    },
    {
      "cityName": "Pohla Kodit Atet",
      "lat": 19.4833333,
      "lng": 96.5333333
    },
    {
      "cityName": "Pokyawya",
      "lat": 21,
      "lng": 95.5
    },
    {
      "cityName": "Pomezagon",
      "lat": 20.8333333,
      "lng": 96.1333333
    },
    {
      "cityName": "Pongcheng",
      "lat": 22.1666667,
      "lng": 96.4833333
    },
    {
      "cityName": "Pongon",
      "lat": 21.9,
      "lng": 96.5333333
    },
    {
      "cityName": "Ponlon",
      "lat": 20.85,
      "lng": 96.4333333
    },
    {
      "cityName": "Ponnaywa",
      "lat": 21.5166667,
      "lng": 96.0333333
    },
    {
      "cityName": "Ponnyetkyegyi",
      "lat": 21.5,
      "lng": 96.2166667
    },
    {
      "cityName": "Pontha",
      "lat": 21.3166667,
      "lng": 95.9
    },
    {
      "cityName": "Ponzogyi",
      "lat": 21.0166667,
      "lng": 95.1666667
    },
    {
      "cityName": "Popalon",
      "lat": 20.95,
      "lng": 95.2166667
    },
    {
      "cityName": "Popaywa",
      "lat": 20.9333333,
      "lng": 95.2
    },
    {
      "cityName": "Pothanaing",
      "lat": 20.95,
      "lng": 96.2666667
    },
    {
      "cityName": "Potokbyu",
      "lat": 21.4333333,
      "lng": 95.3666667
    },
    {
      "cityName": "Powa Taung",
      "lat": 22.2166667,
      "lng": 96.0333333
    },
    {
      "cityName": "Puaukseikkon",
      "lat": 20.9666667,
      "lng": 95.7
    },
    {
      "cityName": "Pudaungchaung",
      "lat": 21.2,
      "lng": 95.7833333
    },
    {
      "cityName": "Pun",
      "lat": 21.0666667,
      "lng": 95.0166667
    },
    {
      "cityName": "Put-in",
      "lat": 21.2333333,
      "lng": 96.3333333
    },
    {
      "cityName": "Pwedaung",
      "lat": 22,
      "lng": 96.4333333
    },
    {
      "cityName": "Pwekawk",
      "lat": 22.0666667,
      "lng": 96.55
    },
    {
      "cityName": "Pwelongyaw",
      "lat": 21.2666667,
      "lng": 96.1666667
    },
    {
      "cityName": "Pwethin",
      "lat": 20.7333333,
      "lng": 95.9333333
    },
    {
      "cityName": "Pwezongon",
      "lat": 21.3166667,
      "lng": 96.0833333
    },
    {
      "cityName": "Pyangabye",
      "lat": 19.7333333,
      "lng": 96.15
    },
    {
      "cityName": "Pyapon",
      "lat": 21.1666667,
      "lng": 95.15
    },
    {
      "cityName": "Pya",
      "lat": 21.5166667,
      "lng": 95.6
    },
    {
      "cityName": "Pyatthatgyi",
      "lat": 21.3,
      "lng": 95.5666667
    },
    {
      "cityName": "Pyaukseikgyin",
      "lat": 21.1,
      "lng": 95.55
    },
    {
      "cityName": "Pyaukseikpin",
      "lat": 21.5833333,
      "lng": 96.2666667
    },
    {
      "cityName": "Pyaunggaunggyi",
      "lat": 19.5666667,
      "lng": 96.2166667
    },
    {
      "cityName": "Pyawbwe",
      "lat": 20.5833333,
      "lng": 96.0666667
    },
    {
      "cityName": "Pyawgan",
      "lat": 21.2333333,
      "lng": 95.0666667
    },
    {
      "cityName": "Pyawgon",
      "lat": 20.7333333,
      "lng": 95.8833333
    },
    {
      "cityName": "Pyawywa",
      "lat": 21.5333333,
      "lng": 95.9833333
    },
    {
      "cityName": "Pyayagyaung",
      "lat": 21.3833333,
      "lng": 95.55
    },
    {
      "cityName": "Pyazi",
      "lat": 20.2833333,
      "lng": 95.95
    },