{
  "name": "East Azarbaijan",
  "cities": [
    {
      "cityName": "Ababi",
      "lat": 37.3704,
      "lng": 48.1377
    },
    {
      "cityName": "Abak",
      "lat": 37.4046,
      "lng": 47.5672
    },
    {
      "cityName": "Abarghan",
      "lat": 37.8583,
      "lng": 47.3366
    },
    {
      "cityName": "Abasabad",
      "lat": 38.2983,
      "lng": 46.5761
    },
    {
      "cityName": "Abastan",
      "lat": 37.6447,
      "lng": 47.9298
    },
    {
      "cityName": "`Abbasabad",
      "lat": 37.164,
      "lng": 46.106
    },
    {
      "cityName": "`Abbasi",
      "lat": 38.0777,
      "lng": 46.3499
    },
    {
      "cityName": "Abdar",
      "lat": 37.6512,
      "lng": 46.5838
    },
    {
      "cityName": "`Abdolabad",
      "lat": 37.0609,
      "lng": 46.2347
    },
    {
      "cityName": "`Abd ol Jabbar",
      "lat": 38.2826,
      "lng": 46.7466
    },
    {
      "cityName": "`Abdollahabad",
      "lat": 37.8694,
      "lng": 47.7455
    },
    {
      "cityName": "`Abd or Rahmanlu",
      "lat": 37.3617,
      "lng": 47.3622
    },
    {
      "cityName": "`Abd or Razzaq",
      "lat": 39.0422,
      "lng": 47.1889
    },
    {
      "cityName": "Ab-e Garm",
      "lat": 36.9834,
      "lng": 47.0148
    },
    {
      "cityName": "Abella",
      "lat": 38.599,
      "lng": 46.9065
    },
    {
      "cityName": "Aberghan",
      "lat": 38.4617,
      "lng": 45.8868
    },
    {
      "cityName": "Abesh Ahmad",
      "lat": 39.0426,
      "lng": 47.3164
    },
    {
      "cityName": "Abili",
      "lat": 39.395,
      "lng": 47.4697
    },
    {
      "cityName": "Abkhara",
      "lat": 38.5147,
      "lng": 46.5288
    },
    {
      "cityName": "Abli",
      "lat": 38.5631,
      "lng": 46.4846
    },
    {
      "cityName": "Abras",
      "lat": 38.006,
      "lng": 47.5102
    },
    {
      "cityName": "Abres",
      "lat": 38.005833,
      "lng": 47.496667
    },
    {
      "cityName": "Abriq",
      "lat": 38.565,
      "lng": 46.9243
    },
    {
      "cityName": "Abriz",
      "lat": 37.8927,
      "lng": 46.8803
    },
    {
      "cityName": "Abshari",
      "lat": 38.3343,
      "lng": 46.5464
    },
    {
      "cityName": "Abu `Isa",
      "lat": 37.7903,
      "lng": 46.7972
    },
    {
      "cityName": "Abutorab",
      "lat": 39.252,
      "lng": 47.2285
    },
    {
      "cityName": "Achachi",
      "lat": 37.3959,
      "lng": 47.7961
    },
    {
      "cityName": "Afi",
      "lat": 37.437,
      "lng": 46.1557
    },
    {
      "cityName": "Afr",
      "lat": 39.2199,
      "lng": 47.4466
    },
    {
      "cityName": "Afshai",
      "lat": 38.8496,
      "lng": 45.82
    },
    {
      "cityName": "Afshar",
      "lat": 37.316,
      "lng": 47.8521
    },
    {
      "cityName": "Afshar-e Bala",
      "lat": 37.5188,
      "lng": 48.142
    },
    {
      "cityName": "Afshar Haq",
      "lat": 37.4101,
      "lng": 47.2295
    },
    {
      "cityName": "Afzal",
      "lat": 37.7024,
      "lng": 47.8032
    },
    {
      "cityName": "Aga Jari",
      "lat": 37.518,
      "lng": 46.9268
    },
    {
      "cityName": "Agakyandy",
      "lat": 38.5331,
      "lng": 46.8168
    },
    {
      "cityName": "Agal",
      "lat": 38.3304,
      "lng": 46.8299
    },
    {
      "cityName": "Agbulag",
      "lat": 38.5096,
      "lng": 46.4207
    },
    {
      "cityName": "Agchen Kandi",
      "lat": 37.5148,
      "lng": 46.8066
    },
    {
      "cityName": "Aghajari",
      "lat": 37.4956,
      "lng": 45.9887
    },
    {
      "cityName": "Aghajeri",
      "lat": 37.4379,
      "lng": 46.42
    },
    {
      "cityName": "Aghamirlu",
      "lat": 39.0208,
      "lng": 47.2258
    },
    {
      "cityName": "Aghbolagh",
      "lat": 37.8999,
      "lng": 47.8312
    },
    {
      "cityName": "Agh Bolagh-e Pa'in",
      "lat": 38.5833,
      "lng": 46.7742
    },
    {
      "cityName": "Aghcheh Darband",
      "lat": 37.4499,
      "lng": 47.5043
    },
    {
      "cityName": "Aghchehdizaj",
      "lat": 37.1493,
      "lng": 46.0822
    },
    {
      "cityName": "Aghcheh Dizej",
      "lat": 37.1563,
      "lng": 46.4081
    },
    {
      "cityName": "Aghcheh Kand",
      "lat": 37.8066,
      "lng": 47.25
    },
    {
      "cityName": "Aghcheh Kohal-e Rajabanlu",
      "lat": 37.6228,
      "lng": 46.9591
    },
    {
      "cityName": "Aghcheh Kohal-e Zamani",
      "lat": 37.6686,
      "lng": 46.8377
    },
    {
      "cityName": "Aghcheh Kohol",
      "lat": 37.7569,
      "lng": 46.8225
    },
    {
      "cityName": "Aghchehlu",
      "lat": 38.316667,
      "lng": 47.383333
    },
    {
      "cityName": "Aghcheh Mashhad",
      "lat": 37.1579,
      "lng": 46.3677
    },
    {
      "cityName": "Aghcheh Mashhad-e Chahar Dowli",
      "lat": 37.1833,
      "lng": 46.3141
    },
    {
      "cityName": "Aghcheh Qeshlaq",
      "lat": 37.32,
      "lng": 47.7849
    },
    {
      "cityName": "Aghcheh Qeshlaq-e Bala",
      "lat": 38.6632,
      "lng": 47.1499
    },
    {
      "cityName": "Aghcheh Qeshlaq-e Pa'in",
      "lat": 38.6608,
      "lng": 47.1913
    },
    {
      "cityName": "Aghcheh Rish",
      "lat": 37.2333,
      "lng": 46.7309
    },
    {
      "cityName": "Agh Daraq-e Jadid",
      "lat": 38.6131,
      "lng": 47.1487
    },
    {
      "cityName": "Agh Daraq-e Qadim",
      "lat": 38.6286,
      "lng": 47.1481
    },
    {
      "cityName": "Agh Darreh",
      "lat": 37.5742,
      "lng": 46.7343
    },
    {
      "cityName": "Aghdash",
      "lat": 36.9911,
      "lng": 47.1787
    },
    {
      "cityName": "Agh Gonbad",
      "lat": 37.8163,
      "lng": 45.423
    },
    {
      "cityName": "Aghjeh Kohel",
      "lat": 37.2668,
      "lng": 46.4446
    },
    {
      "cityName": "Aghjeh Mashhad",
      "lat": 37.2272,
      "lng": 47.3867
    },
    {
      "cityName": "Aghjeh Owbeh",
      "lat": 37.5079,
      "lng": 45.8563
    },
    {
      "cityName": "Aghjeh Rish",
      "lat": 37.0829,
      "lng": 47.3673
    },
    {
      "cityName": "Aghjeh Ughlan",
      "lat": 37.3532,
      "lng": 46.9654
    },
    {
      "cityName": "Agh Kand",
      "lat": 37.2583,
      "lng": 48.0651
    },
    {
      "cityName": "Aghlaqan",
      "lat": 39.1597,
      "lng": 47.4809
    },
    {
      "cityName": "Aghmeqan",
      "lat": 37.8314,
      "lng": 46.2637
    },
    {
      "cityName": "Aghmeyun",
      "lat": 37.9729,
      "lng": 47.6506
    },
    {
      "cityName": "Aghooyeh",
      "lat": 38.8628,
      "lng": 46.9345
    },
    {
      "cityName": "Agh Qeshlaq",
      "lat": 39.2818,
      "lng": 47.3572
    },
    {
      "cityName": "Agh Tavaraq",
      "lat": 37.3147,
      "lng": 47.3701
    },
    {
      "cityName": "Aghurabad",
      "lat": 37.7445,
      "lng": 46.8115
    },
    {
      "cityName": "Aghutman",
      "lat": 36.3392,
      "lng": 45.841
    },
    {
      "cityName": "Aghyar",
      "lat": 38.6027,
      "lng": 45.5143
    },
    {
      "cityName": "Agir",
      "lat": 37.1992,
      "lng": 47.4033
    },
    {
      "cityName": "`Agsarabad",
      "lat": 37.9123,
      "lng": 47.7321
    },
    {
      "cityName": "Aguz Gonbadi",
      "lat": 37.5773,
      "lng": 47.0745
    },
    {
      "cityName": "Ahar",
      "lat": 38.4774,
      "lng": 47.0699
    },
    {
      "cityName": "Ahl",
      "lat": 38.3669,
      "lng": 47.3121
    },
    {
      "cityName": "Ahl-e Iman",
      "lat": 38.3995,
      "lng": 47.4716
    },
    {
      "cityName": "Ahmadabad",
      "lat": 37.1792,
      "lng": 45.9913
    },
    {
      "cityName": "Ahmadabad-e Bala",
      "lat": 37.8424,
      "lng": 47.3775
    },
    {
      "cityName": "Ahmadabad-e Garus",
      "lat": 37.3565,
      "lng": 47.9461
    },
    {
      "cityName": "Ahmadabad-e Khanleq",
      "lat": 37.316,
      "lng": 48.0489
    },
    {
      "cityName": "Ahmadabad-e Pa'in",
      "lat": 37.849,
      "lng": 47.3835
    },
    {
      "cityName": "Ahmadabad-e Shahrak",
      "lat": 38.2445,
      "lng": 46.6847
    },
    {
      "cityName": "Ahmadabad Leyqoli",
      "lat": 38.2158,
      "lng": 46.8577
    },
    {
      "cityName": "Ahmadi",
      "lat": 38.9547,
      "lng": 46.7916
    },
    {
      "cityName": "Ahmadlu-ye Bala",
      "lat": 39.2652,
      "lng": 47.1528
    },
    {
      "cityName": "Ahmadlu-ye Pa'in",
      "lat": 39.2705,
      "lng": 47.1387
    },
    {
      "cityName": "Ahmaghiyeh",
      "lat": 38.0366,
      "lng": 46.1925
    },
    {
      "cityName": "A'inehlu",
      "lat": 38.8948,
      "lng": 46.7862
    },
    {
      "cityName": "Ajabshahr",
      "lat": 37.4776,
      "lng": 45.8943
    },
    {
      "cityName": "`Ajami",
      "lat": 37.4821,
      "lng": 47.2151
    },
    {
      "cityName": "Ajami  Kolahbuz",
      "lat": 37.2641,
      "lng": 47.3642
    },
    {
      "cityName": "Ajirabad",
      "lat": 38.0218,
      "lng": 47.2964
    },
    {
      "cityName": "Ajudanabad",
      "lat": 39.0471,
      "lng": 47.3445
    },
    {
      "cityName": "Akbarabad",
      "lat": 38.1016,
      "lng": 46.2679
    },
    {
      "cityName": "Akhar-e Jahan",
      "lat": 37.7888,
      "lng": 45.9443
    },
    {
      "cityName": "Akhfurdi",
      "lat": 38.9156,
      "lng": 45.6189
    },
    {
      "cityName": "Akh Mat",
      "lat": 39.219,
      "lng": 47.4175
    },
    {
      "cityName": "Akhmed-oba",
      "lat": 38.849,
      "lng": 46.5179
    },
    {
      "cityName": "Akhola",
      "lat": 38.0124,
      "lng": 46.0391
    },
    {
      "cityName": "Akhsakhlar",
      "lat": 37.0227,
      "lng": 46.9519
    },
    {
      "cityName": "Akhula-ye `Asgarabad",
      "lat": 38.0097,
      "lng": 46.0412
    },
    {
      "cityName": "Akhund Qeshlaq",
      "lat": 37.3574,
      "lng": 46.0197
    },
    {
      "cityName": "Akinabad",
      "lat": 37.9011,
      "lng": 46.7576
    },
    {
      "cityName": "Akramabad",
      "lat": 37.2814,
      "lng": 47.6008
    },
    {
      "cityName": "Aladin",
      "lat": 37.5369,
      "lng": 48.2152
    },
    {
      "cityName": "Aladzhudzha",
      "lat": 38.9591,
      "lng": 46.6757
    },
    {
      "cityName": "Alag",
      "lat": 37.3376,
      "lng": 48.1025
    },
    {
      "cityName": "Alagper",
      "lat": 38.2408,
      "lng": 45.8872
    },
    {
      "cityName": "Alaguzeh",
      "lat": 37.6671,
      "lng": 46.0521
    },
    {
      "cityName": "Alajiq",
      "lat": 37.0948,
      "lng": 46.6997
    },
    {
      "cityName": "Alakin",
      "lat": 36.8263,
      "lng": 47.1949
    },
    {
      "cityName": "`Alalulu",
      "lat": 39.0421,
      "lng": 47.3577
    },
    {
      "cityName": "Alambar",
      "lat": 38.3477,
      "lng": 47.4553
    },
    {
      "cityName": "`Alamdar",
      "lat": 37.3615,
      "lng": 46.3081
    },
    {
      "cityName": "`Alam Saray",
      "lat": 38.3035,
      "lng": 45.1169
    },
    {
      "cityName": "Alana",
      "lat": 38.0109,
      "lng": 46.715
    },
    {
      "cityName": "Alan",
      "lat": 38.0925,
      "lng": 47.2636
    },
    {
      "cityName": "Alanjaq",
      "lat": 38.4293,
      "lng": 46.0786
    },
    {
      "cityName": "Alanjareq",
      "lat": 37.5792,
      "lng": 47.717
    },
    {
      "cityName": "Alaqayah",
      "lat": 37.3936,
      "lng": 46.8011
    },
    {
      "cityName": "Alateymur",
      "lat": 37.5041,
      "lng": 47.2945
    },
    {
      "cityName": "`Alavi",
      "lat": 38.5658,
      "lng": 46.6107
    },
    {
      "cityName": "`Alavian",
      "lat": 37.4231,
      "lng": 46.2364
    },
    {
      "cityName": "`Alaviq",
      "lat": 38.7213,
      "lng": 46.9848
    },
    {
      "cityName": "Alba Kand",
      "lat": 38.4228,
      "lng": 46.6926
    },
    {
      "cityName": "Albangi",
      "lat": 38.176,
      "lng": 45.5143
    },
    {
      "cityName": "Albardeh",
      "lat": 38.3573,
      "lng": 47.334
    },
    {
      "cityName": "Alchamulk",
      "lat": 38.4051,
      "lng": 46.2442
    },
    {
      "cityName": "Alcheh Gheshlagh",
      "lat": 38.609,
      "lng": 46.6395
    },
    {
      "cityName": "Alefabad",
      "lat": 38.8027,
      "lng": 46.2974
    },
    {
      "cityName": "Alelu",
      "lat": 37.1973,
      "lng": 46.6064
    },
    {
      "cityName": "Alenjaq",
      "lat": 37.488,
      "lng": 45.947
    },
    {
      "cityName": "Alequ",
      "lat": 37.2972,
      "lng": 47.1005
    },
    {
      "cityName": "Alhard",
      "lat": 38.9233,
      "lng": 46.8577
    },
    {
      "cityName": "`Aliabad",
      "lat": 37.1704,
      "lng": 46.3358
    },
    {
      "cityName": "`Aliabad-e Bala",
      "lat": 37.4542,
      "lng": 47.0993
    },
    {
      "cityName": "`Aliabad-e Pa'in",
      "lat": 37.4524,
      "lng": 47.1005
    },
    {
      "cityName": "`Aliabad-e Qeshlaq",
      "lat": 37.2316,
      "lng": 46.0686
    },
    {
      "cityName": "Aliar",
      "lat": 38.6572,
      "lng": 46.467
    },
    {
      "cityName": "`Ali Beyg Kandi",
      "lat": 37.1314,
      "lng": 46.839
    },
    {
      "cityName": "`Ali Beyglu",
      "lat": 37.6911,
      "lng": 47.8293
    },
    {
      "cityName": "Ali-Bolag",
      "lat": 38.8568,
      "lng": 46.6819
    },
    {
      "cityName": "`Aligu",
      "lat": 37.6073,
      "lng": 46.9138
    },
    {
      "cityName": "`Alijan",
      "lat": 37.67,
      "lng": 46.7535
    },
    {
      "cityName": "`Alijula",
      "lat": 36.8427,
      "lng": 47.2194
    },
    {
      "cityName": "`Alikandi",
      "lat": 36.8844,
      "lng": 47.0014
    },
    {
      "cityName": "`Ali Khalaj",
      "lat": 37.6962,
      "lng": 46.981
    },
    {
      "cityName": "`Alikhanlu",
      "lat": 39.1996,
      "lng": 47.1861
    },
    {
      "cityName": "`Ali Khvajeh",
      "lat": 37.3004,
      "lng": 46.0258
    },
    {
      "cityName": "Alinabad",
      "lat": 38.4649,
      "lng": 46.7516
    },
    {
      "cityName": "`Ali Qeshlaq",
      "lat": 37.5728,
      "lng": 47.9407
    },
    {
      "cityName": "`Ali Qoli Qeshlaqi",
      "lat": 39.2697,
      "lng": 47.3136
    },
    {
      "cityName": "`Ali Qoli Qeshlaqi-ye Moqaddam",
      "lat": 39.27,
      "lng": 47.2708
    },
    {
      "cityName": "`Alireza Cha'i",
      "lat": 38.5565,
      "lng": 46.9774
    },
    {
      "cityName": "`Ali Shah",
      "lat": 38.1416,
      "lng": 45.8345
    },
    {
      "cityName": "`Alishari",
      "lat": 39.0346,
      "lng": 47.2768
    },
    {
      "cityName": "`Aliverdi Owshaqi",
      "lat": 39.2272,
      "lng": 47.1542
    },
    {
      "cityName": "Allah Dad",
      "lat": 37.2981,
      "lng": 47.3456
    },
    {
      "cityName": "Allah Haq",
      "lat": 37.7901,
      "lng": 47.4888
    },
    {
      "cityName": "Allah Kandi",
      "lat": 37.0798,
      "lng": 47.0576
    },
    {
      "cityName": "Almachovan",
      "lat": 37.4295,
      "lng": 46.5173
    },
    {
      "cityName": "Almali Bash",
      "lat": 37.5994,
      "lng": 46.2228
    },
    {
      "cityName": "Almalu Dash",
      "lat": 37.684,
      "lng": 46.101
    },
    {
      "cityName": "Alman-e Jadid",
      "lat": 38.4058,
      "lng": 47.1856
    },
    {
      "cityName": "Alman-e Qadim",
      "lat": 38.4074,
      "lng": 47.1721
    },
    {
      "cityName": "Almas",
      "lat": 38.3349,
      "lng": 45.4323
    },
    {
      "cityName": "`Alov Kandi",
      "lat": 37.3098,
      "lng": 46.349
    },
    {
      "cityName": "Alpavat",
      "lat": 38.1055,
      "lng": 46.6571
    },
    {
      "cityName": "Alpavet",
      "lat": 38.437,
      "lng": 47.1616
    },
    {
      "cityName": "Alqu",
      "lat": 37.4268,
      "lng": 46.0934
    },
    {
      "cityName": "Altemchi",
      "lat": 37.0737,
      "lng": 46.9938
    },
    {
      "cityName": "Aluchin",
      "lat": 37.0325,
      "lng": 46.9353
    },
    {
      "cityName": "Alvan",
      "lat": 38.8145,
      "lng": 45.9088
    },
    {
      "cityName": "Alvanaq",
      "lat": 37.5935,
      "lng": 45.9056
    },
    {
      "cityName": "Alvandi",
      "lat": 37.9419,
      "lng": 46.7988
    },
    {
      "cityName": "Alvar",
      "lat": 38.1502,
      "lng": 46.1764
    },
    {
      "cityName": "Alvar Ashaqi",
      "lat": 38.1446,
      "lng": 46.1465
    },
    {
      "cityName": "Amabad",
      "lat": 37.2233,
      "lng": 48.2298
    },
    {
      "cityName": "Amand",
      "lat": 38.2329,
      "lng": 46.1598
    },
    {
      "cityName": "Amasti",
      "lat": 38.7187,
      "lng": 47.2094
    },
    {
      "cityName": "Amastjan",
      "lat": 38.3581,
      "lng": 45.3217
    },
    {
      "cityName": "Amilabad",
      "lat": 38.539,
      "lng": 46.7147
    },
    {
      "cityName": "Aminabad",
      "lat": 37.2981,
      "lng": 47.0552
    },
    {
      "cityName": "Amirabad",
      "lat": 37.1112,
      "lng": 47.344
    },
    {
      "cityName": "Amirahlu",
      "lat": 39.2858,
      "lng": 47.1591
    },
    {
      "cityName": "Amir",
      "lat": 37.3019,
      "lng": 46.2673
    },
    {
      "cityName": "Amir Gha'eb",
      "lat": 37.114,
      "lng": 46.2151
    },
    {
      "cityName": "Amir Khan-e Karim",
      "lat": 39.216667,
      "lng": 47.433333
    },
    {
      "cityName": "Amir Zakareyya",
      "lat": 38.2031,
      "lng": 45.8538
    },
    {
      "cityName": "Ampar",
      "lat": 38.6428,
      "lng": 47.2257
    },
    {
      "cityName": "Amrollah",
      "lat": 37.7136,
      "lng": 46.6834
    },
    {
      "cityName": "`Amu Dizaj",
      "lat": 37.6113,
      "lng": 47.0862
    },
    {
      "cityName": "Amu Oghli",
      "lat": 37.0852,
      "lng": 47.2586
    },
    {
      "cityName": "`Amu Owghli-ye `Abbaslu",
      "lat": 37.0653,
      "lng": 47.2326
    },
    {
      "cityName": "Amvei",
      "lat": 38.6873,
      "lng": 46.4872
    },
    {
      "cityName": "Ana Bolaghi",
      "lat": 37.0029,
      "lng": 47.1996
    },
    {
      "cityName": "Anakhatoon",
      "lat": 38.1533,
      "lng": 46.2565
    },
    {
      "cityName": "Anama",
      "lat": 38.3893,
      "lng": 45.6833
    },
    {
      "cityName": "Anaqiz",
      "lat": 37.8183,
      "lng": 47.3116
    },
    {
      "cityName": "Anarjan",
      "lat": 37.874,
      "lng": 46.9833
    },
    {
      "cityName": "Anbaq",
      "lat": 38.516667,
      "lng": 47.236944
    },
    {
      "cityName": "Anbaq-e Bala",
      "lat": 38.5196,
      "lng": 47.2518
    },
    {
      "cityName": "Anbaq-e Javad",
      "lat": 38.4861,
      "lng": 47.2637
    },
    {
      "cityName": "Anbaq-e Qadim",
      "lat": 38.5055,
      "lng": 47.2525
    },
    {
      "cityName": "Anbardan",
      "lat": 37.0764,
      "lng": 47.1718
    },
    {
      "cityName": "Anbar Dan",
      "lat": 37.8659,
      "lng": 46.9395
    },
    {
      "cityName": "`Anbarlu",
      "lat": 38.3786,
      "lng": 47.2299
    },
    {
      "cityName": "Andab",
      "lat": 38.371,
      "lng": 47.2484
    },
    {
      "cityName": "Andab-e Qadim",
      "lat": 38.391111,
      "lng": 47.260833
    },
    {
      "cityName": "Andabil",
      "lat": 38.358,
      "lng": 45.992
    },
    {
      "cityName": "Andarab",
      "lat": 37.8856,
      "lng": 47.518
    },
    {
      "cityName": "Andarban",
      "lat": 38.5554,
      "lng": 46.2885
    },
    {
      "cityName": "Andarud",
      "lat": 37.2794,
      "lng": 48.1601
    },
    {
      "cityName": "Andarud-e Pa'in",
      "lat": 37.2815,
      "lng": 48.1939
    },
    {
      "cityName": "Andis",
      "lat": 38.2204,
      "lng": 47.2055
    },
    {
      "cityName": "Angeshtavan",
      "lat": 38.3623,
      "lng": 45.3612
    },
    {
      "cityName": "Angija",
      "lat": 38.3031,
      "lng": 46.8681
    },
    {
      "cityName": "Angiz",
      "lat": 38.0232,
      "lng": 47.3982
    },
    {
      "cityName": "Anjar",
      "lat": 38.6515,
      "lng": 46.9015
    },
    {
      "cityName": "`Annablu",
      "lat": 39.2502,
      "lng": 47.1667
    },
    {
      "cityName": "Anowshiravan",
      "lat": 38.8445,
      "lng": 45.7549
    },
    {
      "cityName": "`AnsÌ§arud",
      "lat": 37.8154,
      "lng": 46.3084
    },
    {
      "cityName": "Anzan",
      "lat": 38.3075,
      "lng": 47.4569
    },
    {
      "cityName": "Aqa Baba",
      "lat": 39.183333,
      "lng": 47.5
    },
    {
      "cityName": "Aqa Baba Sang",
      "lat": 38.6268,
      "lng": 46.7643
    },
    {
      "cityName": "Aqa Baba-ye Faramarzi",
      "lat": 38.5231,
      "lng": 46.5465
    },
    {
      "cityName": "Aqajan Kandi",
      "lat": 37.2871,
      "lng": 46.8601
    },
    {
      "cityName": "Aq Beraz",
      "lat": 39.0108,
      "lng": 47.3927
    },
    {
      "cityName": "Aqbolagh",
      "lat": 36.9251,
      "lng": 47.2371
    },
    {
      "cityName": "Aq Bolagh",
      "lat": 37.4627,
      "lng": 47.2606
    },
    {
      "cityName": "Aqbolagh-e `Alamdar",
      "lat": 37.2954,
      "lng": 46.3303
    },
    {
      "cityName": "Aqbolagh-e Bahman",
      "lat": 37.8405,
      "lng": 47.75
    },
    {
      "cityName": "Aqbolagh-e Fotuhi",
      "lat": 37.2283,
      "lng": 46.3805
    },
    {
      "cityName": "Aqbolagh-e Hashtrud",
      "lat": 37.2528,
      "lng": 46.7065
    },
    {
      "cityName": "Aqbolagh-e `Olya",
      "lat": 37.1783,
      "lng": 46.5431
    },
    {
      "cityName": "Aqbolagh-e Sofla",
      "lat": 37.1779,
      "lng": 46.5266
    },
    {
      "cityName": "Aqdagh-e Bala",
      "lat": 37.3589,
      "lng": 47.0233
    },
    {
      "cityName": "Aq Darak",
      "lat": 37.2798,
      "lng": 47.4564
    },
    {
      "cityName": "Aq Darreh",
      "lat": 38.6778,
      "lng": 47.4046
    },
    {
      "cityName": "Aq Divar",
      "lat": 38.5108,
      "lng": 47.2115
    },
    {
      "cityName": "Aq Jalu",
      "lat": 38.3492,
      "lng": 47.4366
    },
    {
      "cityName": "Aq Kahriz",
      "lat": 38.156,
      "lng": 45.7944
    },
    {
      "cityName": "Aqkand",
      "lat": 37.0973,
      "lng": 46.8093
    },
    {
      "cityName": "Aqkand-e Qareh Khezer",
      "lat": 37.0404,
      "lng": 46.1455
    },
    {
      "cityName": "Aqkand-e Samaraq",
      "lat": 37.3463,
      "lng": 46.2588
    },
    {
      "cityName": "Aqmanar",
      "lat": 37.1721,
      "lng": 46.2544
    },
    {
      "cityName": "Aquran",
      "lat": 37.4247,
      "lng": 47.5256
    },
    {
      "cityName": "Aq Ziarat",
      "lat": 37.1245,
      "lng": 46.7697
    },
    {
      "cityName": "Arabatan",
      "lat": 38.1748,
      "lng": 46.9373
    },
    {
      "cityName": "`Arablu",
      "lat": 37.3989,
      "lng": 47.1567
    },
    {
      "cityName": "`Arabshah-e Daraq",
      "lat": 38.9,
      "lng": 47.216667
    },
    {
      "cityName": "`Arabshah-e Khargushan",
      "lat": 38.883333,
      "lng": 47.2
    },
    {
      "cityName": "`Arabshah Khan",
      "lat": 38.85,
      "lng": 47.15
    },
    {
      "cityName": "Arajan",
      "lat": 38.5201,
      "lng": 46.5607
    },
    {
      "cityName": "Aralan",
      "lat": 38.3884,
      "lng": 45.5519
    },
    {
      "cityName": "Arasi Hoomeh",
      "lat": 38.4735,
      "lng": 45.5168
    },
    {
      "cityName": "Arazin",
      "lat": 38.8716,
      "lng": 46.7094
    },
    {
      "cityName": "Arba?",
      "lat": 37.7759,
      "lng": 46.1246
    },
    {
      "cityName": "Arbatan",
      "lat": 38.4838,
      "lng": 45.7172
    },
    {
      "cityName": "Arbat",
      "lat": 37.005,
      "lng": 47.0786
    },
    {
      "cityName": "Ardaha",
      "lat": 37.8295,
      "lng": 47.6577
    },
    {
      "cityName": "Ardalan",
      "lat": 38.0189,
      "lng": 47.2328
    },
    {
      "cityName": "Ardashil'",
      "lat": 38.7504,
      "lng": 46.7472
    },
    {
      "cityName": "Ardukin",
      "lat": 38.815,
      "lng": 46.4446
    },
    {
      "cityName": "Arghan",
      "lat": 38.526,
      "lng": 46.9399
    },
    {
      "cityName": "Arjelik",
      "lat": 37.308889,
      "lng": 48.257222
    },
    {
      "cityName": "Armak",
      "lat": 38.953611,
      "lng": 47.328611
    },
    {
      "cityName": "Armanian",
      "lat": 38.7235,
      "lng": 47.1013
    },
    {
      "cityName": "Armatlu",
      "lat": 38.6831,
      "lng": 47.4129
    },
    {
      "cityName": "Armeh",
      "lat": 38.9549,
      "lng": 47.3552
    },
    {
      "cityName": "Armudaq",
      "lat": 37.7838,
      "lng": 47.9918
    },
    {
      "cityName": "Arnan",
      "lat": 38.9787,
      "lng": 47.4327
    },
    {
      "cityName": "Arpa Darasi",
      "lat": 38.0899,
      "lng": 46.4222
    },
    {
      "cityName": "Arpa Darrehsi",
      "lat": 37.0749,
      "lng": 46.3968
    },
    {
      "cityName": "Arpalagh",
      "lat": 38.7217,
      "lng": 46.8212
    },
    {
      "cityName": "Arpezan",
      "lat": 38.5443,
      "lng": 47.0442
    },
    {
      "cityName": "Arqaneh",
      "lat": 37.5718,
      "lng": 46.9406
    },
    {
      "cityName": "`Arqatu",
      "lat": 37.4647,
      "lng": 46.7368
    },
    {
      "cityName": "Arqun-e `Olya",
      "lat": 37.3533,
      "lng": 46.615
    },
    {
      "cityName": "Arqun-e Sofla",
      "lat": 37.342,
      "lng": 46.6058
    },
    {
      "cityName": "Arshadabad",
      "lat": 37.5729,
      "lng": 46.5515
    },
    {
      "cityName": "Arshatnab",
      "lat": 37.9323,
      "lng": 46.7506
    },
    {
      "cityName": "Aruq",
      "lat": 37.1378,
      "lng": 46.1463
    },
    {
      "cityName": "Arvik",
      "lat": 38.4944,
      "lng": 46.8617
    },
    {
      "cityName": "Arzanaq",
      "lat": 37.9915,
      "lng": 47.2172
    },
    {
      "cityName": "Arzaneh",
      "lat": 38.2449,
      "lng": 46.1837
    },
    {
      "cityName": "Arzani",
      "lat": 38.3596,
      "lng": 46.6212
    },
    {
      "cityName": "Asan",
      "lat": 37.5006,
      "lng": 46.2969
    },
    {
      "cityName": "Asar",
      "lat": 38.386111,
      "lng": 47.261667
    },
    {
      "cityName": "As",
      "lat": 38.697,
      "lng": 47.1153
    },
    {
      "cityName": "Asayesh",
      "lat": 37.3021,
      "lng": 46.8126
    },
    {
      "cityName": "Asbabad",
      "lat": 37.7663,
      "lng": 46.7477
    },
    {
      "cityName": "Asbeh Ghalyan",
      "lat": 38.7113,
      "lng": 47.0519
    },
    {
      "cityName": "Asbforushan",
      "lat": 37.8274,
      "lng": 47.4761
    },
    {
      "cityName": "Asbgaran",
      "lat": 37.9041,
      "lng": 47.6232
    },
    {
      "cityName": "Asbhar-e Bala",
      "lat": 39.1271,
      "lng": 47.2438
    },
    {
      "cityName": "Asb Khan",
      "lat": 38.3305,
      "lng": 46.9675
    },
    {
      "cityName": "Asbos",
      "lat": 38.0018,
      "lng": 46.1196
    },
    {
      "cityName": "Asbqaran",
      "lat": 38.0204,
      "lng": 47.5041
    },
    {
      "cityName": "Asenj?n",
      "lat": 37.9535,
      "lng": 46.2308
    },
    {
      "cityName": "Asfestan",
      "lat": 37.9342,
      "lng": 47.6001
    },
    {
      "cityName": "Asgikand",
      "lat": 37.8503,
      "lng": 46.8409
    },
    {
      "cityName": "Ashaga Yechan",
      "lat": 38.6714,
      "lng": 45.4017
    },
    {
      "cityName": "Ashaghi Mayan",
      "lat": 38.0822,
      "lng": 46.1078
    },
    {
      "cityName": "Ashagly",
      "lat": 38.9867,
      "lng": 46.6999
    },
    {
      "cityName": "Ashaqi Chelleh Khaneh",
      "lat": 38.2421,
      "lng": 46.0575
    },
    {
      "cityName": "Ashaqi Tigalan",
      "lat": 38.4674,
      "lng": 46.8029
    },
    {
      "cityName": "Ashdalaq-e Bala",
      "lat": 38.0067,
      "lng": 46.9884
    },
    {
      "cityName": "Ashdalaq-e Pa'in",
      "lat": 38.0243,
      "lng": 46.9812
    },
    {
      "cityName": "Ashghaloo",
      "lat": 38.4319,
      "lng": 46.5698
    },
    {
      "cityName": "Ashistan",
      "lat": 37.7916,
      "lng": 46.2136
    },
    {
      "cityName": "Ashlogh",
      "lat": 37.6023,
      "lng": 47.6242
    },
    {
      "cityName": "Ashmaq",
      "lat": 37.4914,
      "lng": 46.5527
    },
    {
      "cityName": "Ashrafabad",
      "lat": 37.8081,
      "lng": 46.826
    },
    {
      "cityName": "Ashraf",
      "lat": 39.0622,
      "lng": 47.0484
    },
    {
      "cityName": "Ashtjeran",
      "lat": 37.9,
      "lng": 47.5618
    },
    {
      "cityName": "Asiran",
      "lat": 39.0251,
      "lng": 47.0697
    },
    {
      "cityName": "Askali Baghdad",
      "lat": 36.3967,
      "lng": 45.9578
    },
    {
      "cityName": "Askavaq",
      "lat": 37.46,
      "lng": 48.1355
    },
    {
      "cityName": "Asli Kand",
      "lat": 38.7029,
      "lng": 45.4198
    },
    {
      "cityName": "Asnanjin",
      "lat": 37.2516,
      "lng": 48.2434
    },
    {
      "cityName": "Asnaq",
      "lat": 38.0633,
      "lng": 47.1879
    },
    {
      "cityName": "Aspereh",
      "lat": 38.059167,
      "lng": 47.518889
    },
    {
      "cityName": "Asper Khan",
      "lat": 38.5223,
      "lng": 47.4912
    },
    {
      "cityName": "Astamal",
      "lat": 38.7175,
      "lng": 46.4175
    },
    {
      "cityName": "Asteyar",
      "lat": 38.0362,
      "lng": 46.6374
    },
    {
      "cityName": "Atajan",
      "lat": 37.7137,
      "lng": 46.8381
    },
    {
      "cityName": "`Atalu",
      "lat": 39.2025,
      "lng": 47.1372
    },
    {
      "cityName": "Atash Beyg",
      "lat": 37.4362,
      "lng": 46.6563
    },
    {
      "cityName": "Atashgah",
      "lat": 38.374,
      "lng": 47.467
    },
    {
      "cityName": "Atbatan",
      "lat": 37.886,
      "lng": 46.8571
    },
    {
      "cityName": "Atdarrahsi",
      "lat": 37.5305,
      "lng": 47.4001
    },
    {
      "cityName": "Atmeyan",
      "lat": 38.1687,
      "lng": 47.2848
    },
    {
      "cityName": "At Meyan",
      "lat": 38.4852,
      "lng": 47.4593
    },
    {
      "cityName": "Atmeyan-e Bala",
      "lat": 38.1706,
      "lng": 47.2876
    },
    {
      "cityName": "Atmeyan-e Pa'in",
      "lat": 38.1543,
      "lng": 47.2805
    },
    {
      "cityName": "Auval",
      "lat": 38.8056,
      "lng": 46.5113
    },
    {
      "cityName": "Avalan",
      "lat": 38.8724,
      "lng": 47.3289
    },
    {
      "cityName": "Avanlu",
      "lat": 39.0379,
      "lng": 47.0766
    },
    {
      "cityName": "Avan Sar",
      "lat": 38.6958,
      "lng": 46.4402
    },
    {
      "cityName": "Avarsin",
      "lat": 39.0091,
      "lng": 47.0564
    },
    {
      "cityName": "Avendin",
      "lat": 38.7537,
      "lng": 45.8928
    },
    {
      "cityName": "Avenliq",
      "lat": 37.5371,
      "lng": 47.6525
    },
    {
      "cityName": "Avin",
      "lat": 37.7342,
      "lng": 47.7983
    },
    {
      "cityName": "Ayakhakali",
      "lat": 38.881111,
      "lng": 47.264167
    },
    {
      "cityName": "Ayaz",
      "lat": 37.5011,
      "lng": 46.7804
    },
    {
      "cityName": "Aydamir",
      "lat": 37.246,
      "lng": 47.9152
    },
    {
      "cityName": "Aydinlu",
      "lat": 38.666,
      "lng": 47.3146
    },
    {
      "cityName": "Aydughmush",
      "lat": 36.8345,
      "lng": 47.1975
    },
    {
      "cityName": "Ayqer Chaman-e",
      "lat": 37.7575,
      "lng": 46.6155
    },
    {
      "cityName": "Ayqer Chaman-e `Olya",
      "lat": 37.767,
      "lng": 46.6083
    },
    {
      "cityName": "Ayri Bujaq",
      "lat": 39.3533,
      "lng": 47.333
    },
    {
      "cityName": "Azaran",
      "lat": 37.4779,
      "lng": 47.0508
    },
    {
      "cityName": "Azaran-e Bala",
      "lat": 37.5449,
      "lng": 46.6375
    },
    {
      "cityName": "Azaran-e Pa'in",
      "lat": 37.5355,
      "lng": 46.6435
    },
    {
      "cityName": "Azar Bonab",
      "lat": 37.372,
      "lng": 46.1237
    },
    {
      "cityName": "Azar Shahr",
      "lat": 37.759,
      "lng": 45.9783
    },
    {
      "cityName": "`Azizabad",
      "lat": 37.5032,
      "lng": 46.5803
    },
    {
      "cityName": "`Aziz Kandi",
      "lat": 37.4497,
      "lng": 46.9637
    },
    {
      "cityName": "Aznab-e Khaleseh",
      "lat": 39.0513,
      "lng": 47.4618
    },
    {
      "cityName": "Aznab-e `Olya",
      "lat": 39.0491,
      "lng": 47.4348
    },
    {
      "cityName": "Aznavi-ye Pa'in",
      "lat": 39.0455,
      "lng": 47.4166
    },
    {
      "cityName": "Azutash",
      "lat": 36.4528,
      "lng": 45.8042
    },
    {
      "cityName": "Azvian",
      "lat": 38.391111,
      "lng": 47.163889
    },
    {
      "cityName": "Baba Gar Gar",
      "lat": 37.3086,
      "lng": 46.7709
    },
    {
      "cityName": "Baba Jan",
      "lat": 38.5579,
      "lng": 47.2577
    },
    {
      "cityName": "Baba Kalak",
      "lat": 37.1861,
      "lng": 46.345
    },
    {
      "cityName": "Baba Kandi",
      "lat": 37.4877,
      "lng": 46.8788
    },
    {
      "cityName": "Baba Kandi Kuh",
      "lat": 37.5552,
      "lng": 47.0708
    },
    {
      "cityName": "Baba Qazi",
      "lat": 37.1233,
      "lng": 46.3806
    },
    {
      "cityName": "Ba`bastlu",
      "lat": 38.5049,
      "lng": 47.0515
    },
    {
      "cityName": "Babaylu",
      "lat": 39.0135,
      "lng": 47.1399
    },
    {
      "cityName": "Babay Lu",
      "lat": 39.1162,
      "lng": 46.8675
    },
    {
      "cityName": "Babdu",
      "lat": 39.1398,
      "lng": 47.0755
    },
    {
      "cityName": "Babereh",
      "lat": 38.6798,
      "lng": 45.74
    },
    {
      "cityName": "Babereh-ye Pa'in",
      "lat": 38.6742,
      "lng": 45.733
    },
    {
      "cityName": "Babuneh-ye `Olya",
      "lat": 36.9676,
      "lng": 47.0467
    },
    {
      "cityName": "Babuneh-ye Sofla",
      "lat": 36.9882,
      "lng": 47.0476
    },
    {
      "cityName": "Babuneh-ye Vosta",
      "lat": 36.976,
      "lng": 47.0486
    },
    {
      "cityName": "Bachehabad",
      "lat": 37.7805,
      "lng": 46.9672
    },
    {
      "cityName": "Badamyar",
      "lat": 37.6826,
      "lng": 46.0104
    },
    {
      "cityName": "Badellu",
      "lat": 37.3536,
      "lng": 47.8933
    },
    {
      "cityName": "Badvazyr'",
      "lat": 38.2912,
      "lng": 45.9387
    },
    {
      "cityName": "Badzhabash",
      "lat": 38.3607,
      "lng": 46.709
    },
    {
      "cityName": "Baftan",
      "lat": 37.891,
      "lng": 47.334
    },
    {
      "cityName": "Baghbanan",
      "lat": 37.4406,
      "lng": 48.1549
    },
    {
      "cityName": "Baghbanan-e Pa'in",
      "lat": 37.4338,
      "lng": 48.1442
    },
    {
      "cityName": "Bagh Bari",
      "lat": 37.2101,
      "lng": 46.6247
    },
    {
      "cityName": "Baghcheh Jiq",
      "lat": 37.5101,
      "lng": 46.6231
    },
    {
      "cityName": "Baghchehqaz-e Bala",
      "lat": 37.3253,
      "lng": 47.9306
    },
    {
      "cityName": "Baghchehqaz-e Sofla",
      "lat": 37.3002,
      "lng": 47.8835
    },
    {
      "cityName": "Baghdarrehsi",
      "lat": 37.5433,
      "lng": 47.9741
    },
    {
      "cityName": "Baghe Ma'roof",
      "lat": 38.0427,
      "lng": 46.1069
    },
    {
      "cityName": "Bagheshlu",
      "lat": 39.1736,
      "lng": 47.1715
    },
    {
      "cityName": "Bagh-e Ya`qub",
      "lat": 38.0074,
      "lng": 46.4397
    },
    {
      "cityName": "Baghlar Arlan",
      "lat": 38.4068,
      "lng": 45.5215
    },
    {
      "cityName": "Baghlujeh",
      "lat": 37.0067,
      "lng": 47.246
    },
    {
      "cityName": "Bagmanovant",
      "lat": 37.354,
      "lng": 48.0563
    },
    {
      "cityName": "Bagram",
      "lat": 38.4337,
      "lng": 45.7159
    },
    {
      "cityName": "Bagribai",
      "lat": 38.5428,
      "lng": 46.4785
    },
    {
      "cityName": "Bahador",
      "lat": 37.6975,
      "lng": 46.6986
    },
    {
      "cityName": "Bahramabad",
      "lat": 36.4217,
      "lng": 45.8071
    },
    {
      "cityName": "Bahraman",
      "lat": 37.9183,
      "lng": 47.2873
    },
    {
      "cityName": "Bai Qara",
      "lat": 37.5186,
      "lng": 46.6947
    },
    {
      "cityName": "Bajushin",
      "lat": 38.5396,
      "lng": 46.7546
    },
    {
      "cityName": "Bajvan",
      "lat": 37.591,
      "lng": 47.2386
    },
    {
      "cityName": "Bakhshaish",
      "lat": 38.1325,
      "lng": 46.946
    },
    {
      "cityName": "Bakhshash",
      "lat": 38.1319,
      "lng": 46.9283
    },
    {
      "cityName": "Bakyab",
      "lat": 38.5772,
      "lng": 46.6935
    },
    {
      "cityName": "Bala Beyglu",
      "lat": 39.1576,
      "lng": 47.2327
    },
    {
      "cityName": "Balajeh",
      "lat": 38.7545,
      "lng": 46.6284
    },
    {
      "cityName": "Balan",
      "lat": 38.8756,
      "lng": 46.8073
    },
    {
      "cityName": "Balan-e Safar `Ali",
      "lat": 38.9622,
      "lng": 47.519
    },
    {
      "cityName": "Bala Qayah",
      "lat": 37.0892,
      "lng": 46.5763
    },
    {
      "cityName": "Balasa",
      "lat": 38.9169,
      "lng": 46.9573
    },
    {
      "cityName": "Bal Daghi",
      "lat": 38.9742,
      "lng": 47.5607
    },
    {
      "cityName": "Balesh Kandi",
      "lat": 37.2973,
      "lng": 47.8088
    },
    {
      "cityName": "Balesin",
      "lat": 37.641,
      "lng": 47.5972
    },
    {
      "cityName": "Balestan",
      "lat": 37.9653,
      "lng": 47.277
    },
    {
      "cityName": "Bal Lujah",
      "lat": 37.6463,
      "lng": 47.7164
    },
    {
      "cityName": "Baltuz Aghaj",
      "lat": 37.6745,
      "lng": 47.2686
    },
    {
      "cityName": "Banab",
      "lat": 38.4283,
      "lng": 45.9071
    },
    {
      "cityName": "Bana'em",
      "lat": 37.1389,
      "lng": 46.2809
    },
    {
      "cityName": "Banafsheh Daraq",
      "lat": 36.9661,
      "lng": 47.1416
    },
    {
      "cityName": "Banajuy-e Shomali",
      "lat": 37.2998,
      "lng": 46.0219
    },
    {
      "cityName": "Banaowran",
      "lat": 37.7206,
      "lng": 47.7769
    },
    {
      "cityName": "Bandar-e-Rahmanlu",
      "lat": 37.5184,
      "lng": 45.8094
    },
    {
      "cityName": "Bandar-e Sharafkhaneh",
      "lat": 38.1716,
      "lng": 45.482
    },
    {
      "cityName": "Bandariq",
      "lat": 38.7723,
      "lng": 46.7446
    },
    {
      "cityName": "Bangi",
      "lat": 38.4483,
      "lng": 45.8123
    },
    {
      "cityName": "Baniq",
      "lat": 38.5361,
      "lng": 47.1563
    },
    {
      "cityName": "Banqaran",
      "lat": 37.3441,
      "lng": 47.174
    },
    {
      "cityName": "Banyar",
      "lat": 38.1168,
      "lng": 46.405
    },
    {
      "cityName": "Baqer Owghli",
      "lat": 39.3303,
      "lng": 47.2637
    },
    {
      "cityName": "Baraghush",
      "lat": 38.0947,
      "lng": 47.2251
    },
    {
      "cityName": "Bara'lu",
      "lat": 37.9991,
      "lng": 46.0392
    },
    {
      "cityName": "Baranlaq-e Hoseyn Khan",
      "lat": 37.5452,
      "lng": 47.7856
    },
    {
      "cityName": "Baranlaq-e Madad Khan",
      "lat": 37.5314,
      "lng": 47.7822
    },
    {
      "cityName": "Baranqar",
      "lat": 37.4321,
      "lng": 48.0023
    },
    {
      "cityName": "Baraz",
      "lat": 37.542,
      "lng": 46.1506
    },
    {
      "cityName": "Barazin",
      "lat": 38.2713,
      "lng": 47.1075
    },
    {
      "cityName": "Bare",
      "lat": 38.5035,
      "lng": 45.6939
    },
    {
      "cityName": "Bareh Yusofan",
      "lat": 38.4183,
      "lng": 46.93
    },
    {
      "cityName": "Barenj",
      "lat": 38.0619,
      "lng": 46.376
    },
    {
      "cityName": "Bargah",
      "lat": 37.1924,
      "lng": 47.3657
    },
    {
      "cityName": "Barijan",
      "lat": 38.9437,
      "lng": 47.3193
    },
    {
      "cityName": "Barijuq",
      "lat": 37.0499,
      "lng": 46.9905
    },
    {
      "cityName": "Barkab",
      "lat": 37.7865,
      "lng": 47.5139
    },
    {
      "cityName": "Barmas",
      "lat": 38.4837,
      "lng": 46.9123
    },
    {
      "cityName": "Barmluk",
      "lat": 38.6258,
      "lng": 46.6828
    },
    {
      "cityName": "Barreh Deh",
      "lat": 37.5226,
      "lng": 46.7934
    },
    {
      "cityName": "Baruq",
      "lat": 38.1734,
      "lng": 47.0636
    },
    {
      "cityName": "Barut Aghaji",
      "lat": 36.9217,
      "lng": 47.3107
    },
    {
      "cityName": "Barzandiq",
      "lat": 38.7835,
      "lng": 46.945
    },
    {
      "cityName": "Barzaq",
      "lat": 37.7807,
      "lng": 47.8953
    },
    {
      "cityName": "Barzeliq",
      "lat": 37.6253,
      "lng": 47.5462
    },
    {
      "cityName": "Bashab",
      "lat": 39.0763,
      "lng": 47.1295
    },
    {
      "cityName": "Bash Bolagh",
      "lat": 37.2621,
      "lng": 48.1322
    },
    {
      "cityName": "Bashil",
      "lat": 38.5817,
      "lng": 46.6538
    },
    {
      "cityName": "Bashir",
      "lat": 38.2502,
      "lng": 46.6605
    },
    {
      "cityName": "Bashkalan",
      "lat": 39.0828,
      "lng": 47.4365
    },
    {
      "cityName": "Bashkand",
      "lat": 37.789,
      "lng": 47.1049
    },
    {
      "cityName": "Bash Khalaj",
      "lat": 37.3988,
      "lng": 46.7832
    },
    {
      "cityName": "Bashmaq",
      "lat": 37.3073,
      "lng": 47.4862
    },
    {
      "cityName": "Bash Qarah Darreh",
      "lat": 39.1515,
      "lng": 47.4498
    },
    {
      "cityName": "Bashsiz",
      "lat": 37.7058,
      "lng": 46.7403
    },
    {
      "cityName": "Bash Siz",
      "lat": 37.8044,
      "lng": 46.7654
    },
    {
      "cityName": "Basirabad",
      "lat": 38.5467,
      "lng": 47.2848
    },
    {
      "cityName": "Basit",
      "lat": 37.4633,
      "lng": 46.6154
    },
    {
      "cityName": "Basmej",
      "lat": 37.9958,
      "lng": 46.4748
    },
    {
      "cityName": "Bastamlu",
      "lat": 39.1904,
      "lng": 47.1216
    },
    {
      "cityName": "Batmanqelich",
      "lat": 37.524,
      "lng": 46.5511
    },
    {
      "cityName": "Batmanqelich-e Bala",
      "lat": 37.5891,
      "lng": 46.5042
    },
    {
      "cityName": "Bayanlujeh",
      "lat": 37.4478,
      "lng": 46.5219
    },
    {
      "cityName": "Bayat",
      "lat": 37.4175,
      "lng": 47.0076
    },
    {
      "cityName": "Bayat-e Bala",
      "lat": 37.4574,
      "lng": 47.3833
    },
    {
      "cityName": "Bayat-e Pa'in",
      "lat": 37.4701,
      "lng": 47.4108
    },
    {
      "cityName": "Bayazid",
      "lat": 37.3663,
      "lng": 47.176
    },
    {
      "cityName": "Baygehlu",
      "lat": 37.9158,
      "lng": 45.9766
    },
    {
      "cityName": "Bay Qarah",
      "lat": 37.5645,
      "lng": 46.9089
    },
    {
      "cityName": "Bayqut",
      "lat": 37.1569,
      "lng": 46.0532
    },
    {
      "cityName": "Bayram Kandi",
      "lat": 36.9927,
      "lng": 47.3496
    },
    {
      "cityName": "Bazar Takmeh Dash",
      "lat": 37.7348,
      "lng": 46.9575
    },
    {
      "cityName": "Bazovan",
      "lat": 38.2983,
      "lng": 47.0801
    },
    {
      "cityName": "Bech-Khanum",
      "lat": 38.1659,
      "lng": 45.8326
    },
    {
      "cityName": "Beglar Kandi",
      "lat": 36.8899,
      "lng": 47.2182
    },
    {
      "cityName": "Behnaq",
      "lat": 37.4395,
      "lng": 46.3553
    },
    {
      "cityName": "Behruz",
      "lat": 38.8687,
      "lng": 46.7938
    },
    {
      "cityName": "Bejerlu",
      "lat": 37.559,
      "lng": 47.2427
    },
    {
      "cityName": "Belasejin",
      "lat": 37.9592,
      "lng": 47.4819
    },
    {
      "cityName": "Belbel",
      "lat": 37.067,
      "lng": 46.6267
    },
    {
      "cityName": "Belkobad",
      "lat": 37.2937,
      "lng": 46.5537
    },
    {
      "cityName": "Beloo Yerdi",
      "lat": 38.2597,
      "lng": 46.8705
    },
    {
      "cityName": "Beneh Kohol",
      "lat": 37.7899,
      "lng": 46.8131
    },
    {
      "cityName": "Benis",
      "lat": 38.2115,
      "lng": 45.7289
    },
    {
      "cityName": "Berenjabad",
      "lat": 37.8358,
      "lng": 47.0725
    },
    {
      "cityName": "Berenjaq",
      "lat": 37.5295,
      "lng": 47.6256
    },
    {
      "cityName": "Berneh Del",
      "lat": 38.9164,
      "lng": 46.9903
    },
    {
      "cityName": "Beshak",
      "lat": 38.5972,
      "lng": 46.3262
    },
    {
      "cityName": "Besheshai",
      "lat": 38.5104,
      "lng": 46.7434
    },
    {
      "cityName": "Beyg Bolaghi",
      "lat": 37.4211,
      "lng": 47.4531
    },
    {
      "cityName": "Beyg Kandi",
      "lat": 37.2301,
      "lng": 46.854
    },
    {
      "cityName": "Beyg Kandi Rud",
      "lat": 37.5467,
      "lng": 46.9215
    },
    {
      "cityName": "Beygom Baghi",
      "lat": 37.9483,
      "lng": 46.0229
    },
    {
      "cityName": "Beyraq",
      "lat": 37.8872,
      "lng": 46.4683
    },
    {
      "cityName": "Bezni Bodagh",
      "lat": 37.3173,
      "lng": 47.2874
    },
    {
      "cityName": "Bezni-ye Cheragh Mardan",
      "lat": 37.3406,
      "lng": 47.2711
    },
    {
      "cityName": "Bezujeq",
      "lat": 37.4427,
      "lng": 46.7833
    },
    {
      "cityName": "Bichan",
      "lat": 38.0609,
      "lng": 47.3184
    },
    {
      "cityName": "Bijab",
      "lat": 38.0798,
      "lng": 47.3096
    },
    {
      "cityName": "Bina Keyaji",
      "lat": 38.7375,
      "lng": 46.7782
    },
    {
      "cityName": "Bineh",
      "lat": 38.809444,
      "lng": 47.056944
    },
    {
      "cityName": "Birihan",
      "lat": 38.9701,
      "lng": 47.4076
    },
    {
      "cityName": "Birun",
      "lat": 37.4253,
      "lng": 47.8464
    },
    {
      "cityName": "Birun Daraq",
      "lat": 38.4129,
      "lng": 46.5148
    },
    {
      "cityName": "Bodaq Beyg",
      "lat": 37.2406,
      "lng": 47.5018
    },
    {
      "cityName": "Bohal",
      "lat": 38.3594,
      "lng": 47.2866
    },
    {
      "cityName": "Bohlul",
      "lat": 37.2053,
      "lng": 46.5112
    },
    {
      "cityName": "Bolanliq",
      "lat": 37.1806,
      "lng": 47.6667
    },
    {
      "cityName": "Boledgan",
      "lat": 37.6584,
      "lng": 47.4821
    },
    {
      "cityName": "Bolfah Teymur",
      "lat": 37.7013,
      "lng": 47.2961
    },
    {
      "cityName": "Bolgan",
      "lat": 37.2724,
      "lng": 46.9672
    },
    {
      "cityName": "Bolqan Hasan Kandi",
      "lat": 37.4502,
      "lng": 47.2168
    },
    {
      "cityName": "Bonyadabad",
      "lat": 37.631,
      "lng": 47.9783
    },
    {
      "cityName": "Bonyad Kandi",
      "lat": 37.1433,
      "lng": 47.2357
    },
    {
      "cityName": "Booket",
      "lat": 37.5513,
      "lng": 45.9885
    },
    {
      "cityName": "Boqrabad",
      "lat": 37.6112,
      "lng": 47.2338
    },
    {
      "cityName": "Boqriq",
      "lat": 37.8175,
      "lng": 47.2796
    },
    {
      "cityName": "Borj Bala",
      "lat": 37.2892,
      "lng": 46.6465
    },
    {
      "cityName": "Borj-e Soflá",
      "lat": 37.2747,
      "lng": 46.6379
    },
    {
      "cityName": "Bostanabad",
      "lat": 37.842,
      "lng": 46.8358
    },
    {
      "cityName": "Bostanabad-e Bala",
      "lat": 37.8445,
      "lng": 46.8284
    },
    {
      "cityName": "Bozeylan",
      "lat": 38.826,
      "lng": 47.3334
    },
    {
      "cityName": "BuÊ¼iduz",
      "lat": 39.0112,
      "lng": 46.6956
    },
    {
      "cityName": "Bulalu",
      "lat": 37.4981,
      "lng": 45.921
    },
    {
      "cityName": "Bunab",
      "lat": 37.3404,
      "lng": 46.0561
    },
    {
      "cityName": "Bura Challu",
      "lat": 37.9192,
      "lng": 45.4604
    },
    {
      "cityName": "B?v?l-e `Oly?",
      "lat": 37.9302,
      "lng": 46.0982
    },
    {
      "cityName": "B?v?l-e Soflá",
      "lat": 37.9327,
      "lng": 46.0868
    },
    {
      "cityName": "B?yr?m",
      "lat": 37.9355,
      "lng": 46.0717
    },
    {
      "cityName": "Chabiastar",
      "lat": 38.1804,
      "lng": 45.7028
    },
    {
      "cityName": "Chabinlu",
      "lat": 37.2834,
      "lng": 46.5903
    },
    {
      "cityName": "Chagan",
      "lat": 37.3487,
      "lng": 46.3191
    },
    {
      "cityName": "Chahar Baghi",
      "lat": 37.3288,
      "lng": 46.2761
    },
    {
      "cityName": "Chahar Barud",
      "lat": 37.6585,
      "lng": 46.1727
    },
    {
      "cityName": "Chahar Divar",
      "lat": 36.488,
      "lng": 45.9407
    },
    {
      "cityName": "Chahargah",
      "lat": 36.4689,
      "lng": 45.7611
    },
    {
      "cityName": "Chahar Khanevar",
      "lat": 37.6325,
      "lng": 47.9611
    },
    {
      "cityName": "Chaharshanbeh Chay",
      "lat": 38.1071,
      "lng": 46.3053
    },
    {
      "cityName": "Chahar Taq",
      "lat": 37.534,
      "lng": 46.2092
    },
    {
      "cityName": "Chah Kheyrlu",
      "lat": 39.2457,
      "lng": 47.4547
    },
    {
      "cityName": "Cha'i Aq Dagh",
      "lat": 37.388,
      "lng": 47.0406
    },
    {
      "cityName": "Chai Kand",
      "lat": 38.4609,
      "lng": 46.6042
    },
    {
      "cityName": "Chaikhana",
      "lat": 38.7904,
      "lng": 46.5632
    },
    {
      "cityName": "Chaindara",
      "lat": 39.0394,
      "lng": 46.7743
    },
    {
      "cityName": "Chairazan",
      "lat": 38.6588,
      "lng": 45.7572
    },
    {
      "cityName": "Chakawan",
      "lat": 38.2271,
      "lng": 45.7153
    },
    {
      "cityName": "Chakheyrlu",
      "lat": 39.2506,
      "lng": 47.4621
    },
    {
      "cityName": "Chakhmakh-bulag-Ashagi",
      "lat": 38.3929,
      "lng": 46.7012
    },
    {
      "cityName": "Chakhmakh-bulag-Okhary",
      "lat": 38.3943,
      "lng": 46.7147
    },
    {
      "cityName": "Chakhnali",
      "lat": 38.5465,
      "lng": 46.5398
    },
    {
      "cityName": "Chaktu",
      "lat": 36.88,
      "lng": 47.086
    },
    {
      "cityName": "Chalaghan",
      "lat": 39.2967,
      "lng": 47.2285
    },
    {
      "cityName": "Chal Davah Owlan",
      "lat": 39.233333,
      "lng": 47.433333
    },
    {
      "cityName": "Chalelu Barlanlu",
      "lat": 37.1517,
      "lng": 46.4601
    },
    {
      "cityName": "Chalelu",
      "lat": 37.2391,
      "lng": 46.2734
    },
    {
      "cityName": "Chalfir",
      "lat": 38.410833,
      "lng": 47.023889
    },
    {
      "cityName": "Chalik",
      "lat": 37.3833,
      "lng": 47.0621
    },
    {
      "cityName": "Challu-ye Habibanlu",
      "lat": 37.2303,
      "lng": 46.579
    },
    {
      "cityName": "Chalnab",
      "lat": 38.6165,
      "lng": 46.5845
    },
    {
      "cityName": "Chalow",
      "lat": 38.7011,
      "lng": 46.309
    },
    {
      "cityName": "Chaly",
      "lat": 38.2485,
      "lng": 46.6144
    },
    {
      "cityName": "Chanaglu",
      "lat": 38.4406,
      "lng": 46.6092
    },
    {
      "cityName": "Chanaq Bolagh",
      "lat": 37.5574,
      "lng": 47.466
    },
    {
      "cityName": "Chanaq",
      "lat": 39.0625,
      "lng": 47.3949
    },
    {
      "cityName": "Chapan",
      "lat": 38.5674,
      "lng": 47.1709
    },
    {
      "cityName": "Chapandara",
      "lat": 38.9072,
      "lng": 46.6618
    },
    {
      "cityName": "Chaparah Qayah",
      "lat": 39.1469,
      "lng": 47.303
    },
    {
      "cityName": "Chapqolu",
      "lat": 37.5133,
      "lng": 47.5157
    },
    {
      "cityName": "Chaqaleh",
      "lat": 38.3866,
      "lng": 47.0535
    },
    {
      "cityName": "Char Char",
      "lat": 38.5599,
      "lng": 45.7201
    },
    {
      "cityName": "Chariq",
      "lat": 38.9043,
      "lng": 46.8917
    },
    {
      "cityName": "Charkhvoli",
      "lat": 38.5095,
      "lng": 47.362
    },
    {
      "cityName": "Charlu",
      "lat": 37.5464,
      "lng": 46.9598
    },
    {
      "cityName": "Charmdash",
      "lat": 38.8854,
      "lng": 47.3704
    },
    {
      "cityName": "Charmkhowran-e Bala",
      "lat": 37.7459,
      "lng": 47.0308
    },
    {
      "cityName": "Charmkhowran-e Pa'in",
      "lat": 37.7453,
      "lng": 46.9898
    },
    {
      "cityName": "Charm Shahr",
      "lat": 38.1093,
      "lng": 46.1384
    },
    {
      "cityName": "Charzeh Khun",
      "lat": 37.8076,
      "lng": 46.849
    },
    {
      "cityName": "Chashmaghan",
      "lat": 38.745,
      "lng": 46.4138
    },
    {
      "cityName": "Chashmeh Khuni",
      "lat": 38.3329,
      "lng": 45.2103
    },
    {
      "cityName": "Chasin",
      "lat": 38.5346,
      "lng": 46.5961
    },
    {
      "cityName": "Chat Qayah",
      "lat": 39.15,
      "lng": 47.2819
    },
    {
      "cityName": "Chavan Bagh",
      "lat": 37.3887,
      "lng": 46.349
    },
    {
      "cityName": "Chavan-e `Olya",
      "lat": 37.5099,
      "lng": 46.1908
    },
    {
      "cityName": "Chavan-e Pa'in",
      "lat": 37.4891,
      "lng": 46.1713
    },
    {
      "cityName": "Chavarchin",
      "lat": 38.1436,
      "lng": 46.4268
    },
    {
      "cityName": "Chay Kandi",
      "lat": 38.3772,
      "lng": 46.699
    },
    {
      "cityName": "Chay Kasan",
      "lat": 38.7222,
      "lng": 45.4836
    },
    {
      "cityName": "Chay Quruqchi",
      "lat": 37.6618,
      "lng": 46.7054
    },
    {
      "cityName": "Chay Talvar",
      "lat": 37.2763,
      "lng": 47.5583
    },
    {
      "cityName": "Chechaklu",
      "lat": 37.7786,
      "lng": 47.3643
    },
    {
      "cityName": "Cheghalu",
      "lat": 37.0254,
      "lng": 46.2756
    },
    {
      "cityName": "Chegrevan",
      "lat": 38.3451,
      "lng": 45.2784
    },
    {
      "cityName": "Chehraq",
      "lat": 38.0607,
      "lng": 47.3886
    },
    {
      "cityName": "Chekhmur",
      "lat": 37.2662,
      "lng": 47.4009
    },
    {
      "cityName": "Chelan",
      "lat": 37.3881,
      "lng": 46.5517
    },
    {
      "cityName": "Chelan-e Sofla",
      "lat": 37.3686,
      "lng": 46.5485
    },
    {
      "cityName": "Chelleh Khaneh Bala",
      "lat": 38.2558,
      "lng": 46.0262
    },
    {
      "cityName": "Chelleh Khaneh",
      "lat": 38.0372,
      "lng": 47.693
    },
    {
      "cityName": "Chelpaqlar",
      "lat": 38.6835,
      "lng": 47.1845
    },
    {
      "cityName": "Chenab",
      "lat": 38.7604,
      "lng": 47.3786
    },
    {
      "cityName": "Chenaran",
      "lat": 37.311944,
      "lng": 48.334167
    },
    {
      "cityName": "Chenar",
      "lat": 37.5565,
      "lng": 47.6361
    },
    {
      "cityName": "Cheqush",
      "lat": 37.9654,
      "lng": 47.5692
    },
    {
      "cityName": "Cheraghchi",
      "lat": 37.5771,
      "lng": 46.8362
    },
    {
      "cityName": "Cheraghil",
      "lat": 37.7398,
      "lng": 46.1271
    },
    {
      "cityName": "Cheraghli",
      "lat": 38.3846,
      "lng": 46.2402
    },
    {
      "cityName": "Cheran",
      "lat": 37.6716,
      "lng": 47.5477
    },
    {
      "cityName": "Cher Chera",
      "lat": 36.9863,
      "lng": 47.3066
    },
    {
      "cityName": "Cherkenlu",
      "lat": 37.5657,
      "lng": 47.8666
    },
    {
      "cityName": "Cherlu",
      "lat": 37.9328,
      "lng": 47.3947
    },
    {
      "cityName": "Cherteqlu",
      "lat": 37.3772,
      "lng": 46.8118
    },
    {
      "cityName": "Cheshmeh Vazan",
      "lat": 38.4115,
      "lng": 47.0031
    },
    {
      "cityName": "Chetab-e Aqakarim",
      "lat": 37.5109,
      "lng": 47.8418
    },
    {
      "cityName": "Chetab-e Hoseynkhani",
      "lat": 37.512,
      "lng": 47.8501
    },
    {
      "cityName": "Chigir",
      "lat": 37.647,
      "lng": 46.7895
    },
    {
      "cityName": "Chini Bolagh",
      "lat": 37.6497,
      "lng": 46.9986
    },
    {
      "cityName": "Chivi",
      "lat": 38.3333,
      "lng": 46.5777
    },
    {
      "cityName": "Chizabad",
      "lat": 37.37,
      "lng": 46.4089
    },
    {
      "cityName": "Chobanar",
      "lat": 38.3732,
      "lng": 46.7542
    },
    {
      "cityName": "Chogan",
      "lat": 37.2536,
      "lng": 47.0376
    },
    {
      "cityName": "Cholaghloo",
      "lat": 37.2872,
      "lng": 47.9061
    },
    {
      "cityName": "Chollu",
      "lat": 36.8928,
      "lng": 47.2444
    },
    {
      "cityName": "Chol Qeshlaq",
      "lat": 38.5103,
      "lng": 47.318
    },
    {
      "cityName": "Chomalu",
      "lat": 37.128,
      "lng": 48.155
    },
    {
      "cityName": "Chonaq Bolagh-e `Olya",
      "lat": 37.1523,
      "lng": 46.6142
    },
    {
      "cityName": "Chonaq Bolagh-e Sofla",
      "lat": 37.1739,
      "lng": 46.6161
    },
    {
      "cityName": "Chopoqlu",
      "lat": 37.1008,
      "lng": 46.7349
    },
    {
      "cityName": "Chorur",
      "lat": 37.6495,
      "lng": 47.7459
    },
    {
      "cityName": "?ch Tappeh",
      "lat": 37.7622,
      "lng": 46.1869
    },
    {
      "cityName": "Chubankareh",
      "lat": 37.5349,
      "lng": 45.8747
    },
    {
      "cityName": "Chubdar Kandi",
      "lat": 37.0916,
      "lng": 47.075
    },
    {
      "cityName": "Chuganlu",
      "lat": 37.1907,
      "lng": 46.8741
    },
    {
      "cityName": "Chugi-ye Bizhan",
      "lat": 37.0857,
      "lng": 46.6127
    },
    {
      "cityName": "Chugi-ye Mohammad Reza",
      "lat": 37.051,
      "lng": 46.582
    },
    {
      "cityName": "Chugi-ye Vasat",
      "lat": 37.055,
      "lng": 46.5985
    },
    {
      "cityName": "Chulalu",
      "lat": 38.0291,
      "lng": 47.4543
    },
    {
      "cityName": "Chupanlar-e HÌ§oseynkalu",
      "lat": 38.6002,
      "lng": 47.1599
    },
    {
      "cityName": "Churdilan",
      "lat": 38.562778,
      "lng": 47.006389
    },
    {
      "cityName": "Chyuchamar",
      "lat": 38.65,
      "lng": 45.977
    },
    {
      "cityName": "Dabakloo",
      "lat": 38.3883,
      "lng": 46.6055
    },
    {
      "cityName": "Dabardan-e `Olya",
      "lat": 37.1069,
      "lng": 46.9803
    },
    {
      "cityName": "Dabardan-e Sofla",
      "lat": 37.1229,
      "lng": 46.9854
    },
    {
      "cityName": "Dadeh Kohel",
      "lat": 37.7925,
      "lng": 46.0754
    },
    {
      "cityName": "Dadlu",
      "lat": 37.1349,
      "lng": 47.7038
    },
    {
      "cityName": "Daghalian-e Bala",
      "lat": 38.4683,
      "lng": 46.7878
    },
    {
      "cityName": "Daghdaghan",
      "lat": 38.3108,
      "lng": 46.6403
    },
    {
      "cityName": "Dahlan",
      "lat": 37.5284,
      "lng": 47.022
    },
    {
      "cityName": "Dahnab",
      "lat": 37.6346,
      "lng": 46.7379
    },
    {
      "cityName": "Da'i Mama",
      "lat": 38.6426,
      "lng": 46.6422
    },
    {
      "cityName": "Daliqez",
      "lat": 37.7938,
      "lng": 47.9363
    },
    {
      "cityName": "Dali Quruqchi",
      "lat": 37.6277,
      "lng": 46.6373
    },
    {
      "cityName": "Dallak Qabri",
      "lat": 37.3366,
      "lng": 46.9868
    },
    {
      "cityName": "Dalmeh",
      "lat": 37.3799,
      "lng": 47.1938
    },
    {
      "cityName": "Dalu Hasan",
      "lat": 37.4698,
      "lng": 46.6941
    },
    {
      "cityName": "Damanabad",
      "lat": 38.4179,
      "lng": 46.8421
    },
    {
      "cityName": "Damanab",
      "lat": 37.4938,
      "lng": 46.9989
    },
    {
      "cityName": "Daman Jan",
      "lat": 37.8085,
      "lng": 47.3864
    },
    {
      "cityName": "Dameshlar",
      "lat": 38.8399,
      "lng": 46.7343
    },
    {
      "cityName": "Damirchi",
      "lat": 37.0865,
      "lng": 46.1862
    },
    {
      "cityName": "Damireh Chi",
      "lat": 37.2658,
      "lng": 47.4842
    },
    {
      "cityName": "Damir Tappeh",
      "lat": 38.4669,
      "lng": 47.4087
    },
    {
      "cityName": "Danalu",
      "lat": 37.4856,
      "lng": 45.8421
    },
    {
      "cityName": "Danbaran",
      "lat": 37.8402,
      "lng": 47.2277
    },
    {
      "cityName": "Daneshabad",
      "lat": 37.6759,
      "lng": 47.1071
    },
    {
      "cityName": "Dangah",
      "lat": 38.7277,
      "lng": 46.7231
    },
    {
      "cityName": "Danvara",
      "lat": 38.8932,
      "lng": 46.6045
    },
    {
      "cityName": "Dar Ab",
      "lat": 38.017,
      "lng": 47.7469
    },
    {
      "cityName": "Darab",
      "lat": 37.8702,
      "lng": 47.2542
    },
    {
      "cityName": "Dara",
      "lat": 38.599,
      "lng": 45.8525
    },
    {
      "cityName": "Daraj-e Sofla",
      "lat": 37.1961,
      "lng": 46.6665
    },
    {
      "cityName": "Daran",
      "lat": 38.8306,
      "lng": 45.822
    },
    {
      "cityName": "Darandash",
      "lat": 38.6948,
      "lng": 45.9318
    },
    {
      "cityName": "Darband",
      "lat": 37.4643,
      "lng": 46.7677
    },
    {
      "cityName": "Dardin",
      "lat": 38.5198,
      "lng": 46.5184
    },
    {
      "cityName": "Dareyan",
      "lat": 38.2162,
      "lng": 45.6283
    },
    {
      "cityName": "Darilu",
      "lat": 39.0997,
      "lng": 46.8569
    },
    {
      "cityName": "Darindaraq",
      "lat": 37.3197,
      "lng": 47.5495
    },
    {
      "cityName": "Darin Su",
      "lat": 37.2478,
      "lng": 46.6729
    },
    {
      "cityName": "Darjin",
      "lat": 39.1137,
      "lng": 47.4656
    },
    {
      "cityName": "Darrehchi",
      "lat": 37.7847,
      "lng": 46.9965
    },
    {
      "cityName": "Darvishan",
      "lat": 36.439,
      "lng": 45.9473
    },
    {
      "cityName": "Darvish Baghghal",
      "lat": 38.1622,
      "lng": 45.8511
    },
    {
      "cityName": "Darvish Mohammad",
      "lat": 38.4771,
      "lng": 45.6171
    },
    {
      "cityName": "Daryan",
      "lat": 38.2334,
      "lng": 45.6365
    },
    {
      "cityName": "Dash Alti",
      "lat": 37.2438,
      "lng": 46.641
    },
    {
      "cityName": "Dash Arasi",
      "lat": 39.0048,
      "lng": 46.7771
    },
    {
      "cityName": "Dash Aray",
      "lat": 38.979,
      "lng": 46.7816
    },
    {
      "cityName": "Dashbash",
      "lat": 38.9846,
      "lng": 46.8897
    },
    {
      "cityName": "Dash Bashi",
      "lat": 39.1163,
      "lng": 47.2315
    },
    {
      "cityName": "Dash Bolagh Bazar",
      "lat": 37.1159,
      "lng": 46.5762
    },
    {
      "cityName": "Dash Bolagh",
      "lat": 37.127,
      "lng": 46.2554
    },
    {
      "cityName": "Dashbolagh",
      "lat": 38.6135,
      "lng": 47.4102
    },
    {
      "cityName": "Dash Bolagh-e Kharabeh Kalak",
      "lat": 37.1764,
      "lng": 46.7657
    },
    {
      "cityName": "Dash Bolaghi-ye `Olya",
      "lat": 37.0549,
      "lng": 46.9224
    },
    {
      "cityName": "Dash Bolaghi-ye Sofla",
      "lat": 37.0517,
      "lng": 46.9205
    },
    {
      "cityName": "Dashbulaghi",
      "lat": 37.2347,
      "lng": 48.1446
    },
    {
      "cityName": "Dash Esparan",
      "lat": 38.2469,
      "lng": 46.3786
    },
    {
      "cityName": "Dash Kasan",
      "lat": 37.0007,
      "lng": 46.928
    },
    {
      "cityName": "Dashkasan",
      "lat": 37.6578,
      "lng": 45.8411
    },
    {
      "cityName": "Dashkesan",
      "lat": 38.5353,
      "lng": 46.5177
    },
    {
      "cityName": "Dashli",
      "lat": 39.041,
      "lng": 47.274
    },
    {
      "cityName": "Dashlujeh",
      "lat": 38.4005,
      "lng": 47.1544
    },
    {
      "cityName": "Dash Qabi",
      "lat": 38.5631,
      "lng": 47.5195
    },
    {
      "cityName": "Dash Uchan",
      "lat": 38.978611,
      "lng": 47.129444
    },
    {
      "cityName": "Dastjerd",
      "lat": 37.634,
      "lng": 47.4705
    },
    {
      "cityName": "Daulatabad",
      "lat": 38.4544,
      "lng": 45.8277
    },
    {
      "cityName": "Davah Bini",
      "lat": 37.5006,
      "lng": 46.4633
    },
    {
      "cityName": "Davah Dashi",
      "lat": 37.637,
      "lng": 47.9853
    },
    {
      "cityName": "Davah Taqi",
      "lat": 36.9452,
      "lng": 47.3146
    },
    {
      "cityName": "Davand",
      "lat": 37.638,
      "lng": 47.9546
    },
    {
      "cityName": "Davdan-e Bala",
      "lat": 39.2377,
      "lng": 47.0731
    },
    {
      "cityName": "Davdan-e Pa'in",
      "lat": 39.2434,
      "lng": 47.0828
    },
    {
      "cityName": "Daveh Meydani",
      "lat": 37.2432,
      "lng": 46.9266
    },
    {
      "cityName": "Daveh Yataqi",
      "lat": 37.1788,
      "lng": 46.9264
    },
    {
      "cityName": "Davudlu",
      "lat": 38.9748,
      "lng": 47.3168
    },
    {
      "cityName": "Dayan",
      "lat": 39.0966,
      "lng": 47.0942
    },
    {
      "cityName": "Daylar",
      "lat": 38.4432,
      "lng": 46.9017
    },
    {
      "cityName": "Debeklu",
      "lat": 37.6582,
      "lng": 46.8988
    },
    {
      "cityName": "Dedlu",
      "lat": 39.1184,
      "lng": 47.1122
    },
    {
      "cityName": "Dehdolan",
      "lat": 37.8258,
      "lng": 47.1249
    },
    {
      "cityName": "Dehestan",
      "lat": 38.4218,
      "lng": 47.0534
    },
    {
      "cityName": "Dehlaq",
      "lat": 38.6337,
      "lng": 46.6104
    },
    {
      "cityName": "Deh Noqli",
      "lat": 37.2891,
      "lng": 46.9874
    },
    {
      "cityName": "Dehrud",
      "lat": 38.9183,
      "lng": 47.2618
    },
    {
      "cityName": "Deija Sultan",
      "lat": 38.5308,
      "lng": 46.6426
    },
    {
      "cityName": "Dekal",
      "lat": 37.7333,
      "lng": 46.1777
    },
    {
      "cityName": "Deklanlu",
      "lat": 38.0285,
      "lng": 47.8401
    },
    {
      "cityName": "Del Bilmaz",
      "lat": 39.1083,
      "lng": 47.2892
    },
    {
      "cityName": "Delqanab",
      "lat": 38.7931,
      "lng": 47.4858
    },
    {
      "cityName": "Denigeh Tappeh",
      "lat": 38.009722,
      "lng": 47.274444
    },
    {
      "cityName": "Deshab",
      "lat": 37.6288,
      "lng": 47.6131
    },
    {
      "cityName": "Devich",
      "lat": 37.3054,
      "lng": 48.1985
    },
    {
      "cityName": "Deylamshah",
      "lat": 38.1435,
      "lng": 47.3546
    },
    {
      "cityName": "Didehban",
      "lat": 38.3883,
      "lng": 45.7986
    },
    {
      "cityName": "Dilanchi-ye Arkhi-ye Pa'in",
      "lat": 37.544,
      "lng": 46.0511
    },
    {
      "cityName": "Dinabad",
      "lat": 37.6624,
      "lng": 45.985
    },
    {
      "cityName": "Dinavar",
      "lat": 38.8077,
      "lng": 46.642
    },
    {
      "cityName": "Dingah",
      "lat": 37.4292,
      "lng": 47.7848
    },
    {
      "cityName": "Dini Juq",
      "lat": 37.3371,
      "lng": 47.2106
    },
    {
      "cityName": "Disajmehr",
      "lat": 38.177,
      "lng": 45.4873
    },
    {
      "cityName": "Dishgadaki",
      "lat": 38.8009,
      "lng": 46.6672
    },
    {
      "cityName": "Divanlaq",
      "lat": 37.5395,
      "lng": 47.8472
    },
    {
      "cityName": "Divanleq",
      "lat": 37.8114,
      "lng": 47.9389
    },
    {
      "cityName": "Divrazm",
      "lat": 37.3233,
      "lng": 46.3717
    },
    {
      "cityName": "Dizach",
      "lat": 38.5124,
      "lng": 46.6913
    },
    {
      "cityName": "Diza",
      "lat": 38.3086,
      "lng": 45.3853
    },
    {
      "cityName": "Dizaj Amir",
      "lat": 37.9272,
      "lng": 46.0645
    },
    {
      "cityName": "Dizaj `Azim",
      "lat": 37.9698,
      "lng": 47.5231
    },
    {
      "cityName": "Dizaj Cheragh",
      "lat": 37.7854,
      "lng": 45.9135
    },
    {
      "cityName": "Dizaj",
      "lat": 37.218,
      "lng": 46.1896
    },
    {
      "cityName": "Dizaj-e `Aliqoli Beyg",
      "lat": 37.522,
      "lng": 47.2022
    },
    {
      "cityName": "Dizaj-e Aqa HÌ§oseyn",
      "lat": 37.7715,
      "lng": 45.9517
    },
    {
      "cityName": "Dizaj-e Bala",
      "lat": 38.3996,
      "lng": 45.7794
    },
    {
      "cityName": "Dizaj-e Chalu",
      "lat": 38.4702,
      "lng": 47.1111
    },
    {
      "cityName": "Dizaj-e Hasan Beyg",
      "lat": 37.5317,
      "lng": 46.005
    },
    {
      "cityName": "Dizaj-e Hoseyn Beyg",
      "lat": 38.4669,
      "lng": 45.6176
    },
    {
      "cityName": "Dizaj-e Khalil",
      "lat": 38.152,
      "lng": 45.7268
    },
    {
      "cityName": "Dizaj-eLeylikhan",
      "lat": 37.9691,
      "lng": 46.4972
    },
    {
      "cityName": "Dizaj-e Navlu",
      "lat": 37.3428,
      "lng": 46.0864
    },
    {
      "cityName": "Dizaj-e Parvaneh",
      "lat": 37.3196,
      "lng": 46.1314
    },
    {
      "cityName": "Dizaj-e Qorban",
      "lat": 38.6651,
      "lng": 45.5586
    },
    {
      "cityName": "Dizaj-e Sefid",
      "lat": 38.0483,
      "lng": 47.5603
    },
    {
      "cityName": "Dizaj-e Shur",
      "lat": 38.0054,
      "lng": 47.2867
    },
    {
      "cityName": "Dizaj-e Talkhaj",
      "lat": 38.4238,
      "lng": 47.0644
    },
    {
      "cityName": "Dizaj Khalil",
      "lat": 38.1486,
      "lng": 45.7471
    },
    {
      "cityName": "Dizaj Mehr",
      "lat": 38.1745,
      "lng": 45.5007
    },
    {
      "cityName": "Dizbin",
      "lat": 38.4401,
      "lng": 47.0229
    },
    {
      "cityName": "Dizgavin",
      "lat": 37.4017,
      "lng": 47.8471
    },
    {
      "cityName": "Diznab",
      "lat": 37.8366,
      "lng": 46.7212
    },
    {
      "cityName": "Dodeh",
      "lat": 37.4234,
      "lng": 47.1658
    },
    {
      "cityName": "Dogar",
      "lat": 37.518056,
      "lng": 48.095278
    },
    {
      "cityName": "Dojenab",
      "lat": 39.0512,
      "lng": 46.9866
    },
    {
      "cityName": "Domriq",
      "lat": 38.7334,
      "lng": 47.0656
    },
    {
      "cityName": "Do Piehabad",
      "lat": 38.5078,
      "lng": 46.7732
    },
    {
      "cityName": "Doraj-e `Olya",
      "lat": 37.1921,
      "lng": 46.6826
    },
    {
      "cityName": "Dormishkanlu",
      "lat": 39.175,
      "lng": 47.1306
    },
    {
      "cityName": "Doshmanlu",
      "lat": 37.4254,
      "lng": 46.8677
    },
    {
      "cityName": "Dowgi Daraq",
      "lat": 39.0657,
      "lng": 47.0673
    },
    {
      "cityName": "Dowlatabad",
      "lat": 37.9673,
      "lng": 47.2545
    },
    {
      "cityName": "Dowlbeyn",
      "lat": 37.4783,
      "lng": 46.8811
    },
    {
      "cityName": "Dowshtur",
      "lat": 38.564,
      "lng": 47.4973
    },
    {
      "cityName": "Dughan",
      "lat": 38.4272,
      "lng": 47.2134
    },
    {
      "cityName": "Dul",
      "lat": 38.8498,
      "lng": 46.2941
    },
    {
      "cityName": "Dul Qeshlaqi",
      "lat": 37.5134,
      "lng": 48.0242
    },
    {
      "cityName": "Duniq",
      "lat": 37.8586,
      "lng": 47.5976
    },
    {
      "cityName": "Duran",
      "lat": 37.2838,
      "lng": 47.697
    },
    {
      "cityName": "Duriq",
      "lat": 38.5604,
      "lng": 46.6632
    },
    {
      "cityName": "Dushanlu",
      "lat": 38.3672,
      "lng": 47.4597
    },
    {
      "cityName": "Dushar",
      "lat": 37.5699,
      "lng": 46.6456
    },
    {
      "cityName": "Dush",
      "lat": 37.3882,
      "lng": 46.1372
    },
    {
      "cityName": "Dust`ali Beyglu",
      "lat": 38.5484,
      "lng": 47.5368
    },
    {
      "cityName": "Duzanan",
      "lat": 37.3438,
      "lng": 47.4995
    },
    {
      "cityName": "Duzaychi",
      "lat": 37.0067,
      "lng": 47.1566
    },
    {
      "cityName": "Duzduzan",
      "lat": 37.9497,
      "lng": 47.1199
    },
    {
      "cityName": "Dzhangur",
      "lat": 38.1499,
      "lng": 46.8998
    },
    {
      "cityName": "Dzheshun",
      "lat": 38.6201,
      "lng": 46.3773
    },
    {
      "cityName": "Dzhiga",
      "lat": 38.3159,
      "lng": 46.7587
    },
    {
      "cityName": "Dzhigana",
      "lat": 38.2694,
      "lng": 46.71
    },
    {
      "cityName": "Dzhodzhan",
      "lat": 38.6376,
      "lng": 46.8551
    },
    {
      "cityName": "Dzhulfi",
      "lat": 38.9404,
      "lng": 45.6308
    },
    {
      "cityName": "Ebrahim Beyglu",
      "lat": 38.9286,
      "lng": 46.7108
    },
    {
      "cityName": "Ebrahim Sami`",
      "lat": 38.9558,
      "lng": 46.6683
    },
    {
      "cityName": "Ebriq-e Jadid",
      "lat": 38.9913,
      "lng": 46.9004
    },
    {
      "cityName": "Ebriq-e Sofla",
      "lat": 38.9931,
      "lng": 46.8645
    },
    {
      "cityName": "Echan Yukari",
      "lat": 38.6599,
      "lng": 45.4543
    },
    {
      "cityName": "Ekis",
      "lat": 37.2484,
      "lng": 46.2087
    },
    {
      "cityName": "E'lbaghi",
      "lat": 38.061667,
      "lng": 47.165833
    },
    {
      "cityName": "Eleshtava",
      "lat": 37.3686,
      "lng": 48.0922
    },
    {
      "cityName": "Elma Darreh",
      "lat": 39.0822,
      "lng": 47.4168
    },
    {
      "cityName": "Elyurdi",
      "lat": 39.016667,
      "lng": 47.166667
    },
    {
      "cityName": "Emam Chay",
      "lat": 37.9476,
      "lng": 47.8514
    },
    {
      "cityName": "Emamiyeh",
      "lat": 37.675,
      "lng": 47.0904
    },
    {
      "cityName": "Eman Ab",
      "lat": 37.8894,
      "lng": 46.6808
    },
    {
      "cityName": "`Emarat",
      "lat": 39.0435,
      "lng": 46.9552
    },
    {
      "cityName": "Engija",
      "lat": 37.7581,
      "lng": 46.0087
    },
    {
      "cityName": "Erdaglyu",
      "lat": 38.4254,
      "lng": 45.8077
    },
    {
      "cityName": "Esfahaabad",
      "lat": 37.5317,
      "lng": 48.093
    },
    {
      "cityName": "Esfahl?n",
      "lat": 37.9928,
      "lng": 46.11
    },
    {
      "cityName": "Esfangareh",
      "lat": 37.8779,
      "lng": 46.6591
    },
    {
      "cityName": "Esfanj?n",
      "lat": 37.9031,
      "lng": 46.1744
    },
    {
      "cityName": "Esfehanjiq",
      "lat": 37.4165,
      "lng": 46.3656
    },
    {
      "cityName": "Esfestanaj",
      "lat": 37.4486,
      "lng": 46.2428
    },
    {
      "cityName": "Esha`i-ye Tazeh Kand",
      "lat": 37.4048,
      "lng": 47.7257
    },
    {
      "cityName": "Eshavand",
      "lat": 38.3727,
      "lng": 45.6126
    },
    {
      "cityName": "`Eshratabad",
      "lat": 37.3799,
      "lng": 46.2625
    },
    {
      "cityName": "Eskaloo",
      "lat": 38.8732,
      "lng": 46.8972
    },
    {
      "cityName": "Eskandar",
      "lat": 38.0207,
      "lng": 46.5763
    },
    {
      "cityName": "Eskand?n",
      "lat": 37.8678,
      "lng": 46.2152
    },
    {
      "cityName": "Eskanlu-ye Bala",
      "lat": 39.2181,
      "lng": 47.112
    },
    {
      "cityName": "Eskanlu-ye Pa'in",
      "lat": 39.2189,
      "lng": 47.0837
    },
    {
      "cityName": "Esma`ilabad",
      "lat": 37.8296,
      "lng": 47.0426
    },
    {
      "cityName": "Esma`il Kandi",
      "lat": 38.2206,
      "lng": 47.2998
    },
    {
      "cityName": "Esmishamr",
      "lat": 38.2674,
      "lng": 45.9067
    },
    {
      "cityName": "Espareh Khvan",
      "lat": 37.8313,
      "lng": 46.4023
    },
    {
      "cityName": "Estelu",
      "lat": 38.068889,
      "lng": 47.563056
    },
    {
      "cityName": "Estiaré Mavazé Khan",
      "lat": 38.253,
      "lng": 46.5372
    },
    {
      "cityName": "Evin",
      "lat": 38.9937,
      "lng": 47.3581
    },
    {
      "cityName": "Eydarshan",
      "lat": 37.794,
      "lng": 47.5752
    },
    {
      "cityName": "`Eydlu",
      "lat": 37.1232,
      "lng": 46.6527
    },
    {
      "cityName": "`Eynabad",
      "lat": 37.4902,
      "lng": 46.7156
    },
    {
      "cityName": "`Eyn ed Din",
      "lat": 37.7843,
      "lng": 46.9081
    },
    {
      "cityName": "Eyvaraq",
      "lat": 37.6531,
      "lng": 47.5825
    },
    {
      "cityName": "Falanpa",
      "lat": 38.316667,
      "lng": 47.466667
    },
    {
      "cityName": "Fandoqlu",
      "lat": 37.7634,
      "lng": 47.8373
    },
    {
      "cityName": "Farab-e `Olya",
      "lat": 37.4311,
      "lng": 48.1289
    },
    {
      "cityName": "Farab-e Sofla",
      "lat": 37.413056,
      "lng": 48.153333
    },
    {
      "cityName": "Farahiyeh",
      "lat": 37.4676,
      "lng": 47.7359
    },
    {
      "cityName": "Farfar",
      "lat": 38.4834,
      "lng": 45.6856
    },
    {
      "cityName": "Fargush",
      "lat": 37.9417,
      "lng": 47.6236
    },
    {
      "cityName": "Farhangian",
      "lat": 37.4972,
      "lng": 45.8789
    },
    {
      "cityName": "Farkharan",
      "lat": 38.5319,
      "lng": 46.4868
    },
    {
      "cityName": "Farrokh Bolagh",
      "lat": 38.0715,
      "lng": 47.7903
    },
    {
      "cityName": "Fassaghandis",
      "lat": 37.9143,
      "lng": 46.1401
    },
    {
      "cityName": "Fathabad",
      "lat": 36.9943,
      "lng": 46.2213
    },
    {
      "cityName": "Fath`ali-ye Soltanlu",
      "lat": 39.1433,
      "lng": 47.215
    },
    {
      "cityName": "Fathollah Bolaghi",
      "lat": 37.1416,
      "lng": 46.4997
    },
    {
      "cityName": "Ferhadlu",
      "lat": 39.137,
      "lng": 47.1511
    },
    {
      "cityName": "Fir Bulaq",
      "lat": 38.8604,
      "lng": 46.3436
    },
    {
      "cityName": "Firuz Salar",
      "lat": 37.7888,
      "lng": 45.9326
    },
    {
      "cityName": "Gachilik",
      "lat": 37.3488,
      "lng": 47.8314
    },
    {
      "cityName": "Gaftracheshma",
      "lat": 37.6351,
      "lng": 45.9597
    },
    {
      "cityName": "Gagdaraq",
      "lat": 37.5376,
      "lng": 47.2551
    },
    {
      "cityName": "Gahaq",
      "lat": 37.4821,
      "lng": 46.2237
    },
    {
      "cityName": "Gajin",
      "lat": 37.6913,
      "lng": 47.0695
    },
    {
      "cityName": "Galadjukh",
      "lat": 37.3647,
      "lng": 47.465
    },
    {
      "cityName": "Gala",
      "lat": 37.4262,
      "lng": 48.0673
    },
    {
      "cityName": "Galah Khaneh",
      "lat": 37.819,
      "lng": 46.6441
    },
    {
      "cityName": "Galaleh Sofla",
      "lat": 38.9422,
      "lng": 46.7427
    },
    {
      "cityName": "Galanbar",
      "lat": 38.4322,
      "lng": 46.6485
    },
    {
      "cityName": "Galangadar",
      "lat": 37.4136,
      "lng": 47.7554
    },
    {
      "cityName": "Galbus",
      "lat": 37.3696,
      "lng": 47.7086
    },
    {
      "cityName": "Galehban",
      "lat": 38.5245,
      "lng": 45.5394
    },
    {
      "cityName": "Gal",
      "lat": 38.6066,
      "lng": 46.4352
    },
    {
      "cityName": "Galikabad",
      "lat": 37.9329,
      "lng": 47.5167
    },
    {
      "cityName": "Galin Qaya",
      "lat": 38.676,
      "lng": 45.5933
    },
    {
      "cityName": "Galizeh",
      "lat": 38.5583,
      "lng": 47.3141
    },
    {
      "cityName": "Galulan",
      "lat": 36.2978,
      "lng": 45.9374
    },
    {
      "cityName": "Gamand",
      "lat": 38.1117,
      "lng": 46.4571
    },
    {
      "cityName": "Gamichi Deh",
      "lat": 37.7636,
      "lng": 45.5086
    },
    {
      "cityName": "Gamshabad",
      "lat": 38.3947,
      "lng": 46.8968
    },
    {
      "cityName": "Gandom Nan",
      "lat": 38.9592,
      "lng": 46.8706
    },
    {
      "cityName": "Gangadik",
      "lat": 37.673,
      "lng": 47.7143
    },
    {
      "cityName": "Gangalabad",
      "lat": 38.5552,
      "lng": 46.8052
    },
    {
      "cityName": "Ganjabad-e Bala",
      "lat": 37.4086,
      "lng": 46.7505
    },
    {
      "cityName": "Ganjabad-e Pa`in",
      "lat": 37.4131,
      "lng": 46.7653
    },
    {
      "cityName": "Ganjali",
      "lat": 37.1885,
      "lng": 46.5698
    },
    {
      "cityName": "Ganji",
      "lat": 37.18,
      "lng": 46.4357
    },
    {
      "cityName": "Ganjineh Ketab",
      "lat": 37.4667,
      "lng": 47.0739
    },
    {
      "cityName": "Ganjin",
      "lat": 37.3658,
      "lng": 48.1112
    },
    {
      "cityName": "Ganzerud",
      "lat": 38.9128,
      "lng": 46.6515
    },
    {
      "cityName": "Garavi",
      "lat": 36.4952,
      "lng": 45.8463
    },
    {
      "cityName": "Garavsheh",
      "lat": 38.855556,
      "lng": 47.168333
    },
    {
      "cityName": "Gargaj",
      "lat": 38.0364,
      "lng": 46.4316
    },
    {
      "cityName": "Gargar-e `Olya",
      "lat": 38.8164,
      "lng": 45.6718
    },
    {
      "cityName": "Gargar-e SoflaÍ",
      "lat": 38.8312,
      "lng": 45.6642
    },
    {
      "cityName": "Gargasheh",
      "lat": 38.339,
      "lng": 47.4074
    },
    {
      "cityName": "Garman Ab",
      "lat": 38.9389,
      "lng": 46.7989
    },
    {
      "cityName": "Garroos",
      "lat": 38.3073,
      "lng": 46.0321
    },
    {
      "cityName": "Garzalik",
      "lat": 38.9205,
      "lng": 47.3067
    },
    {
      "cityName": "Gavahan",
      "lat": 39.0386,
      "lng": 47.0129
    },
    {
      "cityName": "Gavaher",
      "lat": 37.7158,
      "lng": 46.0395
    },
    {
      "cityName": "Gavani",
      "lat": 37.5595,
      "lng": 48.0305
    },
    {
      "cityName": "Gavanlu",
      "lat": 37.4674,
      "lng": 47.4401
    },
    {
      "cityName": "Gavar",
      "lat": 38.066,
      "lng": 46.5208
    },
    {
      "cityName": "Gavashin",
      "lat": 38.0186,
      "lng": 47.5882
    },
    {
      "cityName": "Gav Cheshmeh",
      "lat": 38.189,
      "lng": 45.4661
    },
    {
      "cityName": "Gavdel",
      "lat": 38.6214,
      "lng": 47.0893
    },
    {
      "cityName": "Gav Dushabad",
      "lat": 37.8424,
      "lng": 47.4266
    },
    {
      "cityName": "Gaveh Now",
      "lat": 38.5084,
      "lng": 45.9333
    },
    {
      "cityName": "Gavgan",
      "lat": 37.7831,
      "lng": 45.904
    },
    {
      "cityName": "Gav",
      "lat": 37.2975,
      "lng": 48.249167
    },
    {
      "cityName": "Gavineh Rud",
      "lat": 37.567,
      "lng": 47.5484
    },
    {
      "cityName": "Gav Khalu",
      "lat": 39.1544,
      "lng": 47.3803
    },
    {
      "cityName": "Gavlan",
      "lat": 38.8154,
      "lng": 47.4936
    },
    {
      "cityName": "Gavliq",
      "lat": 37.5938,
      "lng": 47.6027
    },
    {
      "cityName": "Gavzalan",
      "lat": 38.932222,
      "lng": 47.2425
    },
    {
      "cityName": "Gazan Band",
      "lat": 38.5684,
      "lng": 46.5155
    },
    {
      "cityName": "Gazli",
      "lat": 39.1725,
      "lng": 47.4084
    },
    {
      "cityName": "Gechi Qeshlaqi",
      "lat": 39.3126,
      "lng": 47.4601
    },
    {
      "cityName": "Gelder",
      "lat": 38.2565,
      "lng": 46.9143
    },
    {
      "cityName": "Geleh Deh",
      "lat": 37.5323,
      "lng": 46.8564
    },
    {
      "cityName": "Geleh Deh Kuh",
      "lat": 37.5789,
      "lng": 47.0318
    },
    {
      "cityName": "Gelehin",
      "lat": 37.6464,
      "lng": 47.1177
    },
    {
      "cityName": "Gelusang",
      "lat": 38.8765,
      "lng": 46.9772
    },
    {
      "cityName": "Genanlu",
      "lat": 39.1048,
      "lng": 47.1411
    },
    {
      "cityName": "Gerami",
      "lat": 37.2279,
      "lng": 46.8214
    },
    {
      "cityName": "Gerdah Sang",
      "lat": 38.6224,
      "lng": 47.2254
    },
    {
      "cityName": "Gerd Alu",
      "lat": 37.1415,
      "lng": 46.9922
    },
    {
      "cityName": "Gerdeh Layan",
      "lat": 37.2664,
      "lng": 47.7787
    },
    {
      "cityName": "Gerdeh Zaylu",
      "lat": 39.0317,
      "lng": 47.1388
    },
    {
      "cityName": "Geydarabad",
      "lat": 38.2758,
      "lng": 45.4267
    },
    {
      "cityName": "Geyeshlu",
      "lat": 39.2095,
      "lng": 47.5168
    },
    {
      "cityName": "Gezafer",
      "lat": 38.4501,
      "lng": 45.4012
    },
    {
      "cityName": "Ghal'eh Cheh",
      "lat": 38.0164,
      "lng": 46.1265
    },
    {
      "cityName": "Ghal'eh Lar",
      "lat": 38.2173,
      "lng": 46.5411
    },
    {
      "cityName": "Ghallehzar",
      "lat": 37.759,
      "lng": 45.9426
    },
    {
      "cityName": "Gharajeh Ghiya",
      "lat": 37.4477,
      "lng": 47.4795
    },
    {
      "cityName": "Gharajeh Malek",
      "lat": 38.5917,
      "lng": 46.6239
    },
    {
      "cityName": "Gharajeh Mohammad",
      "lat": 38.4836,
      "lng": 45.5483
    },
    {
      "cityName": "Gharakh Bolagh",
      "lat": 38.4362,
      "lng": 46.9755
    },
    {
      "cityName": "Gharatlu",
      "lat": 37.4834,
      "lng": 46.4251
    },
    {
      "cityName": "Ghareh Aghaj",
      "lat": 38.3541,
      "lng": 45.9688
    },
    {
      "cityName": "Ghareh Ghooch",
      "lat": 39,
      "lng": 46.7286
    },
    {
      "cityName": "Ghareh Ghooch Manbashi",
      "lat": 39.0201,
      "lng": 46.7492
    },
    {
      "cityName": "Ghareh Gooni Badostan",
      "lat": 38.3218,
      "lng": 46.927
    },
    {
      "cityName": "Ghareh Toobragh",
      "lat": 38.9411,
      "lng": 46.8626
    },
    {
      "cityName": "Gharekanlu",
      "lat": 38.0591,
      "lng": 47.7856
    },
    {
      "cityName": "Gharib Dust",
      "lat": 37.6151,
      "lng": 47.3189
    },
    {
      "cityName": "Gharqeh",
      "lat": 37.7806,
      "lng": 47.3229
    },
    {
      "cityName": "Gharyacheh",
      "lat": 38.0347,
      "lng": 46.9415
    },
    {
      "cityName": "Ghazan Chay Kandi",
      "lat": 39.0682,
      "lng": 47.2036
    },
    {
      "cityName": "?ghcheh Kohel",
      "lat": 37.8082,
      "lng": 46.1259
    },
    {
      "cityName": "Ghezel Dizaj",
      "lat": 38.0742,
      "lng": 45.9926
    },
    {
      "cityName": "Gholamlu",
      "lat": 38.1733,
      "lng": 45.8343
    },
    {
      "cityName": "Ghom Tppaeh",
      "lat": 38.217,
      "lng": 46.0143
    },
    {
      "cityName": "Ghooijagh",
      "lat": 38.1085,
      "lng": 46.7064
    },
    {
      "cityName": "Gil'gilyan",
      "lat": 37.3684,
      "lng": 48.0575
    },
    {
      "cityName": "Gird",
      "lat": 38.7669,
      "lng": 46.9142
    },
    {
      "cityName": "Gishavan",
      "lat": 37.5761,
      "lng": 48.1001
    },
    {
      "cityName": "Givaj",
      "lat": 38.0678,
      "lng": 47.0895
    },
    {
      "cityName": "Gizmeh",
      "lat": 37.1941,
      "lng": 48.3357
    },
    {
      "cityName": "Godaklu",
      "lat": 37.0152,
      "lng": 46.1734
    },
    {
      "cityName": "Gogarchin",
      "lat": 37.9179,
      "lng": 46.8894
    },
    {
      "cityName": "Gojeh Ghomlagh",
      "lat": 37.4104,
      "lng": 46.9286
    },
    {
      "cityName": "Golabad",
      "lat": 38.2331,
      "lng": 45.8465
    },
    {
      "cityName": "Gol Akhar",
      "lat": 37.6755,
      "lng": 46.6736
    },
    {
      "cityName": "Golashlu",
      "lat": 38.8662,
      "lng": 46.857
    },
    {
      "cityName": "Gol `Azar",
      "lat": 38.4976,
      "lng": 45.733
    },
    {
      "cityName": "Gol Chavan",
      "lat": 37.5008,
      "lng": 46.4991
    },
    {
      "cityName": "Goldur",
      "lat": 38.7987,
      "lng": 46.9913
    },
    {
      "cityName": "Goleytar Bolaghi",
      "lat": 37.1064,
      "lng": 46.6696
    },
    {
      "cityName": "Gol Faraj",
      "lat": 38.8867,
      "lng": 45.4827
    },
    {
      "cityName": "Golgin",
      "lat": 38.9366,
      "lng": 46.9918
    },
    {
      "cityName": "Gol",
      "lat": 36.8933,
      "lng": 47.0565
    },
    {
      "cityName": "Goli Bolagh",
      "lat": 37.1983,
      "lng": 46.9858
    },
    {
      "cityName": "Goli Bolaghi",
      "lat": 37.3996,
      "lng": 46.9541
    },
    {
      "cityName": "Goli",
      "lat": 37.0123,
      "lng": 46.9005
    },
    {
      "cityName": "Golijeh",
      "lat": 37.4083,
      "lng": 47.9944
    },
    {
      "cityName": "Golijeh-ye Yeddeh Bolagh",
      "lat": 37.2483,
      "lng": 47.5924
    },
    {
      "cityName": "Goli Kand",
      "lat": 37.2722,
      "lng": 46.4853
    },
    {
      "cityName": "Golinaz",
      "lat": 36.4696,
      "lng": 45.8748
    },
    {
      "cityName": "Goli Quzi",
      "lat": 38.822778,
      "lng": 47.181389
    },
    {
      "cityName": "Goljar",
      "lat": 38.3615,
      "lng": 45.7101
    },
    {
      "cityName": "Goljeh",
      "lat": 38.5867,
      "lng": 46.8966
    },
    {
      "cityName": "Gol Lar",
      "lat": 38.2848,
      "lng": 45.9024
    },
    {
      "cityName": "Gollar",
      "lat": 38.6624,
      "lng": 47.4277
    },
    {
      "cityName": "Gollar Qarah Sufi",
      "lat": 37.0064,
      "lng": 46.9985
    },
    {
      "cityName": "Gollujeh",
      "lat": 38.0161,
      "lng": 47.3439
    },
    {
      "cityName": "Gol Mesha",
      "lat": 37.3811,
      "lng": 47.8599
    },
    {
      "cityName": "Gol Qasem",
      "lat": 37.7296,
      "lng": 46.8433
    },
    {
      "cityName": "Golshahr",
      "lat": 38.0348,
      "lng": 46.3697
    },
    {
      "cityName": "Golshanabad",
      "lat": 37.6362,
      "lng": 46.5616
    },
    {
      "cityName": "Gol Tappeh",
      "lat": 37.138,
      "lng": 46.7532
    },
    {
      "cityName": "Gol Tappeh Rud",
      "lat": 37.4246,
      "lng": 46.8282
    },
    {
      "cityName": "Goltappeh-ye Hasanabad",
      "lat": 37.2992,
      "lng": 47.9747
    },
    {
      "cityName": "Golujeh-ye Eslam",
      "lat": 37.4663,
      "lng": 47.551
    },
    {
      "cityName": "Golujeh-ye Hasan Beyg",
      "lat": 37.4517,
      "lng": 46.6025
    },
    {
      "cityName": "Golujeh-ye Mohammad Khan",
      "lat": 37.4895,
      "lng": 46.7362
    },
    {
      "cityName": "Golujeh-ye Molla Lar",
      "lat": 38.4289,
      "lng": 46.8132
    },
    {
      "cityName": "Golujeh-ye `Olya",
      "lat": 37.1219,
      "lng": 47.0954
    },
    {
      "cityName": "Golujeh-ye Pa'in",
      "lat": 37.1267,
      "lng": 47.1014
    },
    {
      "cityName": "Golujeh-ye Sa`id",
      "lat": 37.6852,
      "lng": 46.7729
    },
    {
      "cityName": "Golulan-e `Olya",
      "lat": 36.2702,
      "lng": 45.8974
    },
    {
      "cityName": "Goluran",
      "lat": 37.0948,
      "lng": 47.0187
    },
    {
      "cityName": "Gomeyn",
      "lat": 37.6736,
      "lng": 47.8406
    },
    {
      "cityName": "Gonbadan",
      "lat": 37.8965,
      "lng": 47.5935
    },
    {
      "cityName": "Gonbad",
      "lat": 37.5021,
      "lng": 46.0393
    },
    {
      "cityName": "Gonbaran",
      "lat": 38.8735,
      "lng": 47.4913
    },
    {
      "cityName": "Gonbarf",
      "lat": 37.7161,
      "lng": 46.2239
    },
    {
      "cityName": "Gonjik",
      "lat": 38.4551,
      "lng": 46.9259
    },
    {
      "cityName": "Goondooghdi",
      "lat": 37.4692,
      "lng": 47.8495
    },
    {
      "cityName": "Gorahsar-e `Olya",
      "lat": 37.0531,
      "lng": 47.3566
    },
    {
      "cityName": "Goravan",
      "lat": 38.2595,
      "lng": 47.1708
    },
    {
      "cityName": "Gorda Deh",
      "lat": 37.529,
      "lng": 47.3793
    },
    {
      "cityName": "Gor Gor",
      "lat": 37.5874,
      "lng": 46.6296
    },
    {
      "cityName": "Gorji",
      "lat": 38.4025,
      "lng": 47.0143
    },
    {
      "cityName": "Gorom Darreh",
      "lat": 38.9684,
      "lng": 47.3697
    },
    {
      "cityName": "Goshayesh",
      "lat": 37.2821,
      "lng": 46.7942
    },
    {
      "cityName": "Govarchin",
      "lat": 38.1565,
      "lng": 46.5168
    },
    {
      "cityName": "Govarchinlu",
      "lat": 37.4126,
      "lng": 46.8831
    },
    {
      "cityName": "Gowjeh Qal`eh-ye `Olya",
      "lat": 37.2175,
      "lng": 46.5396
    },
    {
      "cityName": "Gowjeh Qal`eh-ye Sofla",
      "lat": 37.2162,
      "lng": 46.5357
    },
    {
      "cityName": "Gowjeh Qamalaq",
      "lat": 37.1768,
      "lng": 46.4838
    },
    {
      "cityName": "Gowy Daraq-e Bala",
      "lat": 37.2695,
      "lng": 46.3145
    },
    {
      "cityName": "Gowy Daraq-e Pa'in",
      "lat": 37.2716,
      "lng": 46.3008
    },
    {
      "cityName": "Gu Aghaj",
      "lat": 39.1663,
      "lng": 47.1451
    },
    {
      "cityName": "Gu Ala",
      "lat": 37.2418,
      "lng": 47.2119
    },
    {
      "cityName": "Gubak Tappeh",
      "lat": 37.2714,
      "lng": 46.7725
    },
    {
      "cityName": "Gubetsi",
      "lat": 38.93,
      "lng": 47.112222
    },
    {
      "cityName": "Gugar Jinlu",
      "lat": 37.2317,
      "lng": 47.6914
    },
    {
      "cityName": "Gujavar",
      "lat": 38.0611,
      "lng": 46.1382
    },
    {
      "cityName": "Gunah Bakhan",
      "lat": 37.0575,
      "lng": 46.5294
    },
    {
      "cityName": "Gundughdi",
      "lat": 37.6186,
      "lng": 46.6241
    },
    {
      "cityName": "Guneh Qarshu",
      "lat": 37.0326,
      "lng": 47.1793
    },
    {
      "cityName": "Gun Gowrmez",
      "lat": 39.3217,
      "lng": 47.2379
    },
    {
      "cityName": "Guran",
      "lat": 38.3575,
      "lng": 47.3681
    },
    {
      "cityName": "Gureh Daraq",
      "lat": 38.3444,
      "lng": 46.8563
    },
    {
      "cityName": "Gurehti",
      "lat": 38.403889,
      "lng": 47.006389
    },
    {
      "cityName": "Gurja",
      "lat": 37.4108,
      "lng": 48.0915
    },
    {
      "cityName": "Gurka-Derre",
      "lat": 38.0665,
      "lng": 46.6929
    },
    {
      "cityName": "Gushegesh",
      "lat": 38.625,
      "lng": 46.8137
    },
    {
      "cityName": "Gusheh Daraq",
      "lat": 38.4704,
      "lng": 45.9582
    },
    {
      "cityName": "Guzan Qeshlaq",
      "lat": 37.2294,
      "lng": 46.1064
    },
    {
      "cityName": "Guzi `Ali",
      "lat": 39.283333,
      "lng": 47.166667
    },
    {
      "cityName": "Guzvan-e Kuchak",
      "lat": 38.3688,
      "lng": 47.3835
    },
    {
      "cityName": "Habash",
      "lat": 37.177222,
      "lng": 48.438889
    },
    {
      "cityName": "Habash Sarcheshmeh",
      "lat": 37.2205,
      "lng": 46.7773
    },
    {
      "cityName": "Hadi Shahr",
      "lat": 38.8479,
      "lng": 45.6623
    },
    {
      "cityName": "Hafdaran",
      "lat": 38.3667,
      "lng": 46.6479
    },
    {
      "cityName": "Hafez",
      "lat": 37.5723,
      "lng": 47.2242
    },
    {
      "cityName": "Haifona",
      "lat": 38.6608,
      "lng": 46.544
    },
    {
      "cityName": "Hajeq-e `Olya",
      "lat": 38.9196,
      "lng": 46.9044
    },
    {
      "cityName": "Hajeq-e Soflá",
      "lat": 38.928,
      "lng": 46.9177
    },
    {
      "cityName": "Haji Aqa",
      "lat": 37.841,
      "lng": 46.7849
    },
    {
      "cityName": "Haji Baqer Kandi",
      "lat": 37.1474,
      "lng": 46.5234
    },
    {
      "cityName": "Haji Mijan",
      "lat": 38.2304,
      "lng": 46.0957
    },
    {
      "cityName": "Haji Mir",
      "lat": 37.2872,
      "lng": 48.1079
    },
    {
      "cityName": "Hajj `Abdal",
      "lat": 37.9827,
      "lng": 46.4568
    },
    {
      "cityName": "Hajjiabad",
      "lat": 38.14,
      "lng": 47.4313
    },
    {
      "cityName": "Hajji `Ali Beyg Kandi",
      "lat": 38.6472,
      "lng": 46.9952
    },
    {
      "cityName": "Hajji `Ali",
      "lat": 39.1815,
      "lng": 47.39
    },
    {
      "cityName": "Hajji Hemmatlu",
      "lat": 37.6687,
      "lng": 47.7832
    },
    {
      "cityName": "Hajji Kandi",
      "lat": 37.2464,
      "lng": 46.4158
    },
    {
      "cityName": "Hajji Kandi Rud",
      "lat": 37.4074,
      "lng": 46.8961
    },
    {
      "cityName": "Hajji Kandi-ye `Olya",
      "lat": 37.0577,
      "lng": 47.0481
    },
    {
      "cityName": "Hajji Kandi-ye Sofla",
      "lat": 37.0546,
      "lng": 47.0535
    },
    {
      "cityName": "Hajji Kord",
      "lat": 37.3909,
      "lng": 46.1879
    },
    {
      "cityName": "Hajji Mosayyeb",
      "lat": 37.2299,
      "lng": 46.0008
    },
    {
      "cityName": "Haju",
      "lat": 38.533,
      "lng": 47.4101
    },
    {
      "cityName": "Halagh",
      "lat": 38.7841,
      "lng": 45.9172
    },
    {
      "cityName": "Halak Beyglu",
      "lat": 39.352,
      "lng": 47.295
    },
    {
      "cityName": "Halan",
      "lat": 38.4586,
      "lng": 46.8056
    },
    {
      "cityName": "Hallaj-e `Olya",
      "lat": 37.1698,
      "lng": 47.584
    },
    {
      "cityName": "Hallaj-e Sofla",
      "lat": 37.1519,
      "lng": 47.6079
    },
    {
      "cityName": "Hamadan",
      "lat": 39.1338,
      "lng": 46.9818
    },
    {
      "cityName": "Hamamlu",
      "lat": 38.4841,
      "lng": 46.5325
    },
    {
      "cityName": "Hamdamlu",
      "lat": 39.1803,
      "lng": 47.0441
    },
    {
      "cityName": "Hammam",
      "lat": 36.9042,
      "lng": 47.04
    },
    {
      "cityName": "Hamneshin",
      "lat": 39.0354,
      "lng": 46.9449
    },
    {
      "cityName": "Hampa",
      "lat": 37.5566,
      "lng": 47.8253
    },
    {
      "cityName": "Hamzehabad",
      "lat": 36.4516,
      "lng": 45.9185
    },
    {
      "cityName": "Hanabad-e `Olya",
      "lat": 38.7003,
      "lng": 47.2166
    },
    {
      "cityName": "Hanabad-e Sofla",
      "lat": 38.6956,
      "lng": 47.2387
    },
    {
      "cityName": "Hapibolaghi",
      "lat": 37.1467,
      "lng": 46.3401
    },
    {
      "cityName": "Harab",
      "lat": 37.8106,
      "lng": 46.588
    },
    {
      "cityName": "Harasban",
      "lat": 38.8963,
      "lng": 47.5062
    },
    {
      "cityName": "Hardabulaq",
      "lat": 37.4276,
      "lng": 48.0541
    },
    {
      "cityName": "Hargalan",
      "lat": 37.641,
      "lng": 46.2226
    },
    {
      "cityName": "Haris",
      "lat": 38.2472,
      "lng": 47.1163
    },
    {
      "cityName": "Harna",
      "lat": 39.1123,
      "lng": 47.4322
    },
    {
      "cityName": "Harvan",
      "lat": 37.8661,
      "lng": 47.6203
    },
    {
      "cityName": "Harzand Atigh",
      "lat": 38.7048,
      "lng": 45.7011
    },
    {
      "cityName": "Harzehvarz",
      "lat": 38.2073,
      "lng": 47.1641
    },
    {
      "cityName": "Hasanabad-e Leylan",
      "lat": 37.0091,
      "lng": 46.2354
    },
    {
      "cityName": "Hasan`ali Kadkhodalu",
      "lat": 39.234,
      "lng": 47.2098
    },
    {
      "cityName": "Hasan Beyglu",
      "lat": 38.8284,
      "lng": 46.6896
    },
    {
      "cityName": "Hasanjan",
      "lat": 37.8634,
      "lng": 47.6664
    },
    {
      "cityName": "Hasanjankuh",
      "lat": 38.0501,
      "lng": 47.6318
    },
    {
      "cityName": "Hasan Kandi",
      "lat": 37.4246,
      "lng": 47.23
    },
    {
      "cityName": "Hasan Kandi Kuh",
      "lat": 37.5346,
      "lng": 46.648
    },
    {
      "cityName": "Hasan Khan Baghi",
      "lat": 37.5779,
      "lng": 48.014
    },
    {
      "cityName": "Hasan Kohal",
      "lat": 37.6931,
      "lng": 46.7149
    },
    {
      "cityName": "Hasanlu",
      "lat": 39.2907,
      "lng": 47.1877
    },
    {
      "cityName": "Hasan Qeshlaqi-ye Kangarlu",
      "lat": 39.2769,
      "lng": 47.3309
    },
    {
      "cityName": "Hasan Qeshlaqi-ye Moqaddam",
      "lat": 39.316,
      "lng": 47.3289
    },
    {
      "cityName": "Hasratan",
      "lat": 39.275556,
      "lng": 47.155
    },
    {
      "cityName": "Hatam",
      "lat": 37.2835,
      "lng": 46.7593
    },
    {
      "cityName": "Hava",
      "lat": 38.9124,
      "lng": 47.4522
    },
    {
      "cityName": "Hava'i Daraq",
      "lat": 38.9765,
      "lng": 47.3492
    },
    {
      "cityName": "Havistin",
      "lat": 38.7286,
      "lng": 45.9316
    },
    {
      "cityName": "Hejran Dust",
      "lat": 38.8785,
      "lng": 46.9571
    },
    {
      "cityName": "Helan",
      "lat": 37.8479,
      "lng": 46.8049
    },
    {
      "cityName": "Helemsi",
      "lat": 37.671,
      "lng": 47.5175
    },
    {
      "cityName": "Hendelan",
      "lat": 37.6356,
      "lng": 47.7994
    },
    {
      "cityName": "Henreh Jan",
      "lat": 38.6283,
      "lng": 46.5045
    },
    {
      "cityName": "Heraq",
      "lat": 37.3578,
      "lng": 46.3357
    },
    {
      "cityName": "Heravan",
      "lat": 37.4433,
      "lng": 45.8894
    },
    {
      "cityName": "Heravi",
      "lat": 37.9231,
      "lng": 46.4778
    },