{
  "name": "Tipperary",
  "cities": [
    {
      "cityName": "Aglish",
      "lat": 53.0386111,
      "lng": -8.0863889
    },
    {
      "cityName": "Ahenny",
      "lat": 52.4152778,
      "lng": -7.3972222
    },
    {
      "cityName": "Ahgmore Bridge",
      "lat": 52.8475,
      "lng": -7.9552778
    },
    {
      "cityName": "Almaseed Bridge",
      "lat": 52.2938889,
      "lng": -8.1663889
    },
    {
      "cityName": "An Baile Beag",
      "lat": 52.6394444,
      "lng": -7.7380556
    },
    {
      "cityName": "An Bháinseach",
      "lat": 52.4480556,
      "lng": -8.0625
    },
    {
      "cityName": "Án Chathair",
      "lat": 52.3769444,
      "lng": -7.9216667
    },
    {
      "cityName": "An Cheapach",
      "lat": 52.5819444,
      "lng": -8.1636111
    },
    {
      "cityName": "An Cloichín",
      "lat": 52.2758333,
      "lng": -7.9922222
    },
    {
      "cityName": "An Gabhailín",
      "lat": 52.4977778,
      "lng": -7.9802778
    },
    {
      "cityName": "Anghvaneen",
      "lat": 52.4519444,
      "lng": -7.4613889
    },
    {
      "cityName": "Anglesey Road",
      "lat": 52.6938889,
      "lng": -8.0313889
    },
    {
      "cityName": "Anglesry Bridge",
      "lat": 52.6794444,
      "lng": -8.1625
    },
    {
      "cityName": "Annaboty",
      "lat": 52.7375,
      "lng": -8.4575
    },
    {
      "cityName": "Annacarty",
      "lat": 52.5644444,
      "lng": -8.1102778
    },
    {
      "cityName": "An Port Nua",
      "lat": 52.7111111,
      "lng": -8.4097222
    },
    {
      "cityName": "An Port Rua",
      "lat": 52.8825,
      "lng": -8.3502778
    },
    {
      "cityName": "An tAonach",
      "lat": 52.8619444,
      "lng": -8.1966667
    },
    {
      "cityName": "An Teampall Mór",
      "lat": 52.7947222,
      "lng": -7.8338889
    },
    {
      "cityName": "Ara Bridge",
      "lat": 52.4391667,
      "lng": -8.0366667
    },
    {
      "cityName": "Ardcrony",
      "lat": 52.9322222,
      "lng": -8.1572222
    },
    {
      "cityName": "Ard Fhíonáin",
      "lat": 52.3116667,
      "lng": -7.875
    },
    {
      "cityName": "Arragh More",
      "lat": 53.0558333,
      "lng": -8.0305556
    },
    {
      "cityName": "Ashhill",
      "lat": 52.5977778,
      "lng": -7.7972222
    },
    {
      "cityName": "Athnid",
      "lat": 52.7244444,
      "lng": -7.7672222
    },
    {
      "cityName": "Aughnagawer Cross Roads",
      "lat": 52.4655556,
      "lng": -8.0619444
    },
    {
      "cityName": "Baile an Gharraí",
      "lat": 52.5872222,
      "lng": -7.54
    },
    {
      "cityName": "Ballagh",
      "lat": 52.5894444,
      "lng": -7.9863889
    },
    {
      "cityName": "Ballina",
      "lat": 52.8077778,
      "lng": -8.4355556
    },
    {
      "cityName": "Ballinard Cross",
      "lat": 52.4905556,
      "lng": -8.2686111
    },
    {
      "cityName": "Ballincurry",
      "lat": 52.5847222,
      "lng": -7.6036111
    },
    {
      "cityName": "Ballinderry",
      "lat": 53.0205556,
      "lng": -8.2219444
    },
    {
      "cityName": "Ballingarry Bridge",
      "lat": 52.5933333,
      "lng": -7.5625
    },
    {
      "cityName": "Ballinunty",
      "lat": 52.5902778,
      "lng": -7.665
    },
    {
      "cityName": "Ballinure",
      "lat": 52.5630556,
      "lng": -7.7688889
    },
    {
      "cityName": "Ballyartello Bridge",
      "lat": 52.9011111,
      "lng": -8.2361111
    },
    {
      "cityName": "Ballycahall",
      "lat": 52.8275,
      "lng": -7.8177778
    },
    {
      "cityName": "Ballycahill",
      "lat": 52.6894444,
      "lng": -7.9047222
    },
    {
      "cityName": "Ballyclerahan",
      "lat": 52.4147222,
      "lng": -7.7702778
    },
    {
      "cityName": "Ballydine",
      "lat": 52.3666667,
      "lng": -7.5094444
    },
    {
      "cityName": "Ballyfowloo",
      "lat": 52.5033333,
      "lng": -7.8383333
    },
    {
      "cityName": "Ballygodboy",
      "lat": 52.5033333,
      "lng": -8.2372222
    },
    {
      "cityName": "Ballygriffen",
      "lat": 52.5144444,
      "lng": -7.9877778
    },
    {
      "cityName": "Ballyhane Bridge",
      "lat": 52.5688889,
      "lng": -8.2080556
    },
    {
      "cityName": "Ballyheny",
      "lat": 52.9008333,
      "lng": -7.8175
    },
    {
      "cityName": "Ballylaine Cross Roads",
      "lat": 52.7605556,
      "lng": -8.0980556
    },
    {
      "cityName": "Ballylooby",
      "lat": 52.3269444,
      "lng": -7.9788889
    },
    {
      "cityName": "Ballylusky",
      "lat": 52.8255556,
      "lng": -8.2897222
    },
    {
      "cityName": "Ballymackey",
      "lat": 52.8780556,
      "lng": -8.0863889
    },
    {
      "cityName": "Ballynaclogh",
      "lat": 52.8272222,
      "lng": -8.1611111
    },
    {
      "cityName": "Ballynamrossagh",
      "lat": 52.4344444,
      "lng": -8.2555556
    },
    {
      "cityName": "Ballyneety",
      "lat": 52.3188889,
      "lng": -7.8541667
    },
    {
      "cityName": "Ballyneil",
      "lat": 52.3733333,
      "lng": -7.4894444
    },
    {
      "cityName": "Ballyoughter Bridge",
      "lat": 52.6591667,
      "lng": -7.9408333
    },
    {
      "cityName": "Ballypatrick",
      "lat": 52.3936111,
      "lng": -7.5458333
    },
    {
      "cityName": "Ballyporeen",
      "lat": 52.2691667,
      "lng": -8.1002778
    },
    {
      "cityName": "Ballysheeda",
      "lat": 52.5755556,
      "lng": -8.1066667
    },
    {
      "cityName": "Ballysloe",
      "lat": 52.6380556,
      "lng": -7.6061111
    },
    {
      "cityName": "Ballytarsna",
      "lat": 52.5763889,
      "lng": -7.8258333
    },
    {
      "cityName": "Ballyvaughan",
      "lat": 52.3863889,
      "lng": -7.6633333
    },
    {
      "cityName": "Ballyveera",
      "lat": 52.2891667,
      "lng": -7.8527778
    },
    {
      "cityName": "Ballywalter",
      "lat": 52.4847222,
      "lng": -7.5563889
    },
    {
      "cityName": "Bananalleen",
      "lat": 52.5333333,
      "lng": -8.1952778
    },
    {
      "cityName": "Barna Cross",
      "lat": 52.7841667,
      "lng": -7.8736111
    },
    {
      "cityName": "Barnalisheen",
      "lat": 52.7633333,
      "lng": -7.7294444
    },
    {
      "cityName": "Barraden",
      "lat": 52.5963889,
      "lng": -8.0922222
    },
    {
      "cityName": "Barrettstown",
      "lat": 52.4605556,
      "lng": -7.7313889
    },
    {
      "cityName": "Bawn",
      "lat": 52.8294444,
      "lng": -8.2152778
    },
    {
      "cityName": "Bawndunhill",
      "lat": 52.4341667,
      "lng": -7.5291667
    },
    {
      "cityName": "Beakstown",
      "lat": 52.6563889,
      "lng": -7.8766667
    },
    {
      "cityName": "Béal Átha Gabhann",
      "lat": 52.7902778,
      "lng": -8.2341667
    },
    {
      "cityName": "Bennett's Bridge",
      "lat": 52.7766667,
      "lng": -8.1327778
    },
    {
      "cityName": "Birdhill",
      "lat": 52.7655556,
      "lng": -8.4358333
    },
    {
      "cityName": "Black Bridge",
      "lat": 52.5538889,
      "lng": -8.0211111
    },
    {
      "cityName": "Boolabeha Bridge",
      "lat": 52.7091667,
      "lng": -7.7175
    },
    {
      "cityName": "Boolakennedy",
      "lat": 52.335,
      "lng": -8.0819444
    },
    {
      "cityName": "Borrisokane",
      "lat": 52.9952778,
      "lng": -8.1280556
    },
    {
      "cityName": "Borrisoleigh",
      "lat": 52.7522222,
      "lng": -7.9530556
    },
    {
      "cityName": "Bouladuff",
      "lat": 52.7166667,
      "lng": -7.9066667
    },
    {
      "cityName": "Bourney",
      "lat": 52.9,
      "lng": -7.8166667
    },
    {
      "cityName": "Brindleys Bridge",
      "lat": 52.7888889,
      "lng": -8.1841667
    },
    {
      "cityName": "Brookville",
      "lat": 52.4502778,
      "lng": -8.1819444
    },
    {
      "cityName": "Brownstown Cross Roads",
      "lat": 52.7327778,
      "lng": -7.7866667
    },
    {
      "cityName": "Bullylusky Cross Roads",
      "lat": 52.5344444,
      "lng": -7.6208333
    },
    {
      "cityName": "Burged Bridge",
      "lat": 52.3169444,
      "lng": -7.9666667
    },
    {
      "cityName": "Burncourt",
      "lat": 52.3105556,
      "lng": -8.0763889
    },
    {
      "cityName": "Bushfield",
      "lat": 52.7991667,
      "lng": -8.3586111
    },
    {
      "cityName": "Cahernahallia",
      "lat": 52.5916667,
      "lng": -8.2152778
    },
    {
      "cityName": "Caiseal",
      "lat": 52.5158333,
      "lng": -7.8855556
    },
    {
      "cityName": "Cameron",
      "lat": 52.9616667,
      "lng": -8.2733333
    },
    {
      "cityName": "Camus Bridge",
      "lat": 52.5402778,
      "lng": -7.9319444
    },
    {
      "cityName": "Cappagh",
      "lat": 52.5855556,
      "lng": -7.4733333
    },
    {
      "cityName": "Cappanarragh",
      "lat": 52.5716667,
      "lng": -7.9977778
    },
    {
      "cityName": "Capparoe",
      "lat": 52.8202778,
      "lng": -8.255
    },
    {
      "cityName": "Carney",
      "lat": 52.9761111,
      "lng": -8.1816667
    },
    {
      "cityName": "Carraig na Siúire",
      "lat": 52.3491667,
      "lng": -7.4130556
    },
    {
      "cityName": "Carrickbeg",
      "lat": 52.3430556,
      "lng": -7.4163889
    },
    {
      "cityName": "Carrickloughmore Cross Roads",
      "lat": 52.7558333,
      "lng": -7.8427778
    },
    {
      "cityName": "Carrigahorig",
      "lat": 53.0625,
      "lng": -8.1438889
    },
    {
      "cityName": "Carrigatogher",
      "lat": 52.8355556,
      "lng": -8.2780556
    },
    {
      "cityName": "Carrig",
      "lat": 53.0602778,
      "lng": -7.9719444
    },
    {
      "cityName": "Carrigmore Cross Roads",
      "lat": 52.2825,
      "lng": -8.0511111
    },
    {
      "cityName": "Carrow",
      "lat": 52.5905556,
      "lng": -8.0533333
    },
    {
      "cityName": "Carrow Cross",
      "lat": 52.8216667,
      "lng": -8.2508333
    },
    {
      "cityName": "Castletown",
      "lat": 52.8766667,
      "lng": -8.3816667
    },
    {
      "cityName": "Cauteen Bridge",
      "lat": 52.5433333,
      "lng": -8.1822222
    },
    {
      "cityName": "Cill Náile",
      "lat": 52.5683333,
      "lng": -7.6713889
    },
    {
      "cityName": "Clare Bridge",
      "lat": 52.6911111,
      "lng": -8.3827778
    },
    {
      "cityName": "Clashganny",
      "lat": 52.2569444,
      "lng": -7.8069444
    },
    {
      "cityName": "Cloch Shiurdáin",
      "lat": 52.9402778,
      "lng": -8.0355556
    },
    {
      "cityName": "Clocully",
      "lat": 52.2916667,
      "lng": -7.8483333
    },
    {
      "cityName": "Clohernagh",
      "lat": 52.4113889,
      "lng": -8.0611111
    },
    {
      "cityName": "Clonakenny",
      "lat": 52.8747222,
      "lng": -7.8325
    },
    {
      "cityName": "Cloncannon",
      "lat": 52.8580556,
      "lng": -7.9583333
    },
    {
      "cityName": "Clon",
      "lat": 52.7008333,
      "lng": -7.9338889
    },
    {
      "cityName": "Clone Bridge",
      "lat": 52.5997222,
      "lng": -8.0036111
    },
    {
      "cityName": "Cloneen",
      "lat": 52.4755556,
      "lng": -7.5958333
    },
    {
      "cityName": "Clonmel",
      "lat": 52.355,
      "lng": -7.7038889
    },
    {
      "cityName": "Clonmore",
      "lat": 52.8277778,
      "lng": -7.7647222
    },
    {
      "cityName": "Clonoulty",
      "lat": 52.6019444,
      "lng": -7.9602778
    },
    {
      "cityName": "Clonpet",
      "lat": 52.4594444,
      "lng": -8.1877778
    },
    {
      "cityName": "Cloonyross Cross Roads",
      "lat": 52.64,
      "lng": -7.9683333
    },
    {
      "cityName": "Coalbrook",
      "lat": 52.6136111,
      "lng": -7.5827778
    },
    {
      "cityName": "Commons",
      "lat": 52.6275,
      "lng": -7.5413889
    },
    {
      "cityName": "Coolagarranoe Bridge",
      "lat": 52.3063889,
      "lng": -8.1022222
    },
    {
      "cityName": "Coolbaun",
      "lat": 52.9811111,
      "lng": -8.2491667
    },
    {
      "cityName": "Cool Bridge",
      "lat": 52.7747222,
      "lng": -8.4294444
    },
    {
      "cityName": "Cooleenduff Bridge",
      "lat": 52.6980556,
      "lng": -8.0144444
    },
    {
      "cityName": "Cooleeny",
      "lat": 52.7338889,
      "lng": -7.6852778
    },
    {
      "cityName": "Coolkill",
      "lat": 52.67,
      "lng": -7.9280556
    },
    {
      "cityName": "Coolross",
      "lat": 53.1347222,
      "lng": -8.0355556
    },
    {
      "cityName": "Cragg",
      "lat": 52.7355556,
      "lng": -8.4408333
    },
    {
      "cityName": "Cregg Bridge",
      "lat": 52.3733333,
      "lng": -7.3913889
    },
    {
      "cityName": "Cregg",
      "lat": 52.3708333,
      "lng": -7.3972222
    },
    {
      "cityName": "Croan",
      "lat": 52.4525,
      "lng": -7.4311111
    },
    {
      "cityName": "Cullahill",
      "lat": 52.8722222,
      "lng": -7.7302778
    },
    {
      "cityName": "Cullen",
      "lat": 52.5119444,
      "lng": -8.2702778
    },
    {
      "cityName": "Cunningham's Cross Roads",
      "lat": 52.5083333,
      "lng": -8.1525
    },
    {
      "cityName": "Currabaha Cross",
      "lat": 52.7725,
      "lng": -8.0247222
    },
    {
      "cityName": "Curraghmore Bridge",
      "lat": 52.3333333,
      "lng": -8.0083333
    },
    {
      "cityName": "Curraleigh",
      "lat": 52.26,
      "lng": -8.1508333
    },
    {
      "cityName": "Curreeny Cross",
      "lat": 52.7336111,
      "lng": -8.1433333
    },
    {
      "cityName": "Curreeny",
      "lat": 52.7277778,
      "lng": -8.1502778
    },
    {
      "cityName": "Derrymore Bridge",
      "lat": 52.6411111,
      "lng": -7.9263889
    },
    {
      "cityName": "Donaskeagh",
      "lat": 52.5219444,
      "lng": -8.0813889
    },
    {
      "cityName": "Donohill",
      "lat": 52.5408333,
      "lng": -8.1466667
    },
    {
      "cityName": "Dovea",
      "lat": 52.7188889,
      "lng": -7.8563889
    },
    {
      "cityName": "Drangan",
      "lat": 52.5161111,
      "lng": -7.5880556
    },
    {
      "cityName": "Drish Bridge",
      "lat": 52.6769444,
      "lng": -7.7788889
    },
    {
      "cityName": "Drom",
      "lat": 52.7688889,
      "lng": -7.8930556
    },
    {
      "cityName": "Dromineer",
      "lat": 52.9230556,
      "lng": -8.2766667
    },
    {
      "cityName": "Drumbane",
      "lat": 52.6538889,
      "lng": -7.9697222
    },
    {
      "cityName": "Drumminnagleagh Bridge",
      "lat": 52.6897222,
      "lng": -7.9322222
    },
    {
      "cityName": "Dublin",
      "lat": 52.5744444,
      "lng": -7.5502778
    },
    {
      "cityName": "Dundrum",
      "lat": 52.5605556,
      "lng": -8.0422222
    },
    {
      "cityName": "Durlas",
      "lat": 52.6819444,
      "lng": -7.8022222
    },
    {
      "cityName": "Emly",
      "lat": 52.4638889,
      "lng": -8.3491667
    },
    {
      "cityName": "Faheen Cross Roads",
      "lat": 52.5516667,
      "lng": -7.9702778
    },
    {
      "cityName": "Fethard",
      "lat": 52.4672222,
      "lng": -7.6911111
    },
    {
      "cityName": "Figlash",
      "lat": 52.3744444,
      "lng": -7.4491667
    },
    {
      "cityName": "Finnahy",
      "lat": 52.7119444,
      "lng": -7.9805556
    },
    {
      "cityName": "Firville",
      "lat": 53.0708333,
      "lng": -8.0788889
    },
    {
      "cityName": "Flemingtown",
      "lat": 52.2716667,
      "lng": -8.0297222
    },
    {
      "cityName": "Galbertstown",
      "lat": 52.6258333,
      "lng": -7.8519444
    },
    {
      "cityName": "Garigue",
      "lat": 53.1166667,
      "lng": -8
    },
    {
      "cityName": "Garnavilla",
      "lat": 52.3444444,
      "lng": -7.8927778
    },
    {
      "cityName": "Garrane",
      "lat": 52.5377778,
      "lng": -7.9913889
    },
    {
      "cityName": "Garranmore",
      "lat": 52.6283333,
      "lng": -7.9486111
    },
    {
      "cityName": "Garrykennedy",
      "lat": 52.9027778,
      "lng": -8.3461111
    },
    {
      "cityName": "Garrymore Bridge",
      "lat": 52.2925,
      "lng": -8.0216667
    },
    {
      "cityName": "Garrymore Cross Roads",
      "lat": 52.2969444,
      "lng": -7.9958333
    },
    {
      "cityName": "Garrynafana",
      "lat": 52.8608333,
      "lng": -8.0616667
    },
    {
      "cityName": "Garryntemple",
      "lat": 52.3558333,
      "lng": -7.8125
    },
    {
      "cityName": "Glashanailor Bridge",
      "lat": 52.5872222,
      "lng": -8.1875
    },
    {
      "cityName": "Glenahilty",
      "lat": 52.9030556,
      "lng": -8.0647222
    },
    {
      "cityName": "Glenbane",
      "lat": 52.4797222,
      "lng": -8.3097222
    },
    {
      "cityName": "Glenbreedy",
      "lat": 52.7858333,
      "lng": -8.0222222
    },
    {
      "cityName": "Glengarra Bridge",
      "lat": 52.3211111,
      "lng": -8.0991667
    },
    {
      "cityName": "Glennaskagh",
      "lat": 52.4497222,
      "lng": -7.5377778
    },
    {
      "cityName": "Glenough Lower",
      "lat": 52.6216667,
      "lng": -8.0577778
    },
    {
      "cityName": "Glenough Upper",
      "lat": 52.6383333,
      "lng": -8.0675
    },
    {
      "cityName": "Goats Bridge",
      "lat": 52.2761111,
      "lng": -7.8719444
    },
    {
      "cityName": "Goatstown",
      "lat": 53.0022222,
      "lng": -8.1466667
    },
    {
      "cityName": "Goldings Cross",
      "lat": 52.7861111,
      "lng": -7.9136111
    },
    {
      "cityName": "Goolds Cross",
      "lat": 52.59,
      "lng": -7.9544444
    },
    {
      "cityName": "Gortacullin",
      "lat": 52.2747222,
      "lng": -7.9158333
    },
    {
      "cityName": "Gortalough",
      "lat": 52.7691667,
      "lng": -7.9588889
    },
    {
      "cityName": "Gortnagowna",
      "lat": 52.7491667,
      "lng": -8.08
    },
    {
      "cityName": "Gortnagowth",
      "lat": 52.6444444,
      "lng": -7.8666667
    },
    {
      "cityName": "Gortnahoo",
      "lat": 52.6766667,
      "lng": -7.5991667
    },
    {
      "cityName": "Gourdeen Bridge",
      "lat": 52.8675,
      "lng": -8.1675
    },
    {
      "cityName": "Graffin",
      "lat": 52.8419444,
      "lng": -7.7761111
    },
    {
      "cityName": "Graigue",
      "lat": 52.2741667,
      "lng": -7.9386111
    },
    {
      "cityName": "Graiguepadeen",
      "lat": 52.6980556,
      "lng": -7.6252778
    },
    {
      "cityName": "Granavone",
      "lat": 52.7438889,
      "lng": -8.0388889
    },
    {
      "cityName": "Grange Cross Roads",
      "lat": 52.3283333,
      "lng": -7.825
    },
    {
      "cityName": "Grange",
      "lat": 52.5252778,
      "lng": -8.1352778
    },
    {
      "cityName": "Grangemockler",
      "lat": 52.4563889,
      "lng": -7.4941667
    },
    {
      "cityName": "Graystown",
      "lat": 52.5611111,
      "lng": -7.7069444
    },
    {
      "cityName": "Hackstown Bridge",
      "lat": 52.8969444,
      "lng": -8.1325
    },
    {
      "cityName": "Hawarden Bridge",
      "lat": 52.5561111,
      "lng": -8.1155556
    },
    {
      "cityName": "Helen Park",
      "lat": 52.5697222,
      "lng": -7.7019444
    },
    {
      "cityName": "High Street",
      "lat": 53.0333333,
      "lng": -8.0666667
    },
    {
      "cityName": "Hollyford",
      "lat": 52.6322222,
      "lng": -8.1086111
    },
    {
      "cityName": "Holycross",
      "lat": 52.6397222,
      "lng": -7.8630556
    },
    {
      "cityName": "Horse and Jockey",
      "lat": 52.6163889,
      "lng": -7.7752778
    },
    {
      "cityName": "Hunts Grove",
      "lat": 52.7583333,
      "lng": -8.0780556
    },
    {
      "cityName": "Hyinenstown",
      "lat": 52.4472222,
      "lng": -7.9455556
    },
    {
      "cityName": "Inch",
      "lat": 52.6880556,
      "lng": -8.0963889
    },
    {
      "cityName": "Islands Bridge",
      "lat": 52.5483333,
      "lng": -7.5116667
    },
    {
      "cityName": "Kilbragh",
      "lat": 52.485,
      "lng": -7.8147222
    },
    {
      "cityName": "Kilbreedy",
      "lat": 52.5561111,
      "lng": -7.9283333
    },
    {
      "cityName": "Kilcash",
      "lat": 52.4075,
      "lng": -7.5363889
    },
    {
      "cityName": "Kilcommon",
      "lat": 52.6938889,
      "lng": -8.1438889
    },
    {
      "cityName": "Kilfithmone Cross Roads",
      "lat": 52.7638889,
      "lng": -7.9302778
    },
    {
      "cityName": "Kilkeary Cross Roads",
      "lat": 52.8341667,
      "lng": -8.125
    },
    {
      "cityName": "Killanigan",
      "lat": 52.7688889,
      "lng": -7.7686111
    },
    {
      "cityName": "Killea",
      "lat": 52.8236111,
      "lng": -7.8697222
    },
    {
      "cityName": "Killeenasteerna",
      "lat": 52.4705556,
      "lng": -7.9361111
    },
    {
      "cityName": "Killenoher",
      "lat": 52.7883333,
      "lng": -7.6902778
    },
    {
      "cityName": "Killoscully",
      "lat": 52.7672222,
      "lng": -8.3458333
    },
    {
      "cityName": "Killough",
      "lat": 52.8586111,
      "lng": -7.8291667
    },
    {
      "cityName": "Killurney",
      "lat": 52.4,
      "lng": -7.6
    },
    {
      "cityName": "Killycross",
      "lat": 53.1330556,
      "lng": -8.1486111
    },
    {
      "cityName": "Kilmaneen",
      "lat": 52.285,
      "lng": -7.8452778
    },
    {
      "cityName": "Kilmastulla Bridge",
      "lat": 52.7772222,
      "lng": -8.4041667
    },
    {
      "cityName": "Kilmoyler Cross Roads",
      "lat": 52.4097222,
      "lng": -7.9697222
    },
    {
      "cityName": "Kilriffen",
      "lat": 52.8216667,
      "lng": -8.1933333
    },
    {
      "cityName": "Kilsallagh",
      "lat": 52.5002778,
      "lng": -7.8116667
    },
    {
      "cityName": "Knockacolla",
      "lat": 52.4033333,
      "lng": -7.9377778
    },
    {
      "cityName": "Knockardan Cross Roads",
      "lat": 52.4508333,
      "lng": -8.2494444
    },
    {
      "cityName": "Knockballiniry",
      "lat": 52.2705556,
      "lng": -7.8830556
    },
    {
      "cityName": "Knock Cross Roads",
      "lat": 52.8927778,
      "lng": -8.0788889
    },
    {
      "cityName": "Knockgaffon",
      "lat": 52.4219444,
      "lng": -7.9386111
    },
    {
      "cityName": "Knock",
      "lat": 52.9202778,
      "lng": -7.6844444
    },
    {
      "cityName": "Knocklofty Bridge",
      "lat": 52.3377778,
      "lng": -7.7888889
    },
    {
      "cityName": "Knocknageragh Bridge",
      "lat": 52.8036111,
      "lng": -7.8041667
    },
    {
      "cityName": "Kylatlea",
      "lat": 52.4666667,
      "lng": -7.5138889
    },
    {
      "cityName": "Labbadiha Bridge",
      "lat": 52.8019444,
      "lng": -8.4022222
    },
    {
      "cityName": "Laffansbridge",
      "lat": 52.5752778,
      "lng": -7.7202778
    },
    {
      "cityName": "Lagganstown",
      "lat": 52.4580556,
      "lng": -7.97
    },
    {
      "cityName": "Laght Cross Roads",
      "lat": 52.3211111,
      "lng": -7.9919444
    },
    {
      "cityName": "Lahagh",
      "lat": 52.8108333,
      "lng": -7.7558333
    },
    {
      "cityName": "Lake Village",
      "lat": 53.0827778,
      "lng": -8.0922222
    },
    {
      "cityName": "Lattin",
      "lat": 52.4669444,
      "lng": -8.2752778
    },
    {
      "cityName": "Lelagh",
      "lat": 53.1041667,
      "lng": -8.0233333
    },
    {
      "cityName": "Leugh",
      "lat": 52.6166667,
      "lng": -8.1833333
    },
    {
      "cityName": "Limerick Junction",
      "lat": 52.4994444,
      "lng": -8.2
    },
    {
      "cityName": "Lisduff Bridge",
      "lat": 52.6905556,
      "lng": -7.5363889
    },
    {
      "cityName": "Lisheen Cross Roads",
      "lat": 52.7611111,
      "lng": -7.7308333
    },
    {
      "cityName": "Lisronagh",
      "lat": 52.4180556,
      "lng": -7.7038889
    },
    {
      "cityName": "Lissatunny",
      "lat": 52.8466667,
      "lng": -8.1758333
    },
    {
      "cityName": "Loch Ceann",
      "lat": 52.44,
      "lng": -7.8825
    },
    {
      "cityName": "Longfordpass Bridge",
      "lat": 52.6966667,
      "lng": -7.6308333
    },
    {
      "cityName": "Longfordpass North",
      "lat": 52.7080556,
      "lng": -7.6647222
    },
    {
      "cityName": "Lorrha",
      "lat": 53.0905556,
      "lng": -8.1211111
    },
    {
      "cityName": "Losset",
      "lat": 52.6388889,
      "lng": -8.1377778
    },
    {
      "cityName": "Loughcapple Bridge",
      "lat": 52.4308333,
      "lng": -7.6488889
    },
    {
      "cityName": "Loughmoe",
      "lat": 52.7555556,
      "lng": -7.8266667
    },
    {
      "cityName": "Loughtally",
      "lat": 52.3530556,
      "lng": -7.7833333
    },
    {
      "cityName": "Luska",
      "lat": 52.9533333,
      "lng": -8.2658333
    },
    {
      "cityName": "Manseltown",
      "lat": 52.7025,
      "lng": -7.7155556
    },
    {
      "cityName": "Mardyke",
      "lat": 52.5841667,
      "lng": -7.6380556
    },
    {
      "cityName": "Markhamstown",
      "lat": 52.3513889,
      "lng": -7.8330556
    },
    {
      "cityName": "Martfield",
      "lat": 52.3477778,
      "lng": -7.7488889
    },
    {
      "cityName": "Mary Villa",
      "lat": 52.8341667,
      "lng": -8.4383333
    },
    {
      "cityName": "Maudemount Cross Roads",
      "lat": 52.5597222,
      "lng": -8.0769444
    },
    {
      "cityName": "Melbourne Bridge",
      "lat": 52.4680556,
      "lng": -7.6083333
    },
    {
      "cityName": "Middlequarter",
      "lat": 52.2419444,
      "lng": -7.8169444
    },
    {
      "cityName": "Milestone",
      "lat": 52.6752778,
      "lng": -8.0869444
    },
    {
      "cityName": "Moanmore",
      "lat": 52.5313889,
      "lng": -8.2136111
    },
    {
      "cityName": "Moanvaun",
      "lat": 52.5888889,
      "lng": -8.1536111
    },
    {
      "cityName": "Moat Ville",
      "lat": 53.0527778,
      "lng": -8.0488889
    },
    {
      "cityName": "Mocklershill",
      "lat": 52.5113889,
      "lng": -7.8108333
    },
    {
      "cityName": "Modreeny",
      "lat": 52.9547222,
      "lng": -8.0580556
    },
    {
      "cityName": "Mogh",
      "lat": 52.5225,
      "lng": -8.0244444
    },
    {
      "cityName": "Monard",
      "lat": 52.5125,
      "lng": -8.2111111
    },
    {
      "cityName": "Monroe Bridge",
      "lat": 52.7144444,
      "lng": -7.9244444
    },
    {
      "cityName": "Morpeth Bridge",
      "lat": 52.5272222,
      "lng": -8.0880556
    },
    {
      "cityName": "Mortlestown",
      "lat": 52.4041667,
      "lng": -7.8655556
    },
    {
      "cityName": "Mount William",
      "lat": 52.5097222,
      "lng": -8.0777778
    },
    {
      "cityName": "Moyne",
      "lat": 52.7322222,
      "lng": -7.7127778
    },
    {
      "cityName": "Muileann na hUamhan",
      "lat": 52.51,
      "lng": -7.5041667
    },
    {
      "cityName": "Mulgrave Bridge",
      "lat": 52.6591667,
      "lng": -7.9527778
    },
    {
      "cityName": "Mullenaranky",
      "lat": 52.3952778,
      "lng": -7.6466667
    },
    {
      "cityName": "Mullennaglogh",
      "lat": 52.4469444,
      "lng": -7.4677778
    },
    {
      "cityName": "Mullinoly",
      "lat": 52.5005556,
      "lng": -7.5030556
    },
    {
      "cityName": "Nanny's Cross Roads",
      "lat": 52.6522222,
      "lng": -8.185
    },
    {
      "cityName": "Neddans House",
      "lat": 52.3022222,
      "lng": -7.8572222
    },
    {
      "cityName": "Nenagh Bridge",
      "lat": 52.8816667,
      "lng": -8.1958333
    },
    {
      "cityName": "New Birmingham",
      "lat": 52.6158333,
      "lng": -7.6402778
    },
    {
      "cityName": "New Bridge",
      "lat": 53.1302778,
      "lng": -7.975
    },
    {
      "cityName": "Newcastle",
      "lat": 52.2727778,
      "lng": -7.8111111
    },
    {
      "cityName": "Newchapel",
      "lat": 52.9847222,
      "lng": -8.2247222
    },
    {
      "cityName": "New Grove",
      "lat": 52.9061111,
      "lng": -7.8713889
    },
    {
      "cityName": "Newtown Lower",
      "lat": 52.3916667,
      "lng": -7.4158333
    },
    {
      "cityName": "Newtown",
      "lat": 52.3991667,
      "lng": -7.3966667
    },
    {
      "cityName": "Ninemilehouse",
      "lat": 52.4647222,
      "lng": -7.4602778
    },
    {
      "cityName": "Nore Bridge",
      "lat": 52.9191667,
      "lng": -7.7472222
    },
    {
      "cityName": "Orkneys Cross Roads",
      "lat": 52.8597222,
      "lng": -7.8497222
    },
    {
      "cityName": "Penane Bridge",
      "lat": 52.7741667,
      "lng": -7.815
    },
    {
      "cityName": "Pike",
      "lat": 53.1041667,
      "lng": -8.0494444
    },
    {
      "cityName": "Pope's Bridge",
      "lat": 52.545,
      "lng": -8.2111111
    },
    {
      "cityName": "Portland",
      "lat": 53.0905556,
      "lng": -8.1827778
    },
    {
      "cityName": "Poulacapple",
      "lat": 52.5016667,
      "lng": -7.4408333
    },
    {
      "cityName": "Poulakerry",
      "lat": 52.8286111,
      "lng": -8.0230556
    },
    {
      "cityName": "Poulnamucky",
      "lat": 52.4011111,
      "lng": -7.8194444
    },
    {
      "cityName": "Puckaun",
      "lat": 52.9288889,
      "lng": -8.2375
    },
    {
      "cityName": "Quinlisk's Cross",
      "lat": 52.8733333,
      "lng": -7.8069444
    },
    {
      "cityName": "Racecourse Cross",
      "lat": 52.4769444,
      "lng": -7.8911111
    },
    {
      "cityName": "Rapia Cross Roads",
      "lat": 52.8869444,
      "lng": -8.1591667
    },
    {
      "cityName": "Rathbeg Bridge",
      "lat": 52.685,
      "lng": -7.5916667
    },
    {
      "cityName": "Rathcabban",
      "lat": 53.1161111,
      "lng": -8.0269444
    },
    {
      "cityName": "Rathclarish",
      "lat": 52.4127778,
      "lng": -7.4333333
    },
    {
      "cityName": "Rathclogh",
      "lat": 52.5397222,
      "lng": -7.8133333
    },
    {
      "cityName": "Rathkennan Bridge",
      "lat": 52.6286111,
      "lng": -7.9241667
    },
    {
      "cityName": "Rathmore",
      "lat": 52.3791667,
      "lng": -7.8586111
    },
    {
      "cityName": "Rear Cross",
      "lat": 52.6863889,
      "lng": -8.2358333
    },
    {
      "cityName": "Redwood",
      "lat": 53.1225,
      "lng": -8.1080556
    },
    {
      "cityName": "Renaghmore",
      "lat": 52.65,
      "lng": -7.5366667
    },
    {
      "cityName": "Riverstown",
      "lat": 53.0805556,
      "lng": -7.9258333
    },
    {
      "cityName": "Riverview",
      "lat": 52.9069444,
      "lng": -8.245
    },
    {
      "cityName": "Rochestown",
      "lat": 52.3333333,
      "lng": -7.8886111
    },
    {
      "cityName": "Rodus Bridge",
      "lat": 52.4827778,
      "lng": -8.3397222
    },
    {
      "cityName": "Roscrea",
      "lat": 52.9511111,
      "lng": -7.8016667
    },
    {
      "cityName": "Rosmult",
      "lat": 52.6819444,
      "lng": -7.9558333
    },
    {
      "cityName": "Rossaguile Bridge",
      "lat": 52.7333333,
      "lng": -8.3494444
    },
    {
      "cityName": "Rossestown Bridge",
      "lat": 52.7138889,
      "lng": -7.8013889
    },
    {
      "cityName": "Rossestown",
      "lat": 52.7097222,
      "lng": -7.7886111
    },
    {
      "cityName": "Rossmore Bridge",
      "lat": 52.6119444,
      "lng": -8.0083333
    },
    {
      "cityName": "Saint David's",
      "lat": 52.9327778,
      "lng": -8.2819444
    },
    {
      "cityName": "Saint Kieran's",
      "lat": 53.1108333,
      "lng": -8.0644444
    },
    {
      "cityName": "Saucestown Bridge",
      "lat": 52.4788889,
      "lng": -7.6763889
    },
    {
      "cityName": "Scarrough Bridge",
      "lat": 52.5872222,
      "lng": -8.0886111
    },
    {
      "cityName": "Scogh",
      "lat": 52.3988889,
      "lng": -7.3847222
    },
    {
      "cityName": "Sedboro",
      "lat": 52.9136111,
      "lng": -8.3061111
    },
    {
      "cityName": "Shallee Cross Roads",
      "lat": 52.7941667,
      "lng": -8.2902778
    },
    {
      "cityName": "Sheskin",
      "lat": 52.6822222,
      "lng": -7.8522222
    },
    {
      "cityName": "Shronell",
      "lat": 52.4722222,
      "lng": -8.2347222
    },
    {
      "cityName": "Stagdale Bridge",
      "lat": 52.4105556,
      "lng": -8.2294444
    },
    {
      "cityName": "Strogue Cross",
      "lat": 52.795,
      "lng": -7.7730556
    },
    {
      "cityName": "Tannersrath",
      "lat": 52.3780556,
      "lng": -7.6880556
    },
    {
      "cityName": "Tar Bridge",
      "lat": 52.2777778,
      "lng": -7.8341667
    },
    {
      "cityName": "Teampall Tuaithe",
      "lat": 52.7872222,
      "lng": -7.7197222
    },
    {
      "cityName": "Templederry",
      "lat": 52.7752778,
      "lng": -8.0616667
    },
    {
      "cityName": "Terryglass",
      "lat": 53.0502778,
      "lng": -8.1988889
    },
    {
      "cityName": "The Fourteen Roads",
      "lat": 52.8858333,
      "lng": -7.8777778
    },
    {
      "cityName": "The Pike",
      "lat": 53.0030556,
      "lng": -8.0077778
    },
    {
      "cityName": "The Rag",
      "lat": 52.7166667,
      "lng": -7.9166667
    },
    {
      "cityName": "Thomastown Castle",
      "lat": 52.4941667,
      "lng": -8.0244444
    },
    {
      "cityName": "Tiobraid Árann",
      "lat": 52.4733333,
      "lng": -8.1558333
    },
    {
      "cityName": "Toem",
      "lat": 52.5766667,
      "lng": -8.1961111
    },
    {
      "cityName": "Toomyvara",
      "lat": 52.8497222,
      "lng": -8.0322222
    },
    {
      "cityName": "Tooreenbrien Bridge",
      "lat": 52.6925,
      "lng": -8.2736111
    },
    {
      "cityName": "Tranagh",
      "lat": 52.6947222,
      "lng": -7.6025
    },
    {
      "cityName": "Tullowmacjames",
      "lat": 52.7958333,
      "lng": -7.7113889
    },
    {
      "cityName": "Turnpike",
      "lat": 52.6697222,
      "lng": -7.6836111
    },
    {
      "cityName": "Twoford Bridges",
      "lat": 52.6144444,
      "lng": -7.8930556
    },
    {
      "cityName": "Twomileborris",
      "lat": 52.6716667,
      "lng": -7.72
    },
    {
      "cityName": "Twomilebridge",
      "lat": 52.3622222,
      "lng": -7.6441667
    },
    {
      "cityName": "Upperchurch",
      "lat": 52.7033333,
      "lng": -8.0175
    },
    {
      "cityName": "Victoria Bridge",
      "lat": 52.5863889,
      "lng": -8.0147222
    },
    {
      "cityName": "Whiteland Cross Roads",
      "lat": 52.4172222,
      "lng": -7.8588889
    },
    {
      "cityName": "Youghal",
      "lat": 52.8886111,
      "lng": -8.3075
    }
  ]
}