{
  "name": "Cherkas'ka Oblast'",
  "cities": [
    {
      "cityName": "Adamivka",
      "lat": 49.15,
      "lng": 32.683333
    },
    {
      "cityName": "Aleksandrivka",
      "lat": 49.3,
      "lng": 29.983333
    },
    {
      "cityName": "Antonina",
      "lat": 49.05,
      "lng": 29.8
    },
    {
      "cityName": "Antonovka",
      "lat": 49.383333,
      "lng": 30.266667
    },
    {
      "cityName": "Babanka",
      "lat": 48.703611,
      "lng": 30.451111
    },
    {
      "cityName": "Babany",
      "lat": 48.85,
      "lng": 30.35
    },
    {
      "cityName": "Bachkurin",
      "lat": 48.95,
      "lng": 29.866667
    },
    {
      "cityName": "Bagava",
      "lat": 49.25,
      "lng": 30.216667
    },
    {
      "cityName": "Balandino",
      "lat": 48.933333,
      "lng": 31.983333
    },
    {
      "cityName": "Bashtechki",
      "lat": 49.25,
      "lng": 30.333333
    },
    {
      "cityName": "Baybuzy",
      "lat": 49.483333,
      "lng": 31.683333
    },
    {
      "cityName": "Baykovshchina",
      "lat": 49.9,
      "lng": 32.25
    },
    {
      "cityName": "Belashki",
      "lat": 48.85,
      "lng": 30.65
    },
    {
      "cityName": "Beloserje",
      "lat": 49.483333,
      "lng": 31.616667
    },
    {
      "cityName": "Belousovka",
      "lat": 49.95,
      "lng": 32.383333
    },
    {
      "cityName": "Belozerye",
      "lat": 49.316667,
      "lng": 31.916667
    },
    {
      "cityName": "Bereznyaki",
      "lat": 49.133333,
      "lng": 31.966667
    },
    {
      "cityName": "Besedka",
      "lat": 49.316667,
      "lng": 30.283333
    },
    {
      "cityName": "Bezpalche",
      "lat": 49.95,
      "lng": 31.933333
    },
    {
      "cityName": "Birlova Sloboda",
      "lat": 50.083333,
      "lng": 32.066667
    },
    {
      "cityName": "Bogachëvka",
      "lat": 49.05,
      "lng": 31.1
    },
    {
      "cityName": "Bogatyrka",
      "lat": 49.45,
      "lng": 30.133333
    },
    {
      "cityName": "Bogdany",
      "lat": 49.933333,
      "lng": 31.883333
    },
    {
      "cityName": "Bogodarovka",
      "lat": 50.133333,
      "lng": 32.05
    },
    {
      "cityName": "Bogodukhovka",
      "lat": 49.75,
      "lng": 32.366667
    },
    {
      "cityName": "Bogushkova",
      "lat": 49.55,
      "lng": 32.1
    },
    {
      "cityName": "Bolshiye Kanevtsy",
      "lat": 49.6,
      "lng": 32.35
    },
    {
      "cityName": "Bolshoy Rzhavets",
      "lat": 49.65,
      "lng": 31.35
    },
    {
      "cityName": "Borovitsa",
      "lat": 49.216667,
      "lng": 32.516667
    },
    {
      "cityName": "Bosivka",
      "lat": 48.933333,
      "lng": 29.983333
    },
    {
      "cityName": "Boyarka",
      "lat": 49.333333,
      "lng": 30.666667
    },
    {
      "cityName": "Brilëvka",
      "lat": 49.383333,
      "lng": 30.333333
    },
    {
      "cityName": "Brodetskoye",
      "lat": 48.866667,
      "lng": 31
    },
    {
      "cityName": "Brovakhi",
      "lat": 49.516667,
      "lng": 31.333333
    },
    {
      "cityName": "Bubnivska Slobidka",
      "lat": 49.7,
      "lng": 31.716667
    },
    {
      "cityName": "BudaOrlovets",
      "lat": 49.3,
      "lng": 31.65
    },
    {
      "cityName": "Budenivka",
      "lat": 49.283333,
      "lng": 29.866667
    },
    {
      "cityName": "Budinintsy",
      "lat": 49.116667,
      "lng": 29.75
    },
    {
      "cityName": "Budishche",
      "lat": 49.183333,
      "lng": 31.033333
    },
    {
      "cityName": "Buki",
      "lat": 49.083333,
      "lng": 30.416667
    },
    {
      "cityName": "Burty",
      "lat": 49.116667,
      "lng": 31.45
    },
    {
      "cityName": "Buzhanka",
      "lat": 49.25,
      "lng": 30.733333
    },
    {
      "cityName": "Buzovka",
      "lat": 49.116667,
      "lng": 30.083333
    },
    {
      "cityName": "Chapayevka",
      "lat": 49.383333,
      "lng": 30.466667
    },
    {
      "cityName": "Chekhivka",
      "lat": 49.516667,
      "lng": 32.2
    },
    {
      "cityName": "Cherepin",
      "lat": 49.4,
      "lng": 31.4
    },
    {
      "cityName": "Cherkassi",
      "lat": 49.433333,
      "lng": 32.066667
    },
    {
      "cityName": "Chërnaya Kamenka",
      "lat": 49.033333,
      "lng": 30.516667
    },
    {
      "cityName": "Chernobay",
      "lat": 49.666667,
      "lng": 32.333333
    },
    {
      "cityName": "Chernovody",
      "lat": 48.583333,
      "lng": 30.116667
    },
    {
      "cityName": "Chernyavka",
      "lat": 49.25,
      "lng": 32.283333
    },
    {
      "cityName": "Chertoriya",
      "lat": 48.95,
      "lng": 29.583333
    },
    {
      "cityName": "Chervona Sloboda",
      "lat": 49.366667,
      "lng": 32.183333
    },
    {
      "cityName": "Chigirin",
      "lat": 49.066667,
      "lng": 32.666667
    },
    {
      "cityName": "Chizhovka",
      "lat": 49.133333,
      "lng": 30.683333
    },
    {
      "cityName": "Christinowka",
      "lat": 48.833333,
      "lng": 29.966667
    },
    {
      "cityName": "Dakhnovka",
      "lat": 49.483333,
      "lng": 31.966667
    },
    {
      "cityName": "Danilovka",
      "lat": 49.35,
      "lng": 32.066667
    },
    {
      "cityName": "Demki",
      "lat": 50.083333,
      "lng": 31.933333
    },
    {
      "cityName": "Dengi",
      "lat": 49.6,
      "lng": 32.15
    },
    {
      "cityName": "Derden",
      "lat": 49.25,
      "lng": 31.45
    },
    {
      "cityName": "Dmitroskoye",
      "lat": 48.798611,
      "lng": 30.284722
    },
    {
      "cityName": "Dmitrovka",
      "lat": 49.666667,
      "lng": 31.866667
    },
    {
      "cityName": "Dobra",
      "lat": 48.95,
      "lng": 30.133333
    },
    {
      "cityName": "Dobrovody",
      "lat": 48.766667,
      "lng": 30.383333
    },
    {
      "cityName": "Domantova",
      "lat": 49.633333,
      "lng": 31.833333
    },
    {
      "cityName": "Drabiv",
      "lat": 49.966667,
      "lng": 32.133333
    },
    {
      "cityName": "Drabovka",
      "lat": 49.45,
      "lng": 31.45
    },
    {
      "cityName": "Dubiyëvka",
      "lat": 49.35,
      "lng": 31.933333
    },
    {
      "cityName": "Dubova",
      "lat": 48.633333,
      "lng": 30.45
    },
    {
      "cityName": "Dubovka",
      "lat": 49.416667,
      "lng": 30.483333
    },
    {
      "cityName": "Dubrovka",
      "lat": 49.166667,
      "lng": 30.783333
    },
    {
      "cityName": "Dudnitskoye",
      "lat": 49.533333,
      "lng": 31.75
    },
    {
      "cityName": "Dumantsi",
      "lat": 49.283333,
      "lng": 32.233333
    },
    {
      "cityName": "Dych",
      "lat": 48.633333,
      "lng": 29.916667
    },
    {
      "cityName": "Dzengelovka",
      "lat": 48.959444,
      "lng": 30.258889
    },
    {
      "cityName": "Dzhurzhentsy",
      "lat": 49.316667,
      "lng": 30.866667
    },
    {
      "cityName": "Ekaterinople",
      "lat": 48.938333,
      "lng": 30.979722
    },
    {
      "cityName": "Fedyukovka",
      "lat": 49.35,
      "lng": 30.466667
    },
    {
      "cityName": "Galyaki",
      "lat": 49.55,
      "lng": 31.216667
    },
    {
      "cityName": "Gaysikha",
      "lat": 49.366667,
      "lng": 30.283333
    },
    {
      "cityName": "Gerezhanovka",
      "lat": 48.733333,
      "lng": 30.333333
    },
    {
      "cityName": "Gladkovshchina",
      "lat": 49.766667,
      "lng": 31.733333
    },
    {
      "cityName": "Glinka",
      "lat": 49.216667,
      "lng": 30.283333
    },
    {
      "cityName": "Gordashevka",
      "lat": 48.916667,
      "lng": 30.65
    },
    {
      "cityName": "Gorobiyevka",
      "lat": 49.583333,
      "lng": 31.383333
    },
    {
      "cityName": "Gorodishche",
      "lat": 49.283333,
      "lng": 31.45
    },
    {
      "cityName": "Goroshkiv",
      "lat": 49.25,
      "lng": 29.9
    },
    {
      "cityName": "Grodzevo",
      "lat": 48.716667,
      "lng": 30.333333
    },
    {
      "cityName": "Gromy",
      "lat": 48.666389,
      "lng": 30.185
    },
    {
      "cityName": "Grushevka",
      "lat": 48.933333,
      "lng": 31.133333
    },
    {
      "cityName": "Grushkovka",
      "lat": 49.083333,
      "lng": 32.2
    },
    {
      "cityName": "Gulyaypole",
      "lat": 48.866667,
      "lng": 30.966667
    },
    {
      "cityName": "Guta",
      "lat": 49.316667,
      "lng": 31.116667
    },
    {
      "cityName": "Imeni Stalina",
      "lat": 48.733333,
      "lng": 31.333333
    },
    {
      "cityName": "Irdyn",
      "lat": 49.383333,
      "lng": 31.733333
    },
    {
      "cityName": "Irkleyev",
      "lat": 49.533333,
      "lng": 32.333333
    },
    {
      "cityName": "Ivakhny",
      "lat": 49.1,
      "lng": 29.85
    },
    {
      "cityName": "Ivangorod",
      "lat": 48.8,
      "lng": 29.783333
    },
    {
      "cityName": "Ivanki",
      "lat": 48.990278,
      "lng": 30.453889
    },
    {
      "cityName": "Kaleniki",
      "lat": 49.866667,
      "lng": 31.85
    },
    {
      "cityName": "Kamenka",
      "lat": 49.033333,
      "lng": 32.1
    },
    {
      "cityName": "Kamennyy Brod",
      "lat": 49.266667,
      "lng": 30.683333
    },
    {
      "cityName": "Kandybovka",
      "lat": 49.866667,
      "lng": 32.416667
    },
    {
      "cityName": "Kantakuzovka",
      "lat": 50.083333,
      "lng": 32.133333
    },
    {
      "cityName": "Kapustino",
      "lat": 48.95,
      "lng": 31.233333
    },
    {
      "cityName": "Karun Sheychenkovskaya",
      "lat": 49.433333,
      "lng": 31.25
    },
    {
      "cityName": "Kavunovka",
      "lat": 48.85,
      "lng": 31.566667
    },
    {
      "cityName": "Kazatskoye",
      "lat": 49.116667,
      "lng": 31.15
    },
    {
      "cityName": "Keleberda",
      "lat": 49.733333,
      "lng": 31.6
    },
    {
      "cityName": "Khersonka",
      "lat": 49.033333,
      "lng": 32.583333
    },
    {
      "cityName": "Kheylovo",
      "lat": 48.983333,
      "lng": 29.916667
    },
    {
      "cityName": "Khirovka",
      "lat": 49.4,
      "lng": 31.05
    },
    {
      "cityName": "Khizhintsy",
      "lat": 49.333333,
      "lng": 30.833333
    },
    {
      "cityName": "Khizhna",
      "lat": 49.116667,
      "lng": 30.283333
    },
    {
      "cityName": "Khmelnaya",
      "lat": 49.666667,
      "lng": 31.483333
    },
    {
      "cityName": "Kholoidovo",
      "lat": 48.933333,
      "lng": 29.75
    },
    {
      "cityName": "Khreshchatik",
      "lat": 49.633333,
      "lng": 31.616667
    },
    {
      "cityName": "Khudyaki",
      "lat": 49.316667,
      "lng": 32.3
    },
    {
      "cityName": "Khutor Kovray",
      "lat": 49.483333,
      "lng": 32.416667
    },
    {
      "cityName": "Khutor NovoShramkovka",
      "lat": 50.15,
      "lng": 32.1
    },
    {
      "cityName": "Khutor Ridenka",
      "lat": 49.216667,
      "lng": 29.883333
    },
    {
      "cityName": "Khutor Shramkovka",
      "lat": 50.133333,
      "lng": 32.133333
    },
    {
      "cityName": "Kichintsy",
      "lat": 49.5,
      "lng": 31.266667
    },
    {
      "cityName": "Kirillovka",
      "lat": 49.183333,
      "lng": 31.1
    },
    {
      "cityName": "Kiselëvka",
      "lat": 48.916667,
      "lng": 31.216667
    },
    {
      "cityName": "Kishchentsy",
      "lat": 49.033333,
      "lng": 30.266667
    },
    {
      "cityName": "Kislin",
      "lat": 49.116667,
      "lng": 30.4
    },
    {
      "cityName": "Kleshchintsy",
      "lat": 49.45,
      "lng": 32.583333
    },
    {
      "cityName": "Knyazhaya Krinitsa",
      "lat": 49.1,
      "lng": 29.75
    },
    {
      "cityName": "Knyazhiki",
      "lat": 49.066667,
      "lng": 29.983333
    },
    {
      "cityName": "Knyazhye",
      "lat": 49.066667,
      "lng": 31.216667
    },
    {
      "cityName": "Kocherzhintsy",
      "lat": 48.7,
      "lng": 30.133333
    },
    {
      "cityName": "Kolomiytsy",
      "lat": 50.066667,
      "lng": 32.166667
    },
    {
      "cityName": "Komarovka",
      "lat": 48.733333,
      "lng": 29.85
    },
    {
      "cityName": "Konela",
      "lat": 49.066667,
      "lng": 30.1
    },
    {
      "cityName": "Konello Tsibermanovka",
      "lat": 48.966667,
      "lng": 30.05
    },
    {
      "cityName": "Kopiyevata",
      "lat": 48.983333,
      "lng": 29.983333
    },
    {
      "cityName": "Korobovka",
      "lat": 49.616667,
      "lng": 31.95
    },
    {
      "cityName": "Korytna",
      "lat": 49.066667,
      "lng": 29.683333
    },
    {
      "cityName": "Kosara",
      "lat": 49.033333,
      "lng": 32.183333
    },
    {
      "cityName": "Kosyakovka",
      "lat": 49.366667,
      "lng": 30.55
    },
    {
      "cityName": "Kovalëvka",
      "lat": 50.166667,
      "lng": 32.066667
    },
    {
      "cityName": "Kovtuny",
      "lat": 49.766667,
      "lng": 32.066667
    },
    {
      "cityName": "Kozhukhovka",
      "lat": 48.683333,
      "lng": 29.9
    },
    {
      "cityName": "Krapivna",
      "lat": 49.633333,
      "lng": 32.166667
    },
    {
      "cityName": "Krasenovka",
      "lat": 49.816667,
      "lng": 32.4
    },
    {
      "cityName": "Krasilovka",
      "lat": 49.3,
      "lng": 30.333333
    },
    {
      "cityName": "Krasnopolka",
      "lat": 48.8,
      "lng": 29.733333
    },
    {
      "cityName": "Krasnopolki",
      "lat": 48.866667,
      "lng": 30.25
    },
    {
      "cityName": "Krasnoselye",
      "lat": 49.166667,
      "lng": 32.55
    },
    {
      "cityName": "Krasnoye",
      "lat": 49.483333,
      "lng": 32.116667
    },
    {
      "cityName": "Krestitelevo",
      "lat": 49.716667,
      "lng": 32.516667
    },
    {
      "cityName": "Krivchunka",
      "lat": 49.233333,
      "lng": 29.966667
    },
    {
      "cityName": "Krivets",
      "lat": 49.066667,
      "lng": 30.35
    },
    {
      "cityName": "Krutki",
      "lat": 49.566667,
      "lng": 32.216667
    },
    {
      "cityName": "Krutyye Gorby",
      "lat": 49.416667,
      "lng": 30.616667
    },
    {
      "cityName": "Krymki",
      "lat": 48.933333,
      "lng": 31.416667
    },
    {
      "cityName": "Kutsëvka",
      "lat": 49.066667,
      "lng": 31.666667
    },
    {
      "cityName": "Kuzmina Greblya",
      "lat": 48.666667,
      "lng": 30.05
    },
    {
      "cityName": "Kvitki",
      "lat": 49.316667,
      "lng": 31.233333
    },
    {
      "cityName": "Ladyzhinka",
      "lat": 48.55,
      "lng": 30.25
    },
    {
      "cityName": "Lebedin",
      "lat": 48.958056,
      "lng": 31.527222
    },
    {
      "cityName": "Legedzino",
      "lat": 48.8,
      "lng": 30.516667
    },
    {
      "cityName": "Leski",
      "lat": 49.35,
      "lng": 32.216667
    },
    {
      "cityName": "Leskovo",
      "lat": 49,
      "lng": 29.883333
    },
    {
      "cityName": "Letychivka",
      "lat": 49.016667,
      "lng": 29.816667
    },
    {
      "cityName": "Leukhi",
      "lat": 48.933333,
      "lng": 29.633333
    },
    {
      "cityName": "Lipyanka",
      "lat": 48.860278,
      "lng": 31.5025
    },
    {
      "cityName": "Lisyanka",
      "lat": 49.25,
      "lng": 30.833333
    },
    {
      "cityName": "Litvinovka",
      "lat": 49.216667,
      "lng": 30.05
    },
    {
      "cityName": "Lomovatoye",
      "lat": 49.3,
      "lng": 32.35
    },
    {
      "cityName": "Lozovatka",
      "lat": 49.066667,
      "lng": 31.283333
    },
    {
      "cityName": "Lukashëvka",
      "lat": 49.616667,
      "lng": 32.483333
    },
    {
      "cityName": "Makeyevka",
      "lat": 49.005833,
      "lng": 31.665556
    },
    {
      "cityName": "Makhny",
      "lat": 49.35,
      "lng": 30.716667
    },
    {
      "cityName": "Maksimovka",
      "lat": 48.616667,
      "lng": 30.033333
    },
    {
      "cityName": "Malaya Savustyanivka",
      "lat": 48.8,
      "lng": 29.916667
    },
    {
      "cityName": "Malyye Kanevtsy",
      "lat": 49.633333,
      "lng": 32.35
    },
    {
      "cityName": "Malyy Rzhavets",
      "lat": 49.666667,
      "lng": 31.366667
    },
    {
      "cityName": "Mankivka",
      "lat": 48.964444,
      "lng": 30.335556
    },
    {
      "cityName": "Martynivka",
      "lat": 49.633333,
      "lng": 31.283333
    },
    {
      "cityName": "Mar\"yanivka",
      "lat": 49.019722,
      "lng": 31.465
    },
    {
      "cityName": "Mashurov",
      "lat": 48.893333,
      "lng": 30.582222
    },
    {
      "cityName": "Maslovo",
      "lat": 48.8,
      "lng": 31.45
    },
    {
      "cityName": "Matusov",
      "lat": 49.05,
      "lng": 31.583333
    },
    {
      "cityName": "Matveikha",
      "lat": 49,
      "lng": 29.9
    },
    {
      "cityName": "Maydanetske",
      "lat": 48.816389,
      "lng": 30.702222
    },
    {
      "cityName": "Medvin",
      "lat": 49.383333,
      "lng": 30.783333
    },
    {
      "cityName": "Mekhedovka",
      "lat": 49.85,
      "lng": 32.25
    },
    {
      "cityName": "Melesovka",
      "lat": 49.816667,
      "lng": 32.233333
    },
    {
      "cityName": "Melniki",
      "lat": 49.55,
      "lng": 32.25
    },
    {
      "cityName": "Meyerovka",
      "lat": 49.833333,
      "lng": 32.116667
    },
    {
      "cityName": "Mezhirich",
      "lat": 49.633333,
      "lng": 31.4
    },
    {
      "cityName": "Mikhaylovka",
      "lat": 49.116667,
      "lng": 32.066667
    },
    {
      "cityName": "Mleyev",
      "lat": 49.35,
      "lng": 31.533333
    },
    {
      "cityName": "Mokrakaligorka",
      "lat": 48.851667,
      "lng": 31.216389
    },
    {
      "cityName": "Molodetske",
      "lat": 48.880833,
      "lng": 30.389444
    },
    {
      "cityName": "Monastyrishche",
      "lat": 48.983333,
      "lng": 29.816667
    },
    {
      "cityName": "Morentsy",
      "lat": 49.25,
      "lng": 31.016667
    },
    {
      "cityName": "Mosevka",
      "lat": 50.1,
      "lng": 32.15
    },
    {
      "cityName": "Moskalenki",
      "lat": 49.45,
      "lng": 32.533333
    },
    {
      "cityName": "Motylevka",
      "lat": 49.283333,
      "lng": 30.516667
    },
    {
      "cityName": "Mudrovka",
      "lat": 49.266667,
      "lng": 32.483333
    },
    {
      "cityName": "Mutikhi",
      "lat": 49.45,
      "lng": 32.25
    },
    {
      "cityName": "Narayevka",
      "lat": 48.9,
      "lng": 29.666667
    },
    {
      "cityName": "Nechayevka",
      "lat": 48.816667,
      "lng": 31.466667
    },
    {
      "cityName": "Nekhayki",
      "lat": 49.983333,
      "lng": 31.933333
    },
    {
      "cityName": "Nemorozh",
      "lat": 49.116667,
      "lng": 30.916667
    },
    {
      "cityName": "Nesterovka",
      "lat": 48.983333,
      "lng": 30.183333
    },
    {
      "cityName": "Neterebka",
      "lat": 49.483333,
      "lng": 31.416667
    },
    {
      "cityName": "Nikolayevka",
      "lat": 49.45,
      "lng": 31.033333
    },
    {
      "cityName": "Nosachëv",
      "lat": 49.133333,
      "lng": 31.583333
    },
    {
      "cityName": "Nova Dmytrivka",
      "lat": 49.683333,
      "lng": 32
    },
    {
      "cityName": "Novaya Greblya",
      "lat": 49.15,
      "lng": 30.383333
    },
    {
      "cityName": "Novoselitsa",
      "lat": 48.933333,
      "lng": 30.9
    },
    {
      "cityName": "Novoselitsy",
      "lat": 49.133333,
      "lng": 32.483333
    },
    {
      "cityName": "Novosëlka",
      "lat": 49.1,
      "lng": 29.716667
    },
    {
      "cityName": "Novoukrainka",
      "lat": 49.616667,
      "lng": 32.45
    },
    {
      "cityName": "Novyy Kovray",
      "lat": 49.5,
      "lng": 32.45
    },
    {
      "cityName": "Oddaypil",
      "lat": 49.333333,
      "lng": 29.983333
    },
    {
      "cityName": "Okhamtov",
      "lat": 49.166667,
      "lng": 30.216667
    },
    {
      "cityName": "Oknino",
      "lat": 48.916667,
      "lng": 31.116667
    },
    {
      "cityName": "Oksanino",
      "lat": 48.7,
      "lng": 30.55
    },
    {
      "cityName": "Olkhi",
      "lat": 49.633333,
      "lng": 31.983333
    },
    {
      "cityName": "Olkhovets",
      "lat": 49.033333,
      "lng": 30.883333
    },
    {
      "cityName": "Olshana",
      "lat": 49.216667,
      "lng": 31.216667
    },
    {
      "cityName": "Olshanka",
      "lat": 49.166667,
      "lng": 30.066667
    },
    {
      "cityName": "Onufriyevka",
      "lat": 49.016667,
      "lng": 30.666667
    },
    {
      "cityName": "Oradovka",
      "lat": 48.783333,
      "lng": 30
    },
    {
      "cityName": "Orlovets",
      "lat": 49.216667,
      "lng": 31.583333
    },
    {
      "cityName": "Ostrozhany",
      "lat": 49.1,
      "lng": 30.033333
    },
    {
      "cityName": "Palanka",
      "lat": 48.731111,
      "lng": 30.096111
    },
    {
      "cityName": "Panskiy Mist",
      "lat": 48.966667,
      "lng": 29.966667
    },
    {
      "cityName": "Pavlovka",
      "lat": 48.8,
      "lng": 30.8
    },
    {
      "cityName": "Pedinovka",
      "lat": 49.216667,
      "lng": 31.1
    },
    {
      "cityName": "Pekari",
      "lat": 49.7,
      "lng": 31.55
    },
    {
      "cityName": "Perervantsy",
      "lat": 50,
      "lng": 32.3
    },
    {
      "cityName": "Pershe Travnya",
      "lat": 50.1,
      "lng": 32.266667
    },
    {
      "cityName": "Peschanoye",
      "lat": 49.733333,
      "lng": 31.866667
    },
    {
      "cityName": "Petroostrov",
      "lat": 48.75,
      "lng": 31.3
    },
    {
      "cityName": "Petropavlovka",
      "lat": 49.233333,
      "lng": 31.366667
    },
    {
      "cityName": "PetrovkaPopovka",
      "lat": 49.316667,
      "lng": 30.6
    },
    {
      "cityName": "Pisarshchina",
      "lat": 50.05,
      "lng": 32.366667
    },
    {
      "cityName": "Pleshkany",
      "lat": 49.866667,
      "lng": 31.866667
    },
    {
      "cityName": "Plevaki",
      "lat": 49.566667,
      "lng": 31.65
    },
    {
      "cityName": "Pliskachevka",
      "lat": 49.2,
      "lng": 32.15
    },
    {
      "cityName": "Plyakovka",
      "lat": 49.066667,
      "lng": 32.033333
    },
    {
      "cityName": "Plyutinets",
      "lat": 49.416667,
      "lng": 30
    },
    {
      "cityName": "Poberezhka",
      "lat": 49.366667,
      "lng": 30.683333
    },
    {
      "cityName": "Poboyna",
      "lat": 49.216667,
      "lng": 30.3
    },
    {
      "cityName": "Pochapintsy",
      "lat": 49.266667,
      "lng": 30.933333
    },
    {
      "cityName": "Podobna",
      "lat": 48.916667,
      "lng": 30.233333
    },
    {
      "cityName": "Podstavka",
      "lat": 49.883333,
      "lng": 31.883333
    },
    {
      "cityName": "Pogiblyak",
      "lat": 49.283333,
      "lng": 30.65
    },
    {
      "cityName": "Pogorila",
      "lat": 48.633333,
      "lng": 29.966667
    },
    {
      "cityName": "Pogreby",
      "lat": 50.1,
      "lng": 32.2
    },
    {
      "cityName": "Pokrovka",
      "lat": 49,
      "lng": 29.716667
    },
    {
      "cityName": "Polovinchik",
      "lat": 49.016667,
      "lng": 29.75
    },
    {
      "cityName": "Polstvin",
      "lat": 49.666667,
      "lng": 31.316667
    },
    {
      "cityName": "Pomoynik",
      "lat": 48.9,
      "lng": 30.283333
    },
    {
      "cityName": "Popovka",
      "lat": 49.116667,
      "lng": 31.816667
    },
    {
      "cityName": "Popruzhna",
      "lat": 49.366667,
      "lng": 30.35
    },
    {
      "cityName": "Popudnya",
      "lat": 48.916667,
      "lng": 29.866667
    },
    {
      "cityName": "Popuzhintsy",
      "lat": 48.966667,
      "lng": 30.566667
    },
    {
      "cityName": "Posëlok Shevchenkovskiy",
      "lat": 49.2,
      "lng": 31.883333
    },
    {
      "cityName": "Poselok Vilna",
      "lat": 49.033333,
      "lng": 29.716667
    },
    {
      "cityName": "Potash",
      "lat": 48.9,
      "lng": 30.483333
    },
    {
      "cityName": "Pridneprovskoye",
      "lat": 49.433333,
      "lng": 32.416667
    },
    {
      "cityName": "Prityka",
      "lat": 48.883333,
      "lng": 29.983333
    },
    {
      "cityName": "Prokhorovka",
      "lat": 49.716667,
      "lng": 31.616667
    },
    {
      "cityName": "Pugachëvka",
      "lat": 49.183333,
      "lng": 29.95
    },
    {
      "cityName": "Pyatigory",
      "lat": 49.35,
      "lng": 29.933333
    },
    {
      "cityName": "Radchykha",
      "lat": 48.922778,
      "lng": 31.037778
    },
    {
      "cityName": "Raskoshnaya",
      "lat": 49.383333,
      "lng": 30.183333
    },
    {
      "cityName": "Ratseve",
      "lat": 49.1,
      "lng": 32.8
    },
    {
      "cityName": "Raygorod",
      "lat": 49.1,
      "lng": 31.966667
    },
    {
      "cityName": "Razumnitsa",
      "lat": 49.3,
      "lng": 30.216667
    },
    {
      "cityName": "Repki",
      "lat": 49.283333,
      "lng": 30.566667
    },
    {
      "cityName": "Revbintsy",
      "lat": 49.583333,
      "lng": 32.383333
    },
    {
      "cityName": "Rizino",
      "lat": 49.116667,
      "lng": 30.6
    },
    {
      "cityName": "Rodnikovka",
      "lat": 48.8,
      "lng": 30.216667
    },
    {
      "cityName": "Rogi",
      "lat": 48.883333,
      "lng": 30.45
    },
    {
      "cityName": "Ropotukha",
      "lat": 48.616667,
      "lng": 30.2
    },
    {
      "cityName": "Rossokhovata",
      "lat": 49,
      "lng": 29.616667
    },
    {
      "cityName": "Rossoshki",
      "lat": 48.766667,
      "lng": 30.016667
    },
    {
      "cityName": "Rotmistrovka",
      "lat": 49.133333,
      "lng": 31.7
    },
    {
      "cityName": "Rubannyy Most",
      "lat": 49.15,
      "lng": 30.533333
    },
    {
      "cityName": "Rusalovka",
      "lat": 49.133333,
      "lng": 30.433333
    },
    {
      "cityName": "Russkaya Polyana",
      "lat": 49.416667,
      "lng": 31.95
    },
    {
      "cityName": "Ryzhanovka",
      "lat": 49.1,
      "lng": 30.716667
    },
    {
      "cityName": "Sagunovka",
      "lat": 49.3,
      "lng": 32.4
    },
    {
      "cityName": "Sakhnovka",
      "lat": 49.533333,
      "lng": 31.433333
    },
    {
      "cityName": "Sarny",
      "lat": 48.933333,
      "lng": 29.916667
    },
    {
      "cityName": "Savustyanivka",
      "lat": 48.883333,
      "lng": 29.783333
    },
    {
      "cityName": "Sekirna",
      "lat": 49.55,
      "lng": 31.866667
    },
    {
      "cityName": "Selishche",
      "lat": 49.316667,
      "lng": 31.15
    },
    {
      "cityName": "Semënovka",
      "lat": 49.283333,
      "lng": 30.683333
    },
    {
      "cityName": "Senkovtsy",
      "lat": 49.766667,
      "lng": 32.033333
    },
    {
      "cityName": "Serafimovka",
      "lat": 48.65,
      "lng": 29.983333
    },
    {
      "cityName": "Serdyukovka",
      "lat": 49.05,
      "lng": 31.833333
    },
    {
      "cityName": "Shabastivka",
      "lat": 49.05,
      "lng": 29.733333
    },
    {
      "cityName": "Shabelniki",
      "lat": 49.683333,
      "lng": 31.766667
    },
    {
      "cityName": "Sharnypil",
      "lat": 49.116667,
      "lng": 29.933333
    },
    {
      "cityName": "Shaulikha",
      "lat": 48.983333,
      "lng": 30.583333
    },
    {
      "cityName": "Shcherbashentsy",
      "lat": 49.383333,
      "lng": 30.85
    },
    {
      "cityName": "Shelepukhi",
      "lat": 49.583333,
      "lng": 31.616667
    },
    {
      "cityName": "Shelpakhovka",
      "lat": 48.7,
      "lng": 29.933333
    },
    {
      "cityName": "Shenderovka",
      "lat": 49.35,
      "lng": 31.033333
    },
    {
      "cityName": "Shesterintsy",
      "lat": 49.216667,
      "lng": 30.916667
    },
    {
      "cityName": "Shpola",
      "lat": 49.003889,
      "lng": 31.391667
    },
    {
      "cityName": "Shubennyye Stavy",
      "lat": 49.183333,
      "lng": 30.6
    },
    {
      "cityName": "Shukayvoda",
      "lat": 48.85,
      "lng": 29.916667
    },
    {
      "cityName": "Shulyaki",
      "lat": 49.15,
      "lng": 29.9
    },
    {
      "cityName": "Sidorovka",
      "lat": 49.4,
      "lng": 30.966667
    },
    {
      "cityName": "Signajewka",
      "lat": 49.05,
      "lng": 31.516667
    },
    {
      "cityName": "Sitniki",
      "lat": 49.5,
      "lng": 31.133333
    },
    {
      "cityName": "Skibino",
      "lat": 49.3,
      "lng": 30.15
    },
    {
      "cityName": "Skorikovka",
      "lat": 49.816667,
      "lng": 32.083333
    },
    {
      "cityName": "Sloboda",
      "lat": 49.15,
      "lng": 31.533333
    },
    {
      "cityName": "Slobodishche",
      "lat": 48.966667,
      "lng": 29.583333
    },
    {
      "cityName": "Smela",
      "lat": 49.233333,
      "lng": 31.883333
    },
    {
      "cityName": "Smilchentsy",
      "lat": 49.183333,
      "lng": 30.833333
    },
    {
      "cityName": "Snezhki",
      "lat": 49.366667,
      "lng": 30.116667
    },
    {
      "cityName": "Sofiyevka",
      "lat": 49.566667,
      "lng": 31.583333
    },
    {
      "cityName": "Sokolivka",
      "lat": 49.022222,
      "lng": 30.136111
    },
    {
      "cityName": "Sorokatyaga",
      "lat": 49.183333,
      "lng": 30.166667
    },
    {
      "cityName": "Sosnovka",
      "lat": 49.466667,
      "lng": 32.016667
    },
    {
      "cityName": "Stanislavchik",
      "lat": 49.333333,
      "lng": 30.383333
    },
    {
      "cityName": "Staroselye",
      "lat": 49.4,
      "lng": 31.6
    },
    {
      "cityName": "Staryy Kovray",
      "lat": 49.55,
      "lng": 32.45
    },
    {
      "cityName": "Stavishche",
      "lat": 49.383333,
      "lng": 30.2
    },
    {
      "cityName": "Steblëv Pervyy",
      "lat": 49.4,
      "lng": 31.1
    },
    {
      "cityName": "Stebnoye",
      "lat": 49.016667,
      "lng": 30.966667
    },
    {
      "cityName": "Stepanki",
      "lat": 49.316667,
      "lng": 31.983333
    },
    {
      "cityName": "Stepkovka",
      "lat": 48.666667,
      "lng": 30.3
    },
    {
      "cityName": "Stetsivka",
      "lat": 48.993611,
      "lng": 31.156111
    },
    {
      "cityName": "Strizhavka",
      "lat": 49.383333,
      "lng": 29.983333
    },
    {
      "cityName": "Subbotov",
      "lat": 49.1,
      "lng": 32.55
    },
    {
      "cityName": "Sukhiny",
      "lat": 49.283333,
      "lng": 31.133333
    },
    {
      "cityName": "Sunki",
      "lat": 49.216667,
      "lng": 32.016667
    },
    {
      "cityName": "Sushkovka",
      "lat": 48.683333,
      "lng": 30.35
    },
    {
      "cityName": "Svechkovka",
      "lat": 50.05,
      "lng": 32.233333
    },
    {
      "cityName": "Svidovok",
      "lat": 49.516667,
      "lng": 31.916667
    },
    {
      "cityName": "Sychëvka",
      "lat": 48.8,
      "lng": 29.866667
    },
    {
      "cityName": "Tagancha",
      "lat": 49.583333,
      "lng": 31.283333
    },
    {
      "cityName": "Talalayevka",
      "lat": 48.766667,
      "lng": 29.916667
    },
    {
      "cityName": "Talne",
      "lat": 48.888056,
      "lng": 30.704444
    },
    {
      "cityName": "Talyanka",
      "lat": 48.8,
      "lng": 30.566667
    },
    {
      "cityName": "Tarashcha",
      "lat": 49.35,
      "lng": 31.116667
    },
    {
      "cityName": "Tarasovka",
      "lat": 49.133333,
      "lng": 31.05
    },
    {
      "cityName": "Tarnava",
      "lat": 48.95,
      "lng": 29.683333
    },
    {
      "cityName": "Tashlyk",
      "lat": 49.066667,
      "lng": 31.733333
    },
    {
      "cityName": "Taynishchya",
      "lat": 49.283333,
      "lng": 29.933333
    },
    {
      "cityName": "Tekucha",
      "lat": 48.578611,
      "lng": 30.316667
    },
    {
      "cityName": "Telepino",
      "lat": 49.000833,
      "lng": 31.887778
    },
    {
      "cityName": "Teolin",
      "lat": 49.016667,
      "lng": 29.95
    },
    {
      "cityName": "Terlitsa",
      "lat": 48.933333,
      "lng": 29.7
    },
    {
      "cityName": "Ternovka",
      "lat": 49.133333,
      "lng": 31.85
    },
    {
      "cityName": "Tikhiy Khutor",
      "lat": 49.3,
      "lng": 30.05
    },
    {
      "cityName": "Timchenki",
      "lat": 49.433333,
      "lng": 32.433333
    },
    {
      "cityName": "Timoshëvka",
      "lat": 48.983333,
      "lng": 32.05
    },
    {
      "cityName": "Tinki",
      "lat": 49.183333,
      "lng": 32.683333
    },
    {
      "cityName": "Tinovka",
      "lat": 49.266667,
      "lng": 30.416667
    },
    {
      "cityName": "Tolmach",
      "lat": 48.883333,
      "lng": 31.361667
    },
    {
      "cityName": "Tolstaya",
      "lat": 49.15,
      "lng": 31.233333
    },
    {
      "cityName": "Topilno",
      "lat": 49.083333,
      "lng": 31.3
    },
    {
      "cityName": "Topilovka",
      "lat": 49.283333,
      "lng": 32.433333
    },
    {
      "cityName": "Torchishcha",
      "lat": 49.433333,
      "lng": 30.016667
    },
    {
      "cityName": "Trushchevtsy",
      "lat": 49.183333,
      "lng": 32.466667
    },
    {
      "cityName": "Tsibermanova Greblya",
      "lat": 48.966667,
      "lng": 30.066667
    },
    {
      "cityName": "Tsibulev",
      "lat": 49.066667,
      "lng": 29.85
    },
    {
      "cityName": "Tuboltsy",
      "lat": 49.566667,
      "lng": 31.666667
    },
    {
      "cityName": "Uglovata",
      "lat": 48.9,
      "lng": 29.983333
    },
    {
      "cityName": "Ukhozha",
      "lat": 48.7,
      "lng": 29.916667
    },
    {
      "cityName": "Uman",
      "lat": 48.75,
      "lng": 30.222222
    },
    {
      "cityName": "Valyava",
      "lat": 49.3,
      "lng": 31.333333
    },
    {
      "cityName": "Vasilikha",
      "lat": 49.466667,
      "lng": 30.05
    },
    {
      "cityName": "Vasilkova",
      "lat": 48.983333,
      "lng": 31.316667
    },
    {
      "cityName": "Vasyutintsy",
      "lat": 49.45,
      "lng": 32.45
    },
    {
      "cityName": "Vatutine",
      "lat": 49.017778,
      "lng": 31.062222
    },
    {
      "cityName": "Velikiy Khutor",
      "lat": 49.866667,
      "lng": 32.116667
    },
    {
      "cityName": "Verbovka",
      "lat": 48.983333,
      "lng": 31.966667
    },
    {
      "cityName": "Veremeyevka",
      "lat": 49.366667,
      "lng": 32.55
    },
    {
      "cityName": "Verguny",
      "lat": 49.316667,
      "lng": 32.083333
    },
    {
      "cityName": "Verkhnyachka",
      "lat": 48.830556,
      "lng": 30.036667
    },
    {
      "cityName": "Vershats",
      "lat": 49.016667,
      "lng": 32.616667
    },
    {
      "cityName": "Vesëlyy Kut",
      "lat": 49.366667,
      "lng": 30.533333
    },
    {
      "cityName": "Vilshanka",
      "lat": 48.783333,
      "lng": 29.916667
    },
    {
      "cityName": "Vinarovka",
      "lat": 49.4,
      "lng": 30.1
    },
    {
      "cityName": "Vinograd",
      "lat": 49.25,
      "lng": 30.566667
    },
    {
      "cityName": "Vishnopol",
      "lat": 48.761111,
      "lng": 30.589722
    },
    {
      "cityName": "Vladislavchik",
      "lat": 49.083333,
      "lng": 29.95
    },
    {
      "cityName": "Vodyaniki",
      "lat": 49.133333,
      "lng": 30.783333
    },
    {
      "cityName": "Voronoye",
      "lat": 49.133333,
      "lng": 30.2
    },
    {
      "cityName": "Vyazovok",
      "lat": 49.166667,
      "lng": 31.416667
    },
    {
      "cityName": "Vygrayev",
      "lat": 49.45,
      "lng": 31.133333
    },
    {
      "cityName": "Vyselok Strizhevskiy",
      "lat": 49.4,
      "lng": 29.966667
    },
    {
      "cityName": "Vysoke",
      "lat": 49.25,
      "lng": 29.816667
    },
    {
      "cityName": "Yablonovka",
      "lat": 49.183333,
      "lng": 30.666667
    },
    {
      "cityName": "Yagubets",
      "lat": 48.75,
      "lng": 29.95
    },
    {
      "cityName": "Yankovka",
      "lat": 49.05,
      "lng": 30.583333
    },
    {
      "cityName": "Yaroshevka",
      "lat": 48.766667,
      "lng": 31.266667
    },
    {
      "cityName": "Yary",
      "lat": 48.783333,
      "lng": 29.85
    },
    {
      "cityName": "Yasinovka",
      "lat": 49.45,
      "lng": 30.283333
    },
    {
      "cityName": "Yatskovytsya",
      "lat": 49.15,
      "lng": 29.833333
    },
    {
      "cityName": "Yerki",
      "lat": 48.978056,
      "lng": 30.991944
    },
    {
      "cityName": "Yurkivka",
      "lat": 49.019444,
      "lng": 31.106944
    },
    {
      "cityName": "Yurkovka",
      "lat": 48.583333,
      "lng": 30.033333
    },
    {
      "cityName": "Yurpol",
      "lat": 49,
      "lng": 30.516667
    },
    {
      "cityName": "Zagrebelya",
      "lat": 49.333333,
      "lng": 29.916667
    },
    {
      "cityName": "Zakutintsy",
      "lat": 49.4,
      "lng": 30.683333
    },
    {
      "cityName": "Zarubentsi",
      "lat": 49.133333,
      "lng": 29.95
    },
    {
      "cityName": "Zasashkhov",
      "lat": 49.25,
      "lng": 30.1
    },
    {
      "cityName": "Zatonskoye",
      "lat": 49.383333,
      "lng": 30.45
    },
    {
      "cityName": "Zavadovka",
      "lat": 49.166667,
      "lng": 32.166667
    },
    {
      "cityName": "Zavallya",
      "lat": 49,
      "lng": 29.8
    },
    {
      "cityName": "Zayachkovka",
      "lat": 48.7,
      "lng": 29.966667
    },
    {
      "cityName": "Zelenkiv",
      "lat": 48.783056,
      "lng": 30.645556
    },
    {
      "cityName": "Zhabotin",
      "lat": 49.15,
      "lng": 32.15
    },
    {
      "cityName": "Zhernoklevy",
      "lat": 49.966667,
      "lng": 31.95
    },
    {
      "cityName": "Zhitniki",
      "lat": 49.216667,
      "lng": 30.033333
    },
    {
      "cityName": "Zhuravka",
      "lat": 49.3,
      "lng": 31.2
    },
    {
      "cityName": "Zhuravlikha",
      "lat": 49.416667,
      "lng": 30.35
    },
    {
      "cityName": "Zmagalovka",
      "lat": 49.383333,
      "lng": 32.166667
    },
    {
      "cityName": "Zolotonosha",
      "lat": 49.666667,
      "lng": 32.033333
    },
    {
      "cityName": "Zolotonoshka",
      "lat": 50.033333,
      "lng": 32.1
    },
    {
      "cityName": "Zvenigorodka",
      "lat": 49.083333,
      "lng": 30.966667
    }
  ]
}