{
  "name": "Krym",
  "cities": [
    {
      "cityName": "Abakly",
      "lat": 45.783333,
      "lng": 34.116667
    },
    {
      "cityName": "AbayKuchuk",
      "lat": 45.716667,
      "lng": 33.25
    },
    {
      "cityName": "AbaySmail",
      "lat": 45.7,
      "lng": 33.483333
    },
    {
      "cityName": "Abdulgazy",
      "lat": 45.4,
      "lng": 33.1
    },
    {
      "cityName": "Ablagadshi",
      "lat": 45.483333,
      "lng": 32.683333
    },
    {
      "cityName": "Ablesh",
      "lat": 45.233333,
      "lng": 34.7
    },
    {
      "cityName": "Abrikosovka",
      "lat": 45.116667,
      "lng": 35.1
    },
    {
      "cityName": "Abuslar",
      "lat": 45.483333,
      "lng": 32.633333
    },
    {
      "cityName": "Adargin",
      "lat": 45.466667,
      "lng": 34.55
    },
    {
      "cityName": "Adyk",
      "lat": 45.2,
      "lng": 35.8
    },
    {
      "cityName": "AdzhayKat",
      "lat": 45.733333,
      "lng": 34.3
    },
    {
      "cityName": "AdzheliKipchak",
      "lat": 45.25,
      "lng": 34.233333
    },
    {
      "cityName": "AdzhiAkhmat",
      "lat": 45.616667,
      "lng": 34.616667
    },
    {
      "cityName": "Adzhi Atman",
      "lat": 45.5,
      "lng": 33.8
    },
    {
      "cityName": "AdzhiBay",
      "lat": 44.916667,
      "lng": 35.016667
    },
    {
      "cityName": "AdzhiBulat",
      "lat": 44.816667,
      "lng": 33.616667
    },
    {
      "cityName": "Adzhieli",
      "lat": 45.360278,
      "lng": 36.099167
    },
    {
      "cityName": "Adzhigol",
      "lat": 45.1,
      "lng": 35.366667
    },
    {
      "cityName": "AdzhiIbram",
      "lat": 44.966667,
      "lng": 33.95
    },
    {
      "cityName": "Adzhikech",
      "lat": 45.2,
      "lng": 34.15
    },
    {
      "cityName": "Adzhilar",
      "lat": 45.166667,
      "lng": 34.633333
    },
    {
      "cityName": "AdzhiMambet",
      "lat": 45.366667,
      "lng": 34.183333
    },
    {
      "cityName": "AdzhiMende",
      "lat": 45.223333,
      "lng": 36.008611
    },
    {
      "cityName": "Adzhimushkay",
      "lat": 45.387222,
      "lng": 36.523611
    },
    {
      "cityName": "Adzhiran",
      "lat": 45.433333,
      "lng": 33.15
    },
    {
      "cityName": "AdzhiTarkhan",
      "lat": 45.283333,
      "lng": 33.316667
    },
    {
      "cityName": "Aeroflotskiy",
      "lat": 45.016667,
      "lng": 34.033333
    },
    {
      "cityName": "Afanasino",
      "lat": 45.45,
      "lng": 35.85
    },
    {
      "cityName": "AgachEli",
      "lat": 44.933333,
      "lng": 33.816667
    },
    {
      "cityName": "Agay",
      "lat": 45.55,
      "lng": 33.416667
    },
    {
      "cityName": "Agibel",
      "lat": 45.233333,
      "lng": 35.716667
    },
    {
      "cityName": "Agrarnoye",
      "lat": 45.066667,
      "lng": 34.116667
    },
    {
      "cityName": "Agyar Dzheren",
      "lat": 45.366667,
      "lng": 34.033333
    },
    {
      "cityName": "Aip",
      "lat": 45.783333,
      "lng": 33.55
    },
    {
      "cityName": "Aircha",
      "lat": 45.216667,
      "lng": 33.15
    },
    {
      "cityName": "AkBash",
      "lat": 45.55,
      "lng": 32.983333
    },
    {
      "cityName": "AkChokrak",
      "lat": 44.766667,
      "lng": 33.866667
    },
    {
      "cityName": "Akchora",
      "lat": 45.066667,
      "lng": 34.933333
    },
    {
      "cityName": "Akhtyrka",
      "lat": 45.55,
      "lng": 34.933333
    },
    {
      "cityName": "Akikat",
      "lat": 44.916667,
      "lng": 35.066667
    },
    {
      "cityName": "Akimovka",
      "lat": 45.516667,
      "lng": 34.833333
    },
    {
      "cityName": "AkKaya",
      "lat": 45.1,
      "lng": 34.616667
    },
    {
      "cityName": "AkKobekh",
      "lat": 45.25,
      "lng": 35.016667
    },
    {
      "cityName": "AkKodzha",
      "lat": 45.5,
      "lng": 33.083333
    },
    {
      "cityName": "AkkuyuBitak",
      "lat": 45.333333,
      "lng": 33.75
    },
    {
      "cityName": "AkManay",
      "lat": 45.283333,
      "lng": 35.533333
    },
    {
      "cityName": "AkMechetNayman",
      "lat": 45.733333,
      "lng": 34.016667
    },
    {
      "cityName": "AkMelez",
      "lat": 45.05,
      "lng": 35.216667
    },
    {
      "cityName": "Ak Sheikh",
      "lat": 45.583333,
      "lng": 34.666667
    },
    {
      "cityName": "AkSheikh",
      "lat": 45.768333,
      "lng": 33.488056
    },
    {
      "cityName": "AksyuruKonrat",
      "lat": 45.633333,
      "lng": 34.483333
    },
    {
      "cityName": "Aktachi",
      "lat": 44.766667,
      "lng": 33.733333
    },
    {
      "cityName": "Aktash",
      "lat": 45.416667,
      "lng": 35.8
    },
    {
      "cityName": "Alabash Konrat",
      "lat": 45.266667,
      "lng": 34.133333
    },
    {
      "cityName": "Alach",
      "lat": 45.166667,
      "lng": 34.85
    },
    {
      "cityName": "Alatay",
      "lat": 45.283333,
      "lng": 34.55
    },
    {
      "cityName": "Albat",
      "lat": 44.65,
      "lng": 33.866667
    },
    {
      "cityName": "Alchin",
      "lat": 45.3,
      "lng": 33.35
    },
    {
      "cityName": "Aldar",
      "lat": 45.5,
      "lng": 33.883333
    },
    {
      "cityName": "Aleksandrovka",
      "lat": 45.016667,
      "lng": 34.533333
    },
    {
      "cityName": "Alekseyevka",
      "lat": 45.313611,
      "lng": 36.149167
    },
    {
      "cityName": "AlgazyKipchak",
      "lat": 45.916667,
      "lng": 34.216667
    },
    {
      "cityName": "Alibay",
      "lat": 45.266667,
      "lng": 35.616667
    },
    {
      "cityName": "Alikech",
      "lat": 45.483333,
      "lng": 34.866667
    },
    {
      "cityName": "AlmaTamak",
      "lat": 44.85,
      "lng": 33.6
    },
    {
      "cityName": "AlmaTarkhan",
      "lat": 44.85,
      "lng": 33.683333
    },
    {
      "cityName": "Aloushta",
      "lat": 44.666667,
      "lng": 34.416667
    },
    {
      "cityName": "AltanAlchin",
      "lat": 45.069444,
      "lng": 36.081667
    },
    {
      "cityName": "Alupka",
      "lat": 44.416667,
      "lng": 34.05
    },
    {
      "cityName": "Amansha",
      "lat": 45.683333,
      "lng": 33.45
    },
    {
      "cityName": "Amurskoye",
      "lat": 45.3,
      "lng": 34.1
    },
    {
      "cityName": "AnaEli",
      "lat": 45.05,
      "lng": 34.133333
    },
    {
      "cityName": "AndarGazi",
      "lat": 45.25,
      "lng": 33.583333
    },
    {
      "cityName": "Andreyevka",
      "lat": 45.2,
      "lng": 34.1
    },
    {
      "cityName": "Angara",
      "lat": 44.833333,
      "lng": 34.333333
    },
    {
      "cityName": "Annovka",
      "lat": 45.266667,
      "lng": 34.3
    },
    {
      "cityName": "Antonovka",
      "lat": 45.5,
      "lng": 34.3
    },
    {
      "cityName": "Apan",
      "lat": 45.35,
      "lng": 33.366667
    },
    {
      "cityName": "Appak",
      "lat": 45.216667,
      "lng": 35.3
    },
    {
      "cityName": "Arabat",
      "lat": 45.3,
      "lng": 35.483333
    },
    {
      "cityName": "Aranda",
      "lat": 45.283333,
      "lng": 34.766667
    },
    {
      "cityName": "Aray",
      "lat": 45.233333,
      "lng": 33.716667
    },
    {
      "cityName": "Arbuzovo",
      "lat": 45.75,
      "lng": 33.866667
    },
    {
      "cityName": "Argin",
      "lat": 45,
      "lng": 34.466667
    },
    {
      "cityName": "Arginchik",
      "lat": 45.233333,
      "lng": 34.65
    },
    {
      "cityName": "Argyn",
      "lat": 45.516667,
      "lng": 33.95
    },
    {
      "cityName": "Arkhaderes",
      "lat": 44.85,
      "lng": 35.05
    },
    {
      "cityName": "ArmaEli",
      "lat": 45.2,
      "lng": 35.616667
    },
    {
      "cityName": "Armjansk",
      "lat": 46.1075,
      "lng": 33.696944
    },
    {
      "cityName": "Armutluk",
      "lat": 44.983333,
      "lng": 35.166667
    },
    {
      "cityName": "Aromatnoye",
      "lat": 45.05,
      "lng": 34.416667
    },
    {
      "cityName": "Arpat",
      "lat": 44.866667,
      "lng": 34.716667
    },
    {
      "cityName": "Arshintsevo",
      "lat": 45.299722,
      "lng": 36.431667
    },
    {
      "cityName": "Artek",
      "lat": 44.566667,
      "lng": 34.3
    },
    {
      "cityName": "Artëmovka",
      "lat": 45.466667,
      "lng": 32.833333
    },
    {
      "cityName": "Artezian",
      "lat": 45.393889,
      "lng": 36.168611
    },
    {
      "cityName": "AshagaDzhamin",
      "lat": 45.15,
      "lng": 33.75
    },
    {
      "cityName": "Ashkadan",
      "lat": 46,
      "lng": 34.033333
    },
    {
      "cityName": "Asport",
      "lat": 44.716667,
      "lng": 34.25
    },
    {
      "cityName": "Ass",
      "lat": 45.983333,
      "lng": 33.833333
    },
    {
      "cityName": "AssNayman",
      "lat": 45.966667,
      "lng": 34.083333
    },
    {
      "cityName": "Astaban",
      "lat": 45.333333,
      "lng": 35.75
    },
    {
      "cityName": "Astanino",
      "lat": 45.333333,
      "lng": 35.916667
    },
    {
      "cityName": "Atay Nemetskiy",
      "lat": 45.766667,
      "lng": 33.616667
    },
    {
      "cityName": "Atay Tatarskiy",
      "lat": 45.783333,
      "lng": 33.616667
    },
    {
      "cityName": "Atcheut",
      "lat": 44.883333,
      "lng": 33.916667
    },
    {
      "cityName": "Atman",
      "lat": 45,
      "lng": 33.966667
    },
    {
      "cityName": "Audzhikoy",
      "lat": 44.666667,
      "lng": 34.016667
    },
    {
      "cityName": "Autka",
      "lat": 44.5,
      "lng": 34.133333
    },
    {
      "cityName": "Avel",
      "lat": 45.2,
      "lng": 33.8
    },
    {
      "cityName": "Avrora",
      "lat": 45.75,
      "lng": 33.266667
    },
    {
      "cityName": "Avrorovka",
      "lat": 45.716667,
      "lng": 33.733333
    },
    {
      "cityName": "Ayan",
      "lat": 44.833333,
      "lng": 34.3
    },
    {
      "cityName": "AyDanil",
      "lat": 44.516667,
      "lng": 34.25
    },
    {
      "cityName": "Ayfugan Tatarskiy",
      "lat": 45.216667,
      "lng": 34.4
    },
    {
      "cityName": "Aygashen",
      "lat": 45.683333,
      "lng": 34.1
    },
    {
      "cityName": "Aykaul",
      "lat": 45.583333,
      "lng": 33.716667
    },
    {
      "cityName": "Aykaul Vakuf",
      "lat": 45.6,
      "lng": 33.716667
    },
    {
      "cityName": "Aylyanma",
      "lat": 44.95,
      "lng": 34.716667
    },
    {
      "cityName": "Aymamshak",
      "lat": 45.516667,
      "lng": 33.833333
    },
    {
      "cityName": "AymanKuyu",
      "lat": 45.25,
      "lng": 36.233333
    },
    {
      "cityName": "AySerez",
      "lat": 44.883333,
      "lng": 34.85
    },
    {
      "cityName": "Aytugan",
      "lat": 45.25,
      "lng": 34.4
    },
    {
      "cityName": "AyVasil",
      "lat": 44.516667,
      "lng": 34.166667
    },
    {
      "cityName": "Ayvazovskaya",
      "lat": 44.583333,
      "lng": 34.35
    },
    {
      "cityName": "Ayvazovskoye",
      "lat": 45.116667,
      "lng": 35.083333
    },
    {
      "cityName": "Azamat",
      "lat": 45.133333,
      "lng": 34.733333
    },
    {
      "cityName": "AzberdyVakuf",
      "lat": 45.166667,
      "lng": 34.733333
    },
    {
      "cityName": "AzDzharakchi",
      "lat": 45.65,
      "lng": 34.283333
    },
    {
      "cityName": "Azek",
      "lat": 44.866667,
      "lng": 33.85
    },
    {
      "cityName": "Azov",
      "lat": 45.316667,
      "lng": 34.35
    },
    {
      "cityName": "Azovskoye",
      "lat": 45.583333,
      "lng": 34.566667
    },
    {
      "cityName": "Babenkovo",
      "lat": 45.1,
      "lng": 35.133333
    },
    {
      "cityName": "Babyk",
      "lat": 45.333333,
      "lng": 35.816667
    },
    {
      "cityName": "Bachashisarai",
      "lat": 44.75,
      "lng": 33.866667
    },
    {
      "cityName": "Baga",
      "lat": 44.5,
      "lng": 33.85
    },
    {
      "cityName": "Bagarovo",
      "lat": 45.376111,
      "lng": 36.297222
    },
    {
      "cityName": "Bagay",
      "lat": 45.266667,
      "lng": 33.366667
    },
    {
      "cityName": "Bagerovskoye",
      "lat": 45.388056,
      "lng": 36.261389
    },
    {
      "cityName": "Bagrationovo",
      "lat": 45.433333,
      "lng": 32.916667
    },
    {
      "cityName": "Baim",
      "lat": 45.6,
      "lng": 33.133333
    },
    {
      "cityName": "Bakal",
      "lat": 45.733333,
      "lng": 33.233333
    },
    {
      "cityName": "BakhchiEli",
      "lat": 44.966667,
      "lng": 34.1
    },
    {
      "cityName": "Baksan",
      "lat": 44.966667,
      "lng": 34.416667
    },
    {
      "cityName": "Bakshay",
      "lat": 45.316667,
      "lng": 34.25
    },
    {
      "cityName": "Baksy",
      "lat": 45.386667,
      "lng": 36.577778
    },
    {
      "cityName": "Balashevo",
      "lat": 45.883333,
      "lng": 34.233333
    },
    {
      "cityName": "BaltaChokrak",
      "lat": 44.783333,
      "lng": 33.966667
    },
    {
      "cityName": "Barabanovka",
      "lat": 44.983333,
      "lng": 34.316667
    },
    {
      "cityName": "Baragan Nemetskiy",
      "lat": 45.283333,
      "lng": 34.45
    },
    {
      "cityName": "Barak",
      "lat": 45.233333,
      "lng": 35.25
    },
    {
      "cityName": "Baranovka",
      "lat": 45.4,
      "lng": 32.683333
    },
    {
      "cityName": "Barasanovka",
      "lat": 45.483333,
      "lng": 34.933333
    },
    {
      "cityName": "Baraskhan",
      "lat": 45.1,
      "lng": 34.383333
    },
    {
      "cityName": "Baryn",
      "lat": 45.15,
      "lng": 34.616667
    },
    {
      "cityName": "BashKirgiz",
      "lat": 45.133333,
      "lng": 35.85
    },
    {
      "cityName": "Bashlycha",
      "lat": 45.45,
      "lng": 34.3
    },
    {
      "cityName": "Bashmak",
      "lat": 45.3,
      "lng": 33.583333
    },
    {
      "cityName": "Bashtanovka",
      "lat": 44.683333,
      "lng": 33.9
    },
    {
      "cityName": "Bayasyt",
      "lat": 45.683333,
      "lng": 33.75
    },
    {
      "cityName": "Baygeldy",
      "lat": 45.233333,
      "lng": 33.766667
    },
    {
      "cityName": "Baygonchik",
      "lat": 45.616667,
      "lng": 34.566667
    },
    {
      "cityName": "Baygondu",
      "lat": 45.783333,
      "lng": 33.45
    },
    {
      "cityName": "BayKiyat",
      "lat": 45.65,
      "lng": 33.033333
    },
    {
      "cityName": "BayKogenly",
      "lat": 45.316667,
      "lng": 34.066667
    },
    {
      "cityName": "Bayrach",
      "lat": 45.133333,
      "lng": 35.233333
    },
    {
      "cityName": "Bazarchik",
      "lat": 44.833333,
      "lng": 33.95
    },
    {
      "cityName": "BekBulatchi",
      "lat": 45.4,
      "lng": 34.366667
    },
    {
      "cityName": "Beketovo",
      "lat": 44.4,
      "lng": 33.916667
    },
    {
      "cityName": "Bekkazy",
      "lat": 45.583333,
      "lng": 34.45
    },
    {
      "cityName": "Belinskaya",
      "lat": 45.374722,
      "lng": 36.093611
    },
    {
      "cityName": "Beloborodskoye",
      "lat": 45.083333,
      "lng": 35.833333
    },
    {
      "cityName": "Belogorsk",
      "lat": 45.05,
      "lng": 34.6
    },
    {
      "cityName": "Belokamennoye",
      "lat": 44.683333,
      "lng": 33.85
    },
    {
      "cityName": "Belostadnoye",
      "lat": 45.533333,
      "lng": 35.066667
    },
    {
      "cityName": "Belyaus",
      "lat": 45.366667,
      "lng": 32.916667
    },
    {
      "cityName": "Beregovoye",
      "lat": 44.9,
      "lng": 33.616667
    },
    {
      "cityName": "Berëzovka",
      "lat": 45.583333,
      "lng": 33.333333
    },
    {
      "cityName": "Beschastnoye",
      "lat": 45.933333,
      "lng": 33.9
    },
    {
      "cityName": "Besharan",
      "lat": 45.45,
      "lng": 34.766667
    },
    {
      "cityName": "BesharanOtar",
      "lat": 45.166667,
      "lng": 34.216667
    },
    {
      "cityName": "BeshevliIlyak",
      "lat": 45.366667,
      "lng": 33.95
    },
    {
      "cityName": "Beshkhodzha",
      "lat": 45.45,
      "lng": 34.983333
    },
    {
      "cityName": "Beshkurtka",
      "lat": 45.366667,
      "lng": 34.733333
    },
    {
      "cityName": "Beshtarem",
      "lat": 45.159444,
      "lng": 36.259722
    },
    {
      "cityName": "Besh Terek",
      "lat": 45.016667,
      "lng": 34.233333
    },
    {
      "cityName": "Beshuy",
      "lat": 44.783333,
      "lng": 34.1
    },
    {
      "cityName": "Beshuyskiy",
      "lat": 44.65,
      "lng": 34.183333
    },
    {
      "cityName": "Bezlesnoye",
      "lat": 45.3,
      "lng": 33.683333
    },
    {
      "cityName": "Bezvodnoye",
      "lat": 45.083333,
      "lng": 35.883333
    },
    {
      "cityName": "Bijuk Onlar",
      "lat": 45.283333,
      "lng": 34.133333
    },
    {
      "cityName": "Bikech",
      "lat": 45.174722,
      "lng": 36.126111
    },
    {
      "cityName": "BiokUzenbash",
      "lat": 44.566667,
      "lng": 34.066667
    },
    {
      "cityName": "Bisyut",
      "lat": 45.416667,
      "lng": 34.95
    },
    {
      "cityName": "Bitak",
      "lat": 44.95,
      "lng": 34.15
    },
    {
      "cityName": "BiyaSala",
      "lat": 44.7,
      "lng": 33.983333
    },
    {
      "cityName": "Biybolush",
      "lat": 45.8,
      "lng": 33.966667
    },
    {
      "cityName": "BiyBuzav",
      "lat": 45.5,
      "lng": 33.7
    },
    {
      "cityName": "BiyEli",
      "lat": 44.866667,
      "lng": 33.816667
    },
    {
      "cityName": "BiyOrlyuk",
      "lat": 45.666667,
      "lng": 33.35
    },
    {
      "cityName": "Biysu Kayzera",
      "lat": 45.683333,
      "lng": 34.266667
    },
    {
      "cityName": "Biyu Burish",
      "lat": 45.666667,
      "lng": 33.9
    },
    {
      "cityName": "BiyukAktachi",
      "lat": 45.216667,
      "lng": 33.616667
    },
    {
      "cityName": "BiyukAss",
      "lat": 45.716667,
      "lng": 33.55
    },
    {
      "cityName": "BiyukKaban",
      "lat": 45.45,
      "lng": 33.7
    },
    {
      "cityName": "BiyukKardzhav",
      "lat": 45.55,
      "lng": 34.166667
    },
    {
      "cityName": "BiyukKenegez",
      "lat": 45.35,
      "lng": 33.083333
    },
    {
      "cityName": "BiyukKiyat",
      "lat": 46.033333,
      "lng": 34.05
    },
    {
      "cityName": "BiyukKonrat",
      "lat": 45.583333,
      "lng": 33.933333
    },
    {
      "cityName": "BiyukLambat",
      "lat": 44.616667,
      "lng": 34.366667
    },
    {
      "cityName": "BiyukTokSaba",
      "lat": 45.266667,
      "lng": 33.8
    },
    {
      "cityName": "BiyukYankoy",
      "lat": 44.816667,
      "lng": 34.25
    },
    {
      "cityName": "BiyukYashlav",
      "lat": 44.833333,
      "lng": 33.833333
    },
    {
      "cityName": "Blizhnegorodskoye",
      "lat": 45.633333,
      "lng": 34.383333
    },
    {
      "cityName": "Blizhneye",
      "lat": 45.05,
      "lng": 35.333333
    },
    {
      "cityName": "Blizhniye Kamyshi",
      "lat": 45.083333,
      "lng": 35.4
    },
    {
      "cityName": "Bobyanskoye",
      "lat": 44.65,
      "lng": 34.366667
    },
    {
      "cityName": "Bochala",
      "lat": 45.2,
      "lng": 34.466667
    },
    {
      "cityName": "BodrakTavricheskiy",
      "lat": 44.816667,
      "lng": 33.966667
    },
    {
      "cityName": "Bogatovka",
      "lat": 44.866667,
      "lng": 35.066667
    },
    {
      "cityName": "Bogatoye",
      "lat": 45.033333,
      "lng": 34.766667
    },
    {
      "cityName": "Bogatoye Ushchelye",
      "lat": 44.55,
      "lng": 33.883333
    },
    {
      "cityName": "Bogatyr",
      "lat": 44.583333,
      "lng": 34.016667
    },
    {
      "cityName": "Bogemka",
      "lat": 45.766667,
      "lng": 34.25
    },
    {
      "cityName": "Bogurchi",
      "lat": 44.983333,
      "lng": 34.166667
    },
    {
      "cityName": "Bolshaya Magazinka",
      "lat": 45.866667,
      "lng": 34.05
    },
    {
      "cityName": "Bolshiye Kelechi",
      "lat": 45.25,
      "lng": 35.116667
    },
    {
      "cityName": "Bolshoy Arpach",
      "lat": 45.05,
      "lng": 35.883333
    },
    {
      "cityName": "Bolshoy Babchik",
      "lat": 45.427778,
      "lng": 36.323889
    },
    {
      "cityName": "Bolshoy Taraktash",
      "lat": 44.9,
      "lng": 35
    },
    {
      "cityName": "Bolshoy Yar",
      "lat": 45.433333,
      "lng": 32.616667
    },
    {
      "cityName": "Bondarenkove",
      "lat": 45.403333,
      "lng": 36.488056
    },
    {
      "cityName": "Bondarenkovo",
      "lat": 44.616667,
      "lng": 34.383333
    },
    {
      "cityName": "Borangar",
      "lat": 45.4,
      "lng": 34.2
    },
    {
      "cityName": "Borba",
      "lat": 45.466667,
      "lng": 34.133333
    },
    {
      "cityName": "BorChokrak",
      "lat": 44.916667,
      "lng": 34.083333
    },
    {
      "cityName": "Borisovka",
      "lat": 45.866667,
      "lng": 33.65
    },
    {
      "cityName": "Borlak",
      "lat": 45.583333,
      "lng": 34.366667
    },
    {
      "cityName": "Borodino",
      "lat": 45.633333,
      "lng": 34.666667
    },
    {
      "cityName": "Bospora",
      "lat": 45.358333,
      "lng": 36.475833
    },
    {
      "cityName": "Botanicheskoye",
      "lat": 44.533333,
      "lng": 34.233333
    },
    {
      "cityName": "Botash",
      "lat": 45.516667,
      "lng": 33.633333
    },
    {
      "cityName": "Boy Kazak Tatarskiy",
      "lat": 45.85,
      "lng": 33.75
    },
    {
      "cityName": "Boykova",
      "lat": 45.216667,
      "lng": 35.85
    },
    {
      "cityName": "BozDzhaychi",
      "lat": 45.5,
      "lng": 33.55
    },
    {
      "cityName": "Bozgos",
      "lat": 45.65,
      "lng": 34.05
    },
    {
      "cityName": "Bozgos Kitay",
      "lat": 45.65,
      "lng": 34
    },
    {
      "cityName": "Brannoye Pole",
      "lat": 45.266667,
      "lng": 35.666667
    },
    {
      "cityName": "Bryanskoye",
      "lat": 45.583333,
      "lng": 33.5
    },
    {
      "cityName": "Budanovka",
      "lat": 45.2,
      "lng": 34.716667
    },
    {
      "cityName": "Budënnovka",
      "lat": 45.6,
      "lng": 34.9
    },
    {
      "cityName": "Budënnovo",
      "lat": 45.483333,
      "lng": 33.883333
    },
    {
      "cityName": "Budënovo",
      "lat": 45.683333,
      "lng": 33.85
    },
    {
      "cityName": "Budke",
      "lat": 44.933333,
      "lng": 34.033333
    },
    {
      "cityName": "Bugristoye",
      "lat": 45.566667,
      "lng": 33.9
    },
    {
      "cityName": "Bulatchi",
      "lat": 45.316667,
      "lng": 34.033333
    },
    {
      "cityName": "Bulgak",
      "lat": 45.366667,
      "lng": 33.783333
    },
    {
      "cityName": "BulganakBodrak",
      "lat": 44.933333,
      "lng": 33.866667
    },
    {
      "cityName": "Bulganak",
      "lat": 44.933333,
      "lng": 33.783333
    },
    {
      "cityName": "Burchi",
      "lat": 45.333333,
      "lng": 34.45
    },
    {
      "cityName": "Burlyuk Alma",
      "lat": 44.85,
      "lng": 33.65
    },
    {
      "cityName": "Burnak",
      "lat": 45.45,
      "lng": 33.783333
    },
    {
      "cityName": "Burni",
      "lat": 45.433333,
      "lng": 34.016667
    },
    {
      "cityName": "Burulcha",
      "lat": 45.066667,
      "lng": 34.416667
    },
    {
      "cityName": "BurunEli",
      "lat": 45.65,
      "lng": 32.966667
    },
    {
      "cityName": "Busturcha",
      "lat": 45.116667,
      "lng": 34.416667
    },
    {
      "cityName": "BuzavAktachi",
      "lat": 45.5,
      "lng": 33.666667
    },
    {
      "cityName": "BuzulDzhankoy",
      "lat": 45.316667,
      "lng": 33.633333
    },
    {
      "cityName": "Byuten",
      "lat": 45.266667,
      "lng": 34.05
    },
    {
      "cityName": "Chaltemir",
      "lat": 45.2,
      "lng": 35.883333
    },
    {
      "cityName": "Chapayevka",
      "lat": 45.3,
      "lng": 34.916667
    },
    {
      "cityName": "Chatay",
      "lat": 45.366667,
      "lng": 33.366667
    },
    {
      "cityName": "Chavke",
      "lat": 44.85,
      "lng": 34.3
    },
    {
      "cityName": "Chayan",
      "lat": 45.4,
      "lng": 33.3
    },
    {
      "cityName": "Chaykino",
      "lat": 45.083333,
      "lng": 34.083333
    },
    {
      "cityName": "Cheberdysh",
      "lat": 45.316667,
      "lng": 33.166667
    },
    {
      "cityName": "Chegeni",
      "lat": 45.429722,
      "lng": 36.085556
    },
    {
      "cityName": "Chegerchi",
      "lat": 45.383333,
      "lng": 35.9
    },
    {
      "cityName": "ChegirDekli",
      "lat": 45.783333,
      "lng": 33.916667
    },
    {
      "cityName": "Chegoltay",
      "lat": 45.65,
      "lng": 33.083333
    },
    {
      "cityName": "ChekurKoyash",
      "lat": 45.045833,
      "lng": 36.204444
    },
    {
      "cityName": "ChelebiEli",
      "lat": 45.1,
      "lng": 34.983333
    },
    {
      "cityName": "Chelle",
      "lat": 45.216667,
      "lng": 34.1
    },
    {
      "cityName": "Chelochik",
      "lat": 45.468056,
      "lng": 36.214722
    },
    {
      "cityName": "Chelyabintsevo",
      "lat": 45.195833,
      "lng": 36.381944
    },
    {
      "cityName": "Cherkez",
      "lat": 45.666667,
      "lng": 33.583333
    },
    {
      "cityName": "CherkezEli",
      "lat": 44.866667,
      "lng": 33.783333
    },
    {
      "cityName": "Chermalyk",
      "lat": 44.95,
      "lng": 34.75
    },
    {
      "cityName": "Chernomorskoye",
      "lat": 45.033333,
      "lng": 35.983333
    },
    {
      "cityName": "Chernopolye",
      "lat": 45.05,
      "lng": 34.65
    },
    {
      "cityName": "Chernozëmnaya",
      "lat": 45.4,
      "lng": 34.816667
    },
    {
      "cityName": "Chernushki",
      "lat": 45.416667,
      "lng": 33.233333
    },
    {
      "cityName": "Chernyakovo",
      "lat": 45.277778,
      "lng": 36.181667
    },
    {
      "cityName": "Chernyy Kosh",
      "lat": 45.483333,
      "lng": 35.066667
    },
    {
      "cityName": "Chervonnoye",
      "lat": 45.466667,
      "lng": 34.666667
    },
    {
      "cityName": "Chetty",
      "lat": 45.283333,
      "lng": 34.666667
    },
    {
      "cityName": "Chetvërtyy Kazënnyy Uchastok",
      "lat": 46.016667,
      "lng": 33.783333
    },
    {
      "cityName": "Chiche",
      "lat": 45.316667,
      "lng": 34.166667
    },
    {
      "cityName": "Chipchi",
      "lat": 45.9,
      "lng": 34.183333
    },
    {
      "cityName": "Chistenkaya",
      "lat": 44.883333,
      "lng": 34.05
    },
    {
      "cityName": "Chistopolye",
      "lat": 45.361111,
      "lng": 36.176111
    },
    {
      "cityName": "Chkalovsk",
      "lat": 45.6,
      "lng": 34.85
    },
    {
      "cityName": "Chokrak",
      "lat": 45.4,
      "lng": 32.766667
    },
    {
      "cityName": "ChokraklySheykh Eli",
      "lat": 45.7,
      "lng": 34.35
    },
    {
      "cityName": "Chokul Russkiy",
      "lat": 45.3,
      "lng": 35.85
    },
    {
      "cityName": "Chokul Tatarskiy",
      "lat": 45.316667,
      "lng": 35.85
    },
    {
      "cityName": "Cholbashi",
      "lat": 45.483333,
      "lng": 34.383333
    },
    {
      "cityName": "Cholgary",
      "lat": 45.15,
      "lng": 34.1
    },
    {
      "cityName": "Chondalay",
      "lat": 45.55,
      "lng": 33.466667
    },
    {
      "cityName": "Chongelek Tatarskiy",
      "lat": 45.147222,
      "lng": 36.393611
    },
    {
      "cityName": "Chongurchi",
      "lat": 45.583333,
      "lng": 33.166667
    },
    {
      "cityName": "Chorelek",
      "lat": 45.108889,
      "lng": 36.334722
    },
    {
      "cityName": "Chornomorske",
      "lat": 45.503889,
      "lng": 32.699722
    },
    {
      "cityName": "Chucha",
      "lat": 45.516667,
      "lng": 34.716667
    },
    {
      "cityName": "Churabash",
      "lat": 45.27,
      "lng": 36.3375
    },
    {
      "cityName": "Churyuk",
      "lat": 46.066667,
      "lng": 33.833333
    },
    {
      "cityName": "Dachnoye",
      "lat": 44.883333,
      "lng": 34.983333
    },
    {
      "cityName": "Dalniye Kamyshi",
      "lat": 45.116667,
      "lng": 35.483333
    },
    {
      "cityName": "Dalnyaya Baybuga",
      "lat": 45.05,
      "lng": 35.3
    },
    {
      "cityName": "Daryevka",
      "lat": 45.6,
      "lng": 33.433333
    },
    {
      "cityName": "Dauldzhar",
      "lat": 45.6,
      "lng": 33.1
    },
    {
      "cityName": "Davydovka",
      "lat": 45.15,
      "lng": 33.8
    },
    {
      "cityName": "Dede",
      "lat": 46.05,
      "lng": 33.65
    },
    {
      "cityName": "Degermenkoy",
      "lat": 44.6,
      "lng": 34.316667
    },
    {
      "cityName": "Demerdzhi",
      "lat": 44.75,
      "lng": 34.4
    },
    {
      "cityName": "Denisovka",
      "lat": 44.933333,
      "lng": 34.216667
    },
    {
      "cityName": "DenizBaychi",
      "lat": 45.533333,
      "lng": 33.216667
    },
    {
      "cityName": "Der Emes",
      "lat": 45.779444,
      "lng": 33.847778
    },
    {
      "cityName": "Derevnya Karlav",
      "lat": 45.533333,
      "lng": 32.85
    },
    {
      "cityName": "Devlet Ali",
      "lat": 45.483333,
      "lng": 33.933333
    },
    {
      "cityName": "Divnoye",
      "lat": 45.716667,
      "lng": 33.35
    },
    {
      "cityName": "Dmitriyevka",
      "lat": 45.216667,
      "lng": 35.133333
    },
    {
      "cityName": "Dobroye",
      "lat": 44.883333,
      "lng": 34.216667
    },
    {
      "cityName": "Dolinka",
      "lat": 45.866667,
      "lng": 33.933333
    },
    {
      "cityName": "Dolinnoye",
      "lat": 44.75,
      "lng": 33.766667
    },
    {
      "cityName": "Dolinovka",
      "lat": 45.133333,
      "lng": 34.383333
    },
    {
      "cityName": "Dolossy",
      "lat": 44.533333,
      "lng": 34.2
    },
    {
      "cityName": "Donuzlav",
      "lat": 45.5,
      "lng": 33.266667
    },
    {
      "cityName": "Doroshenko",
      "lat": 45.216667,
      "lng": 35.95
    },
    {
      "cityName": "Dorte",
      "lat": 45.366667,
      "lng": 34.716667
    },
    {
      "cityName": "DortKul",
      "lat": 44.966667,
      "lng": 33.7
    },
    {
      "cityName": "Dshankoi",
      "lat": 45.716667,
      "lng": 34.4
    },
    {
      "cityName": "Dsheilaw",
      "lat": 45.433333,
      "lng": 36.216667
    },
    {
      "cityName": "Dubrovskoye",
      "lat": 45.383333,
      "lng": 34.133333
    },
    {
      "cityName": "Dulat",
      "lat": 45.55,
      "lng": 34.716667
    },
    {
      "cityName": "Dvuyakorny",
      "lat": 44.983333,
      "lng": 35.366667
    },
    {
      "cityName": "Dyurmen",
      "lat": 45.033333,
      "lng": 35.966667
    },
    {
      "cityName": "Dzhabach",
      "lat": 45.016667,
      "lng": 33.783333
    },
    {
      "cityName": "Dzhabaga",
      "lat": 45.283333,
      "lng": 33.733333
    },
    {
      "cityName": "DzhafarBerdy",
      "lat": 44.9,
      "lng": 34.283333
    },
    {
      "cityName": "Dzhagachegeradzhi",
      "lat": 45.383333,
      "lng": 32.9
    },
    {
      "cityName": "DzhagaKulchuk",
      "lat": 45.366667,
      "lng": 32.833333
    },
    {
      "cityName": "DzhagaMamysh",
      "lat": 45.183333,
      "lng": 34.083333
    },
    {
      "cityName": "DzhagaSheykhEli",
      "lat": 45.333333,
      "lng": 34.383333
    },
    {
      "cityName": "DzhagoKipchak",
      "lat": 45.55,
      "lng": 34.866667
    },
    {
      "cityName": "DzhalairChatu",
      "lat": 45.266667,
      "lng": 34.616667
    },
    {
      "cityName": "Dzhalair",
      "lat": 45.3,
      "lng": 34.566667
    },
    {
      "cityName": "Dzhamal",
      "lat": 45.543889,
      "lng": 33.079722
    },
    {
      "cityName": "Dzhamanak",
      "lat": 45.566667,
      "lng": 33.25
    },
    {
      "cityName": "Dzhambuldu",
      "lat": 45.6,
      "lng": 34.283333
    },
    {
      "cityName": "Dzhanay",
      "lat": 45.866667,
      "lng": 34.2
    },
    {
      "cityName": "Dzhanbaba",
      "lat": 45.35,
      "lng": 32.716667
    },
    {
      "cityName": "Dzhangara",
      "lat": 45.5,
      "lng": 34.333333
    },
    {
      "cityName": "Dzhanlar",
      "lat": 45.45,
      "lng": 34.05
    },
    {
      "cityName": "Dzhantera",
      "lat": 45.266667,
      "lng": 35.466667
    },
    {
      "cityName": "Dzhapar",
      "lat": 45.288056,
      "lng": 36.285278
    },
    {
      "cityName": "DzhaparYurt",
      "lat": 45.4,
      "lng": 34.916667
    },
    {
      "cityName": "Dzhardzhava",
      "lat": 45.337778,
      "lng": 36.411389
    },
    {
      "cityName": "DzhavBoryu",
      "lat": 45.4,
      "lng": 34.3
    },
    {
      "cityName": "Dzhavdzhurek",
      "lat": 44.933333,
      "lng": 33.733333
    },
    {
      "cityName": "Dzhavgachty",
      "lat": 45.616667,
      "lng": 33.816667
    },
    {
      "cityName": "Dzhavlush",
      "lat": 45.183333,
      "lng": 34.566667
    },
    {
      "cityName": "DzhavTobe",
      "lat": 45.15,
      "lng": 35.95
    },
    {
      "cityName": "Dzhaylau",
      "lat": 45.116667,
      "lng": 35
    },
    {
      "cityName": "Dzhelal",
      "lat": 45.466667,
      "lng": 33.566667
    },
    {
      "cityName": "Dzhelishay",
      "lat": 45.816667,
      "lng": 33.816667
    },
    {
      "cityName": "Dzhelkedzhi Eli",
      "lat": 45.166667,
      "lng": 36.2
    },
    {
      "cityName": "Dzhien Sofu",
      "lat": 45.516667,
      "lng": 34.05
    },
    {
      "cityName": "Dzhilkuy",
      "lat": 45.3,
      "lng": 34.25
    },
    {
      "cityName": "Dzholchak",
      "lat": 45.333333,
      "lng": 33.483333
    },
    {
      "cityName": "Dzhugen",
      "lat": 45.683333,
      "lng": 33.283333
    },
    {
      "cityName": "Dzhulga",
      "lat": 46.083333,
      "lng": 33.7
    },
    {
      "cityName": "DzhumaAblam",
      "lat": 45.316667,
      "lng": 33.916667
    },
    {
      "cityName": "DzhumaEli",
      "lat": 45.133333,
      "lng": 35.066667
    },
    {
      "cityName": "Dzhurchi",
      "lat": 45.709722,
      "lng": 33.86
    },
    {
      "cityName": "Dzhurgun",
      "lat": 45.683333,
      "lng": 34.316667
    },
    {
      "cityName": "EfendiKoy",
      "lat": 45.016667,
      "lng": 34.483333
    },
    {
      "cityName": "Ekibash",
      "lat": 45.216667,
      "lng": 33.983333
    },
    {
      "cityName": "Ekonomiya SyrtayKasporyu",
      "lat": 45.616667,
      "lng": 33.216667
    },
    {
      "cityName": "Elbuzly",
      "lat": 44.966667,
      "lng": 34.983333
    },
    {
      "cityName": "ElgeryAblam",
      "lat": 45.3,
      "lng": 33.9
    },
    {
      "cityName": "ElgeryKarachkora",
      "lat": 45.616667,
      "lng": 34.033333
    },
    {
      "cityName": "ElgeryKaspir",
      "lat": 45.616667,
      "lng": 33.233333
    },
    {
      "cityName": "Eltigen",
      "lat": 45.222222,
      "lng": 36.404167
    },
    {
      "cityName": "Eltok",
      "lat": 45.483333,
      "lng": 33.45
    },
    {
      "cityName": "Elzas",
      "lat": 44.983333,
      "lng": 33.75
    },
    {
      "cityName": "EmirOrlyuk",
      "lat": 45.7,
      "lng": 33.4
    },
    {
      "cityName": "Eriklik",
      "lat": 44.466667,
      "lng": 34.133333
    },
    {
      "cityName": "EsekEki",
      "lat": 45.2,
      "lng": 34.983333
    },
    {
      "cityName": "Eshkene",
      "lat": 45.316667,
      "lng": 34.666667
    },
    {
      "cityName": "EskiAliKech",
      "lat": 45.583333,
      "lng": 33.633333
    },
    {
      "cityName": "Eski Krym",
      "lat": 45.033333,
      "lng": 35.1
    },
    {
      "cityName": "EskiOrda",
      "lat": 44.916667,
      "lng": 34.166667
    },
    {
      "cityName": "Eski Yurt",
      "lat": 44.95,
      "lng": 34.9
    },
    {
      "cityName": "Eupatoria",
      "lat": 45.197222,
      "lng": 33.355833
    },
    {
      "cityName": "Fëdorovka",
      "lat": 44.866667,
      "lng": 33.9
    },
    {
      "cityName": "Feodosia",
      "lat": 45.033333,
      "lng": 35.383333
    },
    {
      "cityName": "Ferngeim",
      "lat": 45.333333,
      "lng": 35.083333
    },
    {
      "cityName": "Fersmanovo",
      "lat": 44.9,
      "lng": 34.166667
    },
    {
      "cityName": "Filatovka",
      "lat": 46.083333,
      "lng": 33.783333
    },
    {
      "cityName": "Fontan",
      "lat": 45.261111,
      "lng": 36.020278
    },
    {
      "cityName": "Foros",
      "lat": 44.4,
      "lng": 33.783333
    },
    {
      "cityName": "FortiSala",
      "lat": 44.6,
      "lng": 33.9
    },
    {
      "cityName": "Fraydorf",
      "lat": 45.436389,
      "lng": 33.598611
    },
    {
      "cityName": "Fridental",
      "lat": 44.983333,
      "lng": 34.366667
    },
    {
      "cityName": "Frontovoye",
      "lat": 45.183333,
      "lng": 35.483333
    },
    {
      "cityName": "Frunze",
      "lat": 45.016667,
      "lng": 33.633333
    },
    {
      "cityName": "Frunzevka",
      "lat": 45.266667,
      "lng": 33.083333
    },
    {
      "cityName": "Galuboy Zaliv",
      "lat": 44.416667,
      "lng": 33.983333
    },
    {
      "cityName": "Gaspra",
      "lat": 44.433333,
      "lng": 34.1
    },
    {
      "cityName": "Gavro",
      "lat": 44.583333,
      "lng": 33.966667
    },
    {
      "cityName": "Gelenoye",
      "lat": 44.6,
      "lng": 34.016667
    },
    {
      "cityName": "Generalskoye",
      "lat": 44.8,
      "lng": 34.483333
    },
    {
      "cityName": "Geroyskaya",
      "lat": 45.8,
      "lng": 33.483333
    },
    {
      "cityName": "Gertsenberg",
      "lat": 45.016667,
      "lng": 35.35
    },
    {
      "cityName": "Geylbruk",
      "lat": 45.116667,
      "lng": 35.05
    },
    {
      "cityName": "Gleyki",
      "lat": 45.379167,
      "lng": 36.641111
    },
    {
      "cityName": "Glubokiy Yar",
      "lat": 44.766667,
      "lng": 33.933333
    },
    {
      "cityName": "Golovanovka",
      "lat": 44.983333,
      "lng": 34.616667
    },
    {
      "cityName": "Goluboye",
      "lat": 45.103889,
      "lng": 36.309167
    },
    {
      "cityName": "Goncharova",
      "lat": 44.983333,
      "lng": 35.266667
    },
    {
      "cityName": "Goncharovka",
      "lat": 45.066667,
      "lng": 35.166667
    },
    {
      "cityName": "Goreloye",
      "lat": 44.916667,
      "lng": 33.7
    },
    {
      "cityName": "Gorlovka",
      "lat": 45.616667,
      "lng": 34.016667
    },
    {
      "cityName": "Gornostayevka",
      "lat": 45.266944,
      "lng": 36.192222
    },
    {
      "cityName": "Goropashnik",
      "lat": 45.166667,
      "lng": 33.65
    },
    {
      "cityName": "Grecheskaya Krinichka",
      "lat": 45.066667,
      "lng": 35.1
    },
    {
      "cityName": "Gresovskiy",
      "lat": 45.033333,
      "lng": 34.016667
    },
    {
      "cityName": "Grigoryevka",
      "lat": 45.416667,
      "lng": 34.116667
    },
    {
      "cityName": "Grishino",
      "lat": 45.65,
      "lng": 33.833333
    },
    {
      "cityName": "Gromovka",
      "lat": 44.866667,
      "lng": 34.783333
    },
    {
      "cityName": "Gromovo",
      "lat": 45.383333,
      "lng": 32.866667
    },
    {
      "cityName": "Grushevka",
      "lat": 45.016667,
      "lng": 34.983333
    },
    {
      "cityName": "Gursuf",
      "lat": 44.55,
      "lng": 34.283333
    },
    {
      "cityName": "Gvardeyskoye",
      "lat": 45.116667,
      "lng": 34.016667
    },
    {
      "cityName": "Hosta",
      "lat": 45.116667,
      "lng": 34.233333
    },
    {
      "cityName": "IbraimBay",
      "lat": 45.066667,
      "lng": 33.75
    },
    {
      "cityName": "IbraimKonrat",
      "lat": 45.616667,
      "lng": 33.583333
    },
    {
      "cityName": "IbrashEli",
      "lat": 45.383333,
      "lng": 33.133333
    },
    {
      "cityName": "IchkiGrammatikovo",
      "lat": 45.333333,
      "lng": 34.933333
    },
    {
      "cityName": "IdeshEli",
      "lat": 44.8,
      "lng": 33.8
    },
    {
      "cityName": "Igorevka",
      "lat": 45.166667,
      "lng": 33.833333
    },
    {
      "cityName": "Ilichevka",
      "lat": 44.666667,
      "lng": 34.383333
    },
    {
      "cityName": "Ilichevo",
      "lat": 45.25,
      "lng": 35.066667
    },
    {
      "cityName": "Ilichevskoye",
      "lat": 44.85,
      "lng": 34.966667
    },
    {
      "cityName": "Ilichovo",
      "lat": 45.283333,
      "lng": 35.733333
    },
    {
      "cityName": "Ioganensfeldt",
      "lat": 45.566667,
      "lng": 34.266667
    },
    {
      "cityName": "Isar",
      "lat": 44.5,
      "lng": 34.1
    },
    {
      "cityName": "Ishchun",
      "lat": 45.921944,
      "lng": 33.824722
    },
    {
      "cityName": "Ishun",
      "lat": 45.383333,
      "lng": 34.283333
    },
    {
      "cityName": "IshunNemetskiy",
      "lat": 45.533333,
      "lng": 34.116667
    },
    {
      "cityName": "IslamTerek",
      "lat": 45.233333,
      "lng": 35.216667
    },
    {
      "cityName": "Istochnoye",
      "lat": 45.816667,
      "lng": 34.133333
    },
    {
      "cityName": "Itak",
      "lat": 45.383333,
      "lng": 34.15
    },
    {
      "cityName": "Ivanivka",
      "lat": 45.066667,
      "lng": 33.65
    },
    {
      "cityName": "Izobilnoye",
      "lat": 44.716667,
      "lng": 34.35
    },
    {
      "cityName": "Izvestkovoye",
      "lat": 45.483333,
      "lng": 34
    },
    {
      "cityName": "Izyumovka",
      "lat": 45.05,
      "lng": 35.15
    },
    {
      "cityName": "Jalta",
      "lat": 44.5,
      "lng": 34.166667
    },
    {
      "cityName": "Kabanchuk",
      "lat": 45.433333,
      "lng": 33.65
    },
    {
      "cityName": "Kaburchak",
      "lat": 45.066667,
      "lng": 34.716667
    },
    {
      "cityName": "Kachan",
      "lat": 45.311111,
      "lng": 36.059722
    },
    {
      "cityName": "Kadagay",
      "lat": 45.616667,
      "lng": 34.233333
    },
    {
      "cityName": "KadyEskerKoy",
      "lat": 45.133333,
      "lng": 34.283333
    },
    {
      "cityName": "KadyKoy",
      "lat": 45.116667,
      "lng": 34.183333
    },
    {
      "cityName": "KadyrBaly",
      "lat": 45.216667,
      "lng": 33.883333
    },
    {
      "cityName": "Kadysh",
      "lat": 45.583333,
      "lng": 33.533333
    },
    {
      "cityName": "Kadzhambak",
      "lat": 45.65,
      "lng": 33.666667
    },
    {
      "cityName": "Kakhovskoye",
      "lat": 44.983333,
      "lng": 34.066667
    },
    {
      "cityName": "Kalendo",
      "lat": 44.45,
      "lng": 33.816667
    },
    {
      "cityName": "Kalinindorf",
      "lat": 45.733333,
      "lng": 33.766667
    },
    {
      "cityName": "Kalinino",
      "lat": 45.6,
      "lng": 34.233333
    },
    {
      "cityName": "Kalinpvka",
      "lat": 45.326667,
      "lng": 36.202222
    },
    {
      "cityName": "KalmuKara",
      "lat": 45.05,
      "lng": 34.25
    },
    {
      "cityName": "Kambar",
      "lat": 45.15,
      "lng": 33.9
    },
    {
      "cityName": "Kamkino",
      "lat": 45.75,
      "lng": 34.333333
    },
    {
      "cityName": "Kamyshinka",
      "lat": 45.333333,
      "lng": 35.866667
    },
    {
      "cityName": "Kamyshlyk",
      "lat": 45,
      "lng": 34.9
    },
    {
      "cityName": "Kamyshnoye",
      "lat": 45.8,
      "lng": 33.666667
    },
    {
      "cityName": "Kangil",
      "lat": 45.133333,
      "lng": 34.033333
    },
    {
      "cityName": "Kangyl",
      "lat": 45.283333,
      "lng": 33.533333
    },
    {
      "cityName": "Kapkany",
      "lat": 45.349444,
      "lng": 36.580833
    },
    {
      "cityName": "Kapsikhor",
      "lat": 44.833333,
      "lng": 34.8
    },
    {
      "cityName": "KarabayIvanovka",
      "lat": 45.2,
      "lng": 35.033333
    },
    {
      "cityName": "Karabay",
      "lat": 45.133333,
      "lng": 34.566667
    },
    {
      "cityName": "KarachaIlyak",
      "lat": 45.35,
      "lng": 33.95
    },
    {
      "cityName": "KarachaOrlyuk",
      "lat": 45.666667,
      "lng": 33.333333
    },
    {
      "cityName": "KarachBarach",
      "lat": 45.866667,
      "lng": 34.25
    },
    {
      "cityName": "Karach",
      "lat": 44.883333,
      "lng": 34
    },
    {
      "cityName": "Karadcha",
      "lat": 45.383333,
      "lng": 32.533333
    },
    {
      "cityName": "Karadzha",
      "lat": 45.366667,
      "lng": 32.533333
    },
    {
      "cityName": "Karadzhanay",
      "lat": 46.116667,
      "lng": 33.783333
    },
    {
      "cityName": "KaraGodzha",
      "lat": 45.6,
      "lng": 33.866667
    },
    {
      "cityName": "Karakurt",
      "lat": 45.25,
      "lng": 33.666667
    },
    {
      "cityName": "KaralarKipchak",
      "lat": 45.433333,
      "lng": 33.2
    },
    {
      "cityName": "Karalarskaya",
      "lat": 45.421111,
      "lng": 36.191667
    },
    {
      "cityName": "Karama",
      "lat": 45.396944,
      "lng": 36.277222
    },
    {
      "cityName": "KaraMerkit",
      "lat": 45.616667,
      "lng": 33.35
    },
    {
      "cityName": "Karamin",
      "lat": 45.533333,
      "lng": 34.65
    },
    {
      "cityName": "KaraNayman",
      "lat": 45.7,
      "lng": 33.65
    },
    {
      "cityName": "Karangut",
      "lat": 45.633333,
      "lng": 34.333333
    },
    {
      "cityName": "Karanki",
      "lat": 45.283333,
      "lng": 34.833333
    },
    {
      "cityName": "Karankut Russkiy",
      "lat": 45.616667,
      "lng": 34.333333
    },
    {
      "cityName": "Karasan",
      "lat": 45.35,
      "lng": 34.35
    },
    {
      "cityName": "KaraSofu",
      "lat": 45.55,
      "lng": 34.066667
    },
    {
      "cityName": "Karatayak",
      "lat": 45.366667,
      "lng": 33.633333
    },
    {
      "cityName": "KaraTobel",
      "lat": 45.633333,
      "lng": 34.933333
    },
    {
      "cityName": "KaraulDzhangara",
      "lat": 45.516667,
      "lng": 34.083333
    },
    {
      "cityName": "Karayevo",
      "lat": 45.4,
      "lng": 33.266667
    },
    {
      "cityName": "Karchagi",
      "lat": 45.633333,
      "lng": 33.266667
    },
    {
      "cityName": "Karlo",
      "lat": 44.583333,
      "lng": 33.866667
    },
    {
      "cityName": "Karlovka",
      "lat": 45.1,
      "lng": 34.4
    },
    {
      "cityName": "Karmysh Kilechi",
      "lat": 45.266667,
      "lng": 35.983333
    },
    {
      "cityName": "Karpolu",
      "lat": 45.45,
      "lng": 33.283333
    },
    {
      "cityName": "Karpova Balka",
      "lat": 46.05,
      "lng": 33.816667
    },
    {
      "cityName": "Karsan",
      "lat": 45.116667,
      "lng": 35.916667
    },
    {
      "cityName": "KartBiy",
      "lat": 45.266667,
      "lng": 33.233333
    },
    {
      "cityName": "KartKazak Nomer Tretiy",
      "lat": 45.966667,
      "lng": 33.716667
    },
    {
      "cityName": "KartKazak Number 1",
      "lat": 46.016667,
      "lng": 33.683333
    },
    {
      "cityName": "Kartmyshik Nemetskiy",
      "lat": 45.116667,
      "lng": 33.916667
    },
    {
      "cityName": "Kary",
      "lat": 45.183333,
      "lng": 36.033333
    },
    {
      "cityName": "KaryKomzet",
      "lat": 45.45,
      "lng": 33.35
    },
    {
      "cityName": "Kashik Dzhermay",
      "lat": 45.3,
      "lng": 35.933333
    },
    {
      "cityName": "Kashtanovka",
      "lat": 45.433333,
      "lng": 33.9
    },
    {
      "cityName": "Kastropol",
      "lat": 44.4,
      "lng": 33.9
    },
    {
      "cityName": "Katerlez",
      "lat": 45.386944,
      "lng": 36.434722
    },
    {
      "cityName": "KatyrshaSaray",
      "lat": 45.05,
      "lng": 34.75
    },
    {
      "cityName": "KayalySart",
      "lat": 45.240833,
      "lng": 36.061944
    },
    {
      "cityName": "Kaymachi",
      "lat": 45.533333,
      "lng": 33.433333
    },
    {
      "cityName": "Kaymak",
      "lat": 45.483333,
      "lng": 33.166667
    },
    {
      "cityName": "Kaynash",
      "lat": 45.316667,
      "lng": 34.95
    },
    {
      "cityName": "KazanBerlik",
      "lat": 45.2,
      "lng": 34.2
    },
    {
      "cityName": "Kazanki Vakuf",
      "lat": 45.533333,
      "lng": 34.85
    },
    {
      "cityName": "Kazanly",
      "lat": 44.95,
      "lng": 34.5
    },
    {
      "cityName": "Kazanpir",
      "lat": 45.283333,
      "lng": 34.75
    },
    {
      "cityName": "KazantipKosa",
      "lat": 45.433333,
      "lng": 35.816667
    },
    {
      "cityName": "KazbiyEli",
      "lat": 44.833333,
      "lng": 33.816667
    },
    {
      "cityName": "Kechegen",
      "lat": 45.151389,
      "lng": 36.294444
    },
    {
      "cityName": "Kekeneiz",
      "lat": 44.4,
      "lng": 33.933333
    },
    {
      "cityName": "Kelechi",
      "lat": 45.433333,
      "lng": 33.133333
    },
    {
      "cityName": "Kelscheich",
      "lat": 45.45,
      "lng": 32.716667
    },
    {
      "cityName": "Kemelchi",
      "lat": 45.383333,
      "lng": 34.416667
    },
    {
      "cityName": "Kendzhe",
      "lat": 45.466667,
      "lng": 34.216667
    },
    {
      "cityName": "Kenegez",
      "lat": 45.087778,
      "lng": 36.170833
    },
    {
      "cityName": "Kentugay",
      "lat": 45.083333,
      "lng": 34.316667
    },
    {
      "cityName": "Kerleut",
      "lat": 45.133333,
      "lng": 35.7
    },
    {
      "cityName": "Kezy",
      "lat": 45.434444,
      "lng": 36.350556
    },
    {
      "cityName": "KhadzhiBulat",
      "lat": 46.05,
      "lng": 34
    },
    {
      "cityName": "Khanyshkoy",
      "lat": 44.866667,
      "lng": 33.733333
    },
    {
      "cityName": "KhardzhiBiye",
      "lat": 45.083333,
      "lng": 36
    },
    {
      "cityName": "KharsyzShiban",
      "lat": 45.2,
      "lng": 35.5
    },
    {
      "cityName": "Khlebnoye",
      "lat": 45.133333,
      "lng": 34.85
    },
    {
      "cityName": "Khmelëvo",
      "lat": 45.5,
      "lng": 33.183333
    },
    {
      "cityName": "Khmelnitskoye",
      "lat": 45.333333,
      "lng": 34.116667
    },
    {
      "cityName": "Kholmogorye",
      "lat": 45.166667,
      "lng": 34.833333
    },
    {
      "cityName": "Kidyar",
      "lat": 45.516667,
      "lng": 33.983333
    },
    {
      "cityName": "Kilburun",
      "lat": 44.883333,
      "lng": 34.2
    },
    {
      "cityName": "Kiparisnoye",
      "lat": 44.583333,
      "lng": 34.366667
    },
    {
      "cityName": "Kipchak",
      "lat": 45.085556,
      "lng": 36.025556
    },
    {
      "cityName": "KirgizKazak",
      "lat": 45.666667,
      "lng": 33.133333
    },
    {
      "cityName": "Kirillovka",
      "lat": 45.45,
      "lng": 32.966667
    },
    {
      "cityName": "Kirk Cholpan",
      "lat": 45.583333,
      "lng": 33.566667
    },
    {
      "cityName": "Kirk",
      "lat": 45.05,
      "lng": 34.216667
    },
    {
      "cityName": "Kirk Nemetskiy",
      "lat": 45.483333,
      "lng": 34.983333
    },
    {
      "cityName": "Kirkulach",
      "lat": 45.5,
      "lng": 33.016667
    },
    {
      "cityName": "Kirleut",
      "lat": 45.583333,
      "lng": 32.933333
    },
    {
      "cityName": "Kirsanovka",
      "lat": 45.5,
      "lng": 34.8
    },
    {
      "cityName": "Kishlav",
      "lat": 45.033333,
      "lng": 34.933333
    },
    {
      "cityName": "Kitay",
      "lat": 45.333056,
      "lng": 36.214722
    },
    {
      "cityName": "Kiten",
      "lat": 45.383333,
      "lng": 35.766667
    },
    {
      "cityName": "Kiyabak",
      "lat": 45.25,
      "lng": 34
    },
    {
      "cityName": "Kiyak",
      "lat": 45.733333,
      "lng": 34.066667
    },
    {
      "cityName": "Kiyet",
      "lat": 45.233333,
      "lng": 35.35
    },
    {
      "cityName": "KizAul",
      "lat": 45.070556,
      "lng": 36.321667
    },
    {
      "cityName": "KizilChokrak",
      "lat": 45.483333,
      "lng": 32.933333
    },
    {
      "cityName": "KizilKoba",
      "lat": 44.866667,
      "lng": 34.333333
    },
    {
      "cityName": "Kiziltash",
      "lat": 44.566667,
      "lng": 34.283333
    },
    {
      "cityName": "Klimovo",
      "lat": 45.483333,
      "lng": 34.483333
    },
    {
      "cityName": "KocharEli",
      "lat": 44.866667,
      "lng": 33.8
    },
    {
      "cityName": "Kodzhalar",
      "lat": 45.266667,
      "lng": 35.783333
    },
    {
      "cityName": "Kodzhanki",
      "lat": 45.108333,
      "lng": 36.0525
    },
    {
      "cityName": "Kokey",
      "lat": 45.383333,
      "lng": 33.766667
    },
    {
      "cityName": "Kokhtein",
      "lat": 45.533333,
      "lng": 34.4
    },
    {
      "cityName": "Kokkow",
      "lat": 44.55,
      "lng": 33.966667
    },
    {
      "cityName": "Kokrat",
      "lat": 44.983333,
      "lng": 34.416667
    },
    {
      "cityName": "Koktash",
      "lat": 44.966667,
      "lng": 34.783333
    },
    {
      "cityName": "Koktebel",
      "lat": 44.95,
      "lng": 35.25
    },
    {
      "cityName": "KolAlchin",
      "lat": 45.166667,
      "lng": 35.983333
    },
    {
      "cityName": "Kolkhoznoye",
      "lat": 44.466667,
      "lng": 33.883333
    },
    {
      "cityName": "Kolodeznoye",
      "lat": 45.033333,
      "lng": 33.866667
    },
    {
      "cityName": "Koloniya Bolgarskaya",
      "lat": 45.016667,
      "lng": 35.083333
    },
    {
      "cityName": "Kolonka",
      "lat": 45.359167,
      "lng": 36.528611
    },
    {
      "cityName": "Koltsovo",
      "lat": 45.333333,
      "lng": 33.45
    },
    {
      "cityName": "Komarovka",
      "lat": 45.35,
      "lng": 34.166667
    },
    {
      "cityName": "Kommuna Initsiativa",
      "lat": 45.201667,
      "lng": 36.367222
    },
    {
      "cityName": "Komrat",
      "lat": 45.133333,
      "lng": 35.883333
    },
    {
      "cityName": "Konchek",
      "lat": 45.083333,
      "lng": 36.133333
    },
    {
      "cityName": "KonchiShavva",
      "lat": 45.6,
      "lng": 34.083333
    },
    {
      "cityName": "Kongrat",
      "lat": 45.25,
      "lng": 34.983333
    },
    {
      "cityName": "Konservotrest",
      "lat": 45.379722,
      "lng": 36.215556
    },
    {
      "cityName": "Konstantinovka",
      "lat": 45.4,
      "lng": 34.6
    },
    {
      "cityName": "Kontugan",
      "lat": 45.033333,
      "lng": 33.7
    },
    {
      "cityName": "Kopkary Nemetskiye",
      "lat": 45.783333,
      "lng": 33.666667
    },
    {
      "cityName": "KopKipchak",
      "lat": 45.183333,
      "lng": 35.933333
    },
    {
      "cityName": "KopOtuz",
      "lat": 45.3,
      "lng": 35.183333
    },
    {
      "cityName": "KopTakil",
      "lat": 45.110556,
      "lng": 36.391944
    },
    {
      "cityName": "Koreiz",
      "lat": 44.433333,
      "lng": 34.083333
    },
    {
      "cityName": "Kormovoye",
      "lat": 45.5,
      "lng": 33.616667
    },
    {
      "cityName": "Korokel",
      "lat": 45.1,
      "lng": 35.433333
    },
    {
      "cityName": "Korortne",
      "lat": 45.475833,
      "lng": 36.3425
    },
    {
      "cityName": "KorotoKiyat",
      "lat": 45.633333,
      "lng": 33.3
    },
    {
      "cityName": "Korpech",
      "lat": 45.2,
      "lng": 35.433333
    },
    {
      "cityName": "Koshara",
      "lat": 45.533333,
      "lng": 33.85
    },
    {
      "cityName": "Koshay",
      "lat": 45.2,
      "lng": 35.683333
    },
    {
      "cityName": "KoshKuyu",
      "lat": 45.310556,
      "lng": 36.231389
    },
    {
      "cityName": "Koshtanovka",
      "lat": 45.75,
      "lng": 34.133333
    },
    {
      "cityName": "Kostel",
      "lat": 45.3,
      "lng": 34.2
    },
    {
      "cityName": "Kostyrine",
      "lat": 45.147778,
      "lng": 36.366667
    },
    {
      "cityName": "Kotovskoye",
      "lat": 45.7,
      "lng": 33.166667
    },
    {
      "cityName": "Kotur",
      "lat": 45.283333,
      "lng": 33.6
    },
    {
      "cityName": "Koush",
      "lat": 44.633333,
      "lng": 34.1
    },
    {
      "cityName": "Koutlak",
      "lat": 44.85,
      "lng": 34.883333
    },
    {
      "cityName": "Kovrovo",
      "lat": 45.616667,
      "lng": 34.933333
    },
    {
      "cityName": "Kovylnoye",
      "lat": 45.733333,
      "lng": 33.483333
    },
    {
      "cityName": "Koy Aran",
      "lat": 45.166667,
      "lng": 34.4
    },
    {
      "cityName": "Koyash",
      "lat": 44.95,
      "lng": 33.833333
    },
    {
      "cityName": "Koza",
      "lat": 46.016667,
      "lng": 36.5
    },
    {
      "cityName": "Kozy",
      "lat": 44.883333,
      "lng": 35.1
    },
    {
      "cityName": "Kraskovka",
      "lat": 45.283333,
      "lng": 33.983333
    },
    {
      "cityName": "Krasnaya Ravnina",
      "lat": 45.683333,
      "lng": 34
    },
    {
      "cityName": "Krasnogorka",
      "lat": 45.25,
      "lng": 35.8
    },
    {
      "cityName": "Krasnogorskoye",
      "lat": 45,
      "lng": 34.35
    },
    {
      "cityName": "Krasnogvardeyskoye",
      "lat": 45.183333,
      "lng": 34.95
    },
    {
      "cityName": "Krasnolesye",
      "lat": 44.833333,
      "lng": 34.233333
    },
    {
      "cityName": "Krasnoperekopsk",
      "lat": 45.955,
      "lng": 33.792222
    },
    {
      "cityName": "Krasnopol ye",
      "lat": 45.139722,
      "lng": 36.021389
    },
    {
      "cityName": "Krasnosëlovka",
      "lat": 44.916667,
      "lng": 34.633333
    },
    {
      "cityName": "Krasnoselskoye",
      "lat": 45.183333,
      "lng": 35.2
    },
    {
      "cityName": "Krasnovka",
      "lat": 45.416667,
      "lng": 33.416667
    },
    {
      "cityName": "Krasnoye Znamya",
      "lat": 45.55,
      "lng": 34.3
    },
    {
      "cityName": "Krasnoznamenka",
      "lat": 45.3,
      "lng": 34
    },
    {
      "cityName": "Krasnyy Oktyabr",
      "lat": 45.866667,
      "lng": 33.85
    },
    {
      "cityName": "Krasnyy Terchik",
      "lat": 45.216667,
      "lng": 35.2
    },
    {
      "cityName": "Krayneye",
      "lat": 45.233333,
      "lng": 33.833333
    },
    {
      "cityName": "Kremnëvka",
      "lat": 45.466667,
      "lng": 34.083333
    },
    {
      "cityName": "Krestyanovka",
      "lat": 45.716667,
      "lng": 33.95
    },
    {
      "cityName": "Krymka",
      "lat": 45.7,
      "lng": 34.183333
    },
    {
      "cityName": "Krymskoye Primorye",
      "lat": 44.9,
      "lng": 35.183333
    },
    {
      "cityName": "Kubanskoye",
      "lat": 45.033333,
      "lng": 33.916667
    },
    {
      "cityName": "Kuchuk Ass",
      "lat": 45.733333,
      "lng": 33.583333
    },
    {
      "cityName": "KuchukBarash",
      "lat": 45.3,
      "lng": 33.666667
    },
    {
      "cityName": "KuchukBystrichi",
      "lat": 45.95,
      "lng": 33.883333
    },
    {
      "cityName": "KuchukKabach",
      "lat": 45.383333,
      "lng": 34.083333
    },
    {
      "cityName": "KuchukUzen",
      "lat": 44.766667,
      "lng": 34.55
    },
    {
      "cityName": "Kudash",
      "lat": 45.666667,
      "lng": 33.166667
    },
    {
      "cityName": "Kudaygul",
      "lat": 45.333333,
      "lng": 33.25
    },
    {
      "cityName": "Kudrino",
      "lat": 44.7,
      "lng": 33.95
    },
    {
      "cityName": "Kukurekovka",
      "lat": 44.833333,
      "lng": 34.033333
    },
    {
      "cityName": "Kula",
      "lat": 46.116667,
      "lng": 33.65
    },
    {
      "cityName": "Kulchora",
      "lat": 45.433333,
      "lng": 34.983333
    },
    {
      "cityName": "KulDzhakin",
      "lat": 45.6,
      "lng": 33.116667
    },
    {
      "cityName": "KulechaMechet",
      "lat": 45.166667,
      "lng": 35.266667
    },
    {
      "cityName": "Kuloba",
      "lat": 45.45,
      "lng": 34.483333
    },
    {
      "cityName": "KulSadyk",
      "lat": 45.5,
      "lng": 33.116667
    },
    {
      "cityName": "Kultamak",
      "lat": 45.583333,
      "lng": 34.733333
    },
    {
      "cityName": "Kultebe",
      "lat": 45.464167,
      "lng": 36.162778
    },
    {
      "cityName": "KumbetEli",
      "lat": 44.933333,
      "lng": 33.883333
    },
    {
      "cityName": "Kumovo",
      "lat": 45.833333,
      "lng": 33.616667
    },
    {
      "cityName": "Kunan",
      "lat": 45.416667,
      "lng": 32.683333
    },
    {
      "cityName": "KurashaKostel",
      "lat": 45.55,
      "lng": 32.933333
    },
    {
      "cityName": "Kurgannoye",
      "lat": 45.066667,
      "lng": 33.933333
    },
    {
      "cityName": "Kurkoyash",
      "lat": 45.084167,
      "lng": 36.210833
    },
    {
      "cityName": "Kurkulet",
      "lat": 44.583333,
      "lng": 34.316667
    },
    {
      "cityName": "KurmanAdzhi",
      "lat": 45.583333,
      "lng": 33.016667
    },
    {
      "cityName": "Kurortnoye",
      "lat": 44.9,
      "lng": 35.15
    },
    {
      "cityName": "Kurpaty",
      "lat": 44.433333,
      "lng": 34.116667
    },
    {
      "cityName": "KurtIchki",
      "lat": 45.833333,
      "lng": 34.25
    },
    {
      "cityName": "Kurtluk",
      "lat": 44.933333,
      "lng": 34.55
    },
    {
      "cityName": "Kurtsy",
      "lat": 44.883333,
      "lng": 34.133333
    },
    {
      "cityName": "KuruluKenegez",
      "lat": 45.3,
      "lng": 33.5
    },
    {
      "cityName": "KuruluKipchak",
      "lat": 45.333333,
      "lng": 33.533333
    },
    {
      "cityName": "Kurulu",
      "lat": 45.366667,
      "lng": 33.483333
    },
    {
      "cityName": "Kutuzovka",
      "lat": 44.733333,
      "lng": 34.366667
    },
    {
      "cityName": "KutyukeNemetskiy",
      "lat": 45.766667,
      "lng": 34.033333
    },
    {
      "cityName": "Kuznetskoye",
      "lat": 45.466667,
      "lng": 32.9
    },
    {
      "cityName": "KyrdaEli",
      "lat": 44.983333,
      "lng": 34.516667
    },
    {
      "cityName": "Kyrmachi",
      "lat": 45.233333,
      "lng": 34.2
    },
    {
      "cityName": "Laki",
      "lat": 44.666667,
      "lng": 33.95
    },
    {
      "cityName": "Lazarevka",
      "lat": 45.216667,
      "lng": 34.916667
    },
    {
      "cityName": "Lebedinoye",
      "lat": 45.483333,
      "lng": 33.533333
    },
    {
      "cityName": "Lenindorf",
      "lat": 45.283333,
      "lng": 34.05
    },
    {
      "cityName": "Lenine",
      "lat": 45.3,
      "lng": 35.783333
    },
    {
      "cityName": "Leninsk",
      "lat": 45.25,
      "lng": 35.916667
    },
    {
      "cityName": "Leninskoye",
      "lat": 45.166667,
      "lng": 35.133333
    },
    {
      "cityName": "Lenskoye",
      "lat": 45.046667,
      "lng": 34.003056
    },
    {
      "cityName": "Lepatikha",
      "lat": 45.433333,
      "lng": 33.416667
    },
    {
      "cityName": "Lesnaya",
      "lat": 44.933333,
      "lng": 34.95
    },
    {
      "cityName": "Lesnikovo",
      "lat": 44.6,
      "lng": 34.083333
    },
    {
      "cityName": "Limanka",
      "lat": 45.333333,
      "lng": 35.116667
    },
    {
      "cityName": "Listovoye",
      "lat": 45.266667,
      "lng": 33.666667
    },
    {
      "cityName": "Livadiya",
      "lat": 44.466667,
      "lng": 34.15
    },
    {
      "cityName": "Lomonosovo",
      "lat": 45.4,
      "lng": 34.683333
    },
    {
      "cityName": "Lugovoye",
      "lat": 45.15,
      "lng": 34.5
    },
    {
      "cityName": "Lushino",
      "lat": 45.416667,
      "lng": 33.533333
    },
    {
      "cityName": "Lushkino",
      "lat": 44.6,
      "lng": 34.366667
    },
    {
      "cityName": "Lyakhovka",
      "lat": 45.435833,
      "lng": 36.578056
    },
    {
      "cityName": "Magarach",
      "lat": 44.5,
      "lng": 34.216667
    },
    {
      "cityName": "Makhovka",
      "lat": 45.566667,
      "lng": 33.266667
    },
    {
      "cityName": "Makhuldur",
      "lat": 44.583333,
      "lng": 33.983333
    },
    {
      "cityName": "Maksim Gorkiy",
      "lat": 45.15,
      "lng": 34.15
    },
    {
      "cityName": "Malaya Balka",
      "lat": 45.433333,
      "lng": 34.216667
    },
    {
      "cityName": "Malbay",
      "lat": 44.95,
      "lng": 34.583333
    },
    {
      "cityName": "MalyBem",
      "lat": 46,
      "lng": 33.883333
    },
    {
      "cityName": "MalyBurunduk",
      "lat": 45.1,
      "lng": 34.85
    },
    {
      "cityName": "Malylutko",
      "lat": 45.683333,
      "lng": 33.55
    },
    {
      "cityName": "Malyy Babchik",
      "lat": 45.402222,
      "lng": 36.374167
    },
    {
      "cityName": "Mamak",
      "lat": 44.933333,
      "lng": 34.183333
    },
    {
      "cityName": "Mama",
      "lat": 45.48,
      "lng": 36.343056
    },
    {
      "cityName": "Mama Tatarskaya",
      "lat": 45.457778,
      "lng": 36.328333
    },
    {
      "cityName": "MambetAdzhi",
      "lat": 45.283333,
      "lng": 35.116667
    },
    {
      "cityName": "MambetAdzhiVakuf",
      "lat": 45.266667,
      "lng": 35.083333
    },
    {
      "cityName": "MamutBay",
      "lat": 45.3,
      "lng": 33.216667
    },
    {
      "cityName": "MamutSultan",
      "lat": 44.866667,
      "lng": 34.233333
    },
    {
      "cityName": "Mangit",
      "lat": 45.116667,
      "lng": 35.816667
    },
    {
      "cityName": "Mangush",
      "lat": 44.75,
      "lng": 34
    },
    {
      "cityName": "Marat",
      "lat": 45.816667,
      "lng": 34.333333
    },
    {
      "cityName": "Marfovka",
      "lat": 45.196389,
      "lng": 36.090278
    },
    {
      "cityName": "Margalfe",
      "lat": 45.433333,
      "lng": 33.333333
    },
    {
      "cityName": "Marino",
      "lat": 44.916667,
      "lng": 34.133333
    },
    {
      "cityName": "Markur",
      "lat": 44.55,
      "lng": 33.9
    },
    {
      "cityName": "Maryevka",
      "lat": 45.110833,
      "lng": 36.236111
    },
    {
      "cityName": "Masandra",
      "lat": 44.516667,
      "lng": 34.183333
    },
    {
      "cityName": "Matiasa",
      "lat": 44.833333,
      "lng": 35.016667
    },
    {
      "cityName": "Matveyevka",
      "lat": 45.766667,
      "lng": 33.783333
    },
    {
      "cityName": "Mavlish",
      "lat": 45.333333,
      "lng": 33.716667
    },
    {
      "cityName": "Mavlyush",
      "lat": 45.116667,
      "lng": 35.883333
    },
    {
      "cityName": "Mayak",
      "lat": 45.381667,
      "lng": 36.626667
    },
    {
      "cityName": "Mayakovskaya",
      "lat": 45.416667,
      "lng": 33.35
    },
    {
      "cityName": "MayakSalyn",
      "lat": 45.398333,
      "lng": 36.101389
    },
    {
      "cityName": "Mayëvka",
      "lat": 45.45,
      "lng": 33.616667
    },
    {
      "cityName": "Mayfeld",
      "lat": 45.6,
      "lng": 34.566667
    },
    {
      "cityName": "Mazanka",
      "lat": 45,
      "lng": 34.25
    },
    {
      "cityName": "Medvedeve",
      "lat": 45.384444,
      "lng": 33.003611
    },
    {
      "cityName": "Melas",
      "lat": 44.4,
      "lng": 33.833333
    },
    {
      "cityName": "Melek",
      "lat": 45.1,
      "lng": 34.766667
    },
    {
      "cityName": "MengermenNemetskiy",
      "lat": 45.216667,
      "lng": 34.883333
    },
    {
      "cityName": "Menlerchik",
      "lat": 45.183333,
      "lng": 34
    },
    {
      "cityName": "Menler",
      "lat": 45.333333,
      "lng": 33.933333
    },
    {
      "cityName": "Meshen",
      "lat": 45.533333,
      "lng": 34.5
    },
    {
      "cityName": "Mesit",
      "lat": 45.6,
      "lng": 34.516667
    },
    {
      "cityName": "Meskechi",
      "lat": 45.366667,
      "lng": 35.95
    },
    {
      "cityName": "Mezhgornaya",
      "lat": 45.1,
      "lng": 33.85
    },
    {
      "cityName": "Mezhvodnoye",
      "lat": 45.583889,
      "lng": 32.8475
    },
    {
      "cityName": "Mikhaylovka",
      "lat": 45.116667,
      "lng": 33.616667
    },
    {
      "cityName": "MinareliShiban",
      "lat": 45.2,
      "lng": 35.666667
    },
    {
      "cityName": "MinDzhaba",
      "lat": 45.433333,
      "lng": 34.566667
    },
    {
      "cityName": "Mirnyy",
      "lat": 45.316667,
      "lng": 33.016667
    },
    {
      "cityName": "Mirnyy Trud",
      "lat": 45.916667,
      "lng": 33.866667
    },
    {
      "cityName": "Misitskiy",
      "lat": 45.633333,
      "lng": 34.516667
    },
    {
      "cityName": "Missir",
      "lat": 45.458889,
      "lng": 36.268889
    },
    {
      "cityName": "Mitrofanovka",
      "lat": 45.45,
      "lng": 34.683333
    },
    {
      "cityName": "Mityayevo",
      "lat": 45.216667,
      "lng": 33.7
    },
    {
      "cityName": "Molochne",
      "lat": 45.199167,
      "lng": 33.225833
    },
    {
      "cityName": "Molodezhnoye",
      "lat": 45,
      "lng": 34.083333
    },
    {
      "cityName": "Monastyrka",
      "lat": 45.9,
      "lng": 34.016667
    },
    {
      "cityName": "Monay Nemtskiy",
      "lat": 45.733333,
      "lng": 33.466667
    },
    {
      "cityName": "Morskaya",
      "lat": 45.333333,
      "lng": 32.666667
    },
    {
      "cityName": "Mshatka",
      "lat": 44.4,
      "lng": 33.816667
    },
    {
      "cityName": "Mukhalatka",
      "lat": 44.416667,
      "lng": 33.866667
    },
    {
      "cityName": "MullaEli",
      "lat": 44.883333,
      "lng": 33.95
    },
    {
      "cityName": "Mullakoy",
      "lat": 45.383333,
      "lng": 34.866667
    },
    {
      "cityName": "Muni",
      "lat": 45.65,
      "lng": 33.783333
    },
    {
      "cityName": "Munus",
      "lat": 45.616667,
      "lng": 33.516667
    },
    {
      "cityName": "Murzabek",
      "lat": 45.566667,
      "lng": 33.7
    },
    {
      "cityName": "MurzaKoy",
      "lat": 45.05,
      "lng": 34.833333
    },
    {
      "cityName": "Murzaly Bitak",
      "lat": 45.35,
      "lng": 33.8
    },
    {
      "cityName": "Murzulyar Kemelchi",
      "lat": 45.483333,
      "lng": 34.35
    },
    {
      "cityName": "MusaAdzhiEli",
      "lat": 45.05,
      "lng": 34.15
    },
    {
      "cityName": "MushayRusskiy",
      "lat": 45.35,
      "lng": 34.916667
    },
    {
      "cityName": "Mussali",
      "lat": 45.533333,
      "lng": 32.883333
    },
    {
      "cityName": "Mykhaylivka",
      "lat": 45.279444,
      "lng": 36.260556
    },
    {
      "cityName": "Mykolayivka",
      "lat": 44.966667,
      "lng": 33.616667
    },
    {
      "cityName": "Myshash",
      "lat": 45.133333,
      "lng": 34.6
    },
    {
      "cityName": "Naberezhne",
      "lat": 45.1375,
      "lng": 36.418056
    },
    {
      "cityName": "Nadezhda",
      "lat": 45.2,
      "lng": 35.1
    },
    {
      "cityName": "Nasypnoye",
      "lat": 45.05,
      "lng": 35.283333
    },
    {
      "cityName": "Nasyr",
      "lat": 45.316667,
      "lng": 35.666667
    },
    {
      "cityName": "Natashino",
      "lat": 45.366667,
      "lng": 33.25
    },
    {
      "cityName": "Nauchnyy",
      "lat": 44.733333,
      "lng": 34.016667
    },
    {
      "cityName": "Naybrod",
      "lat": 45.433333,
      "lng": 33.833333
    },
    {
      "cityName": "Naydënovka",
      "lat": 45.266667,
      "lng": 34.45
    },
    {
      "cityName": "Naydorf",
      "lat": 45.766667,
      "lng": 33.916667
    },
    {
      "cityName": "Nayleben",
      "lat": 45.5,
      "lng": 34.4
    },
    {
      "cityName": "Nekrasovka",
      "lat": 45.433333,
      "lng": 34.866667
    },
    {
      "cityName": "Nikiforovka",
      "lat": 45.5,
      "lng": 33.45
    },
    {
      "cityName": "Nizhnegorskiy",
      "lat": 45.45,
      "lng": 34.733333
    },
    {
      "cityName": "Nizhniy Airgul",
      "lat": 44.6,
      "lng": 33.95
    },
    {
      "cityName": "Nizhniye Partizany",
      "lat": 44.833333,
      "lng": 34.083333
    },
    {
      "cityName": "Nizhniy Karabay",
      "lat": 45.166667,
      "lng": 35.033333
    },
    {
      "cityName": "Nizhniy SeymonLarkoy",
      "lat": 44.916667,
      "lng": 33.933333
    },
    {
      "cityName": "Nizinnaya",
      "lat": 45.2,
      "lng": 33.9
    },
    {
      "cityName": "Nizovka",
      "lat": 45.583333,
      "lng": 33.05
    },
    {
      "cityName": "Nizovoye",
      "lat": 45.133333,
      "lng": 35.783333
    },
    {
      "cityName": "Novaya Burulcha",
      "lat": 45.066667,
      "lng": 34.4
    },
    {
      "cityName": "Novaya Chebotarka",
      "lat": 45.1,
      "lng": 33.7
    },
    {
      "cityName": "Novaya Demyanovka",
      "lat": 44.916667,
      "lng": 33.9
    },
    {
      "cityName": "Novaya Dmitriyevka",
      "lat": 45.533333,
      "lng": 34.95
    },
    {
      "cityName": "Novaya Estoniya",
      "lat": 45.5,
      "lng": 34.233333
    },
    {
      "cityName": "Novaya Ivanovka",
      "lat": 44.916667,
      "lng": 34.25
    },
    {
      "cityName": "Novaya Mikhaylovka",
      "lat": 45.166667,
      "lng": 35.383333
    },
    {
      "cityName": "Novaya Okrech",
      "lat": 45.35,
      "lng": 34.95
    },
    {
      "cityName": "Novoaleksandrovka",
      "lat": 44.966667,
      "lng": 34.25
    },
    {
      "cityName": "NovoBayaut",
      "lat": 45.416667,
      "lng": 34.483333
    },
    {
      "cityName": "Novobodrak",
      "lat": 44.783333,
      "lng": 34
    },
    {
      "cityName": "NovoBudke",
      "lat": 44.95,
      "lng": 34
    },
    {
      "cityName": "NovoChembay",
      "lat": 45.433333,
      "lng": 34.533333
    },
    {
      "cityName": "NovoDavydovka",
      "lat": 45.466667,
      "lng": 34.9
    },
    {
      "cityName": "Novodmitriyevka",
      "lat": 45.133333,
      "lng": 33.633333
    },
    {
      "cityName": "NovoFëdorovka",
      "lat": 45.283333,
      "lng": 35.05
    },
    {
      "cityName": "Novogrigoryevka",
      "lat": 45.45,
      "lng": 34.6
    },
    {
      "cityName": "Novoivanovka",
      "lat": 45.45,
      "lng": 34.8
    },
    {
      "cityName": "Novoklënovo",
      "lat": 45.016667,
      "lng": 34.5
    },
    {
      "cityName": "Novokrymskoye",
      "lat": 45.783333,
      "lng": 34.15
    },
    {
      "cityName": "NovoMikhaylovka",
      "lat": 45.9,
      "lng": 34.283333
    },
    {
      "cityName": "NovoNikolayevka",
      "lat": 45.533333,
      "lng": 34.766667
    },
    {
      "cityName": "Novootradnoye",
      "lat": 45.389167,
      "lng": 36.065833
    },
    {
      "cityName": "Novopavlovka",
      "lat": 45.866667,
      "lng": 33.9
    },
    {
      "cityName": "NovoPokrovka",
      "lat": 45.35,
      "lng": 34.2
    },
    {
      "cityName": "Novopolye",
      "lat": 44.583333,
      "lng": 33.916667
    },
    {
      "cityName": "Novosëlovka",
      "lat": 45.166667,
      "lng": 33.633333
    },
    {
      "cityName": "Novoselskoye",
      "lat": 45.501667,
      "lng": 32.726944
    },
    {
      "cityName": "NovoSergeyevka",
      "lat": 44.966667,
      "lng": 34.133333
    },
    {
      "cityName": "Novostepnoye",
      "lat": 45.666667,
      "lng": 34.383333
    },
    {
      "cityName": "Novoukrainka",
      "lat": 45.366667,
      "lng": 36.283333
    },
    {
      "cityName": "Novoulyanovka",
      "lat": 44.6,
      "lng": 33.866667
    },
    {
      "cityName": "Novovasilyevka",
      "lat": 44.85,
      "lng": 33.916667
    },
    {
      "cityName": "NovoYemelyanovka",
      "lat": 44.866667,
      "lng": 33.95
    },
    {
      "cityName": "Novozhilovka",
      "lat": 45.166667,
      "lng": 34.233333
    },
    {
      "cityName": "NovoZuyevka",
      "lat": 45.25,
      "lng": 34.15
    },
    {
      "cityName": "Novy Dzhavlush",
      "lat": 45.166667,
      "lng": 34.533333
    },
    {
      "cityName": "Novy Sarabuz",
      "lat": 45.05,
      "lng": 34.033333
    },
    {
      "cityName": "Novyye Kulchui",
      "lat": 45.033333,
      "lng": 33.983333
    },
    {
      "cityName": "Novyye Telenchi",
      "lat": 45.266667,
      "lng": 34.4
    },
    {
      "cityName": "Novyy Koyash",
      "lat": 45.045556,
      "lng": 36.228611
    },
    {
      "cityName": "Novyy Krym",
      "lat": 45.183333,
      "lng": 34.483333
    },
    {
      "cityName": "Novyy Otarchik",
      "lat": 45.333333,
      "lng": 34.266667
    },
    {
      "cityName": "Novyy Svet",
      "lat": 44.816667,
      "lng": 34.9
    },
    {
      "cityName": "Novyy Svit",
      "lat": 45.475,
      "lng": 36.301111
    },
    {
      "cityName": "Noyman",
      "lat": 45.566667,
      "lng": 34.5
    },
    {
      "cityName": "Nurali",
      "lat": 45.75,
      "lng": 33.416667
    },
    {
      "cityName": "Nurgeldy",
      "lat": 45.45,
      "lng": 33.383333
    },
    {
      "cityName": "Ocheretay",
      "lat": 45.4,
      "lng": 32.5
    },
    {
      "cityName": "Ognëvo",
      "lat": 45.383333,
      "lng": 33.45
    },
    {
      "cityName": "Ogni",
      "lat": 45.783333,
      "lng": 33.433333
    },
    {
      "cityName": "Ogonki",
      "lat": 45.191389,
      "lng": 36.323611
    },
    {
      "cityName": "Ogorodnaya",
      "lat": 45.766667,
      "lng": 33.716667
    },
    {
      "cityName": "OguzTobe",
      "lat": 45.266667,
      "lng": 35.566667
    },
    {
      "cityName": "Okhotnikovo",
      "lat": 45.233333,
      "lng": 33.6
    },
    {
      "cityName": "Oktoberfeld",
      "lat": 45.166667,
      "lng": 33.8
    },
    {
      "cityName": "Oktyabrdorf",
      "lat": 45.566667,
      "lng": 34.783333
    },
    {
      "cityName": "Oktyabr",
      "lat": 45.633333,
      "lng": 34.55
    },
    {
      "cityName": "Oktyabrskoye",
      "lat": 44.833333,
      "lng": 34.216667
    },
    {
      "cityName": "Okunëvka",
      "lat": 45.366667,
      "lng": 32.766667
    },
    {
      "cityName": "OngarNayman",
      "lat": 45.816667,
      "lng": 33.716667
    },
    {
      "cityName": "Opasnaya",
      "lat": 45.355,
      "lng": 36.605833
    },
    {
      "cityName": "Opuk",
      "lat": 45.051111,
      "lng": 36.243611
    },
    {
      "cityName": "Ordzhonikidze",
      "lat": 44.916667,
      "lng": 35.333333
    },
    {
      "cityName": "Oreanda",
      "lat": 44.466667,
      "lng": 34.166667
    },
    {
      "cityName": "Orekhovo",
      "lat": 45.128889,
      "lng": 33.631944
    },
    {
      "cityName": "OrtaKisek",
      "lat": 44.833333,
      "lng": 33.583333
    },
    {
      "cityName": "Ortalak",
      "lat": 44.966667,
      "lng": 34.833333
    },
    {
      "cityName": "OrtaMamay Nomer Chetvërtyy",
      "lat": 45.266667,
      "lng": 33.45
    },
    {
      "cityName": "Ortay",
      "lat": 45.183333,
      "lng": 35.15
    },
    {
      "cityName": "OskarBeshkuy",
      "lat": 45.295556,
      "lng": 36.053889
    },
    {
      "cityName": "Osmanchik",
      "lat": 45.05,
      "lng": 35
    },
    {
      "cityName": "Osoviny",
      "lat": 45.431667,
      "lng": 36.5975
    },
    {
      "cityName": "Ostrovka",
      "lat": 45.233333,
      "lng": 33.466667
    },
    {
      "cityName": "Ostrovskoye",
      "lat": 45.666667,
      "lng": 33.816667
    },
    {
      "cityName": "OtarMaynak",
      "lat": 45.199444,
      "lng": 33.301389
    },
    {
      "cityName": "Otar",
      "lat": 45.383333,
      "lng": 33.2
    },
    {
      "cityName": "Otary",
      "lat": 45.733333,
      "lng": 33.183333
    },
    {
      "cityName": "OteshEli",
      "lat": 44.833333,
      "lng": 33.766667
    },
    {
      "cityName": "Otradnoye",
      "lat": 44.5,
      "lng": 34.233333
    },
    {
      "cityName": "Otus",
      "lat": 44.933333,
      "lng": 35.15
    },
    {
      "cityName": "Oybur",
      "lat": 45.316667,
      "lng": 33.083333
    },
    {
      "cityName": "OyEli",
      "lat": 45.35,
      "lng": 32.616667
    },
    {
      "cityName": "Ozërnoye",
      "lat": 45.216667,
      "lng": 34.633333
    },
    {
      "cityName": "Pakhari",
      "lat": 45.283333,
      "lng": 33.766667
    },
    {
      "cityName": "Panino",
      "lat": 45.45,
      "lng": 33.5
    },
    {
      "cityName": "Parfenion",
      "lat": 45.35,
      "lng": 36.6
    },
    {
      "cityName": "Parkovoye",
      "lat": 44.4,
      "lng": 33.95
    },
    {
      "cityName": "Parpach",
      "lat": 45.2,
      "lng": 35.533333
    },
    {
      "cityName": "Pascha Ssalyn",
      "lat": 45.4,
      "lng": 36.183333
    },
    {
      "cityName": "Pashchenkovo",
      "lat": 45.078056,
      "lng": 36.408611
    },
    {
      "cityName": "Pavlovka",
      "lat": 45.75,
      "lng": 34.15
    },
    {
      "cityName": "Pchelniki",
      "lat": 45.3,
      "lng": 34.783333
    },
    {
      "cityName": "Peredovoye",
      "lat": 44.516667,
      "lng": 33.833333
    },
    {
      "cityName": "Perekop",
      "lat": 46.166667,
      "lng": 33.7
    },
    {
      "cityName": "Perovo",
      "lat": 44.933333,
      "lng": 34.066667
    },
    {
      "cityName": "Pervomayskiy",
      "lat": 45.1,
      "lng": 34.066667
    },
    {
      "cityName": "Peschanka",
      "lat": 45.166667,
      "lng": 33.283333
    },
    {
      "cityName": "Peshchernoye",
      "lat": 44.633333,
      "lng": 33.95
    },
    {
      "cityName": "Peski",
      "lat": 45.483333,
      "lng": 32.7
    },
    {
      "cityName": "Pishkari",
      "lat": 45.366667,
      "lng": 33.983333
    },
    {
      "cityName": "Ponizovka",
      "lat": 44.4,
      "lng": 33.966667
    },
    {
      "cityName": "Popovka",
      "lat": 45.283333,
      "lng": 33.033333
    },
    {
      "cityName": "Porfiryevka",
      "lat": 45.35,
      "lng": 33.233333
    },
    {
      "cityName": "Portovoye",
      "lat": 45.85,
      "lng": 33.483333
    },
    {
      "cityName": "Prichalnoye",
      "lat": 45.041667,
      "lng": 36.125
    },
    {
      "cityName": "Primorskiy",
      "lat": 45.116667,
      "lng": 35.5
    },
    {
      "cityName": "Pristan Bakal",
      "lat": 45.75,
      "lng": 33.233333
    },
    {
      "cityName": "Pritsepilovka",
      "lat": 45.783333,
      "lng": 33.366667
    },
    {
      "cityName": "Privetnoye",
      "lat": 44.816667,
      "lng": 34.683333
    },
    {
      "cityName": "Privolnoye",
      "lat": 44.783333,
      "lng": 34.333333
    },
    {
      "cityName": "Priyutnoye",
      "lat": 45.45,
      "lng": 33.466667
    },
    {
      "cityName": "Prolom",
      "lat": 45.116667,
      "lng": 34.716667
    },
    {
      "cityName": "Prostornoye",
      "lat": 45.123889,
      "lng": 36.130833
    },
    {
      "cityName": "Ptashkino",
      "lat": 45.164444,
      "lng": 36.1925
    },
    {
      "cityName": "Puchki",
      "lat": 45.666667,
      "lng": 33.216667
    },
    {
      "cityName": "Putilovka",
      "lat": 44.566667,
      "lng": 33.9
    },
    {
      "cityName": "Put Rybaka",
      "lat": 45.383333,
      "lng": 35.75
    },
    {
      "cityName": "Pyaly Saray",
      "lat": 45.303333,
      "lng": 36.114167
    },
    {
      "cityName": "Pyatichatka",
      "lat": 46.05,
      "lng": 33.75
    },
    {
      "cityName": "Pyatikhatka",
      "lat": 45.316667,
      "lng": 34.266667
    },
    {
      "cityName": "Rabochiy Ugolok",
      "lat": 44.65,
      "lng": 34.4
    },
    {
      "cityName": "Razino",
      "lat": 45.383333,
      "lng": 34.016667
    },
    {
      "cityName": "Rechnaya",
      "lat": 45.35,
      "lng": 34.3
    },
    {
      "cityName": "Remontnoye",
      "lat": 45.65,
      "lng": 34.133333
    },
    {
      "cityName": "Repyevka",
      "lat": 45.243889,
      "lng": 36.239167
    },
    {
      "cityName": "Rodnikovo",
      "lat": 45.05,
      "lng": 33.95
    },
    {
      "cityName": "Rodnikovskoye",
      "lat": 44.466667,
      "lng": 33.85
    },
    {
      "cityName": "Roskoshnoye",
      "lat": 45.65,
      "lng": 34.1
    },
    {
      "cityName": "Rossoshchanka",
      "lat": 44.483333,
      "lng": 33.85
    },
    {
      "cityName": "Rozalyevka",
      "lat": 45.1,
      "lng": 35.233333
    },
    {
      "cityName": "Rozhkova",
      "lat": 45.533333,
      "lng": 35.166667
    },
    {
      "cityName": "Rusakovka",
      "lat": 45.116667,
      "lng": 34.466667
    },
    {
      "cityName": "Rybachye",
      "lat": 44.766667,
      "lng": 34.6
    },
    {
      "cityName": "Rybna",
      "lat": 45.268611,
      "lng": 36.418333
    },
    {
      "cityName": "Ryleyevo",
      "lat": 45.533333,
      "lng": 33.8
    },
    {
      "cityName": "SabakhEli",
      "lat": 45.116667,
      "lng": 34.516667
    },
    {
      "cityName": "Sachal",
      "lat": 45.5,
      "lng": 33.25
    },
    {
      "cityName": "Sadyr",
      "lat": 45.733333,
      "lng": 33.333333
    },
    {
      "cityName": "Sakav",
      "lat": 44.85,
      "lng": 33.85
    },
    {
      "cityName": "Saki",
      "lat": 45.135556,
      "lng": 33.603056
    },
    {
      "cityName": "Sakskaya Kurortnaya Stantsiya",
      "lat": 45.05,
      "lng": 33.816667
    },
    {
      "cityName": "Saltaba",
      "lat": 45.366667,
      "lng": 33.7
    },
    {
      "cityName": "Samay",
      "lat": 45.983333,
      "lng": 34.133333
    },
    {
      "cityName": "Sanatornoye",
      "lat": 44.416667,
      "lng": 33.833333
    },
    {
      "cityName": "Sarabuz Russkiy",
      "lat": 45.05,
      "lng": 33.983333
    },
    {
      "cityName": "Saraymin",
      "lat": 45.215833,
      "lng": 36.236111
    },
    {
      "cityName": "Sarcha",
      "lat": 45.35,
      "lng": 33.333333
    },
    {
      "cityName": "Sargil",
      "lat": 45.216667,
      "lng": 34.833333
    },
    {
      "cityName": "Sarona",
      "lat": 45.333333,
      "lng": 34.733333
    },
    {
      "cityName": "Sartana",
      "lat": 44.95,
      "lng": 34.666667
    },
    {
      "cityName": "SaryBash",
      "lat": 45.566667,
      "lng": 33.783333
    },
    {
      "cityName": "Sarygol",
      "lat": 45.05,
      "lng": 35.383333
    },
    {
      "cityName": "Saurchi",
      "lat": 45.333333,
      "lng": 34.816667
    },
    {
      "cityName": "Saya",
      "lat": 45.35,
      "lng": 33.866667
    },
    {
      "cityName": "Sazonovka",
      "lat": 45.2425,
      "lng": 36.016389
    },
    {
      "cityName": "Scheichlar",
      "lat": 45.5,
      "lng": 32.7
    },
    {
      "cityName": "Sedzheut",
      "lat": 45.466667,
      "lng": 33.933333
    },
    {
      "cityName": "SeitAsan",
      "lat": 45.2,
      "lng": 35.3
    },
    {
      "cityName": "SeitEli",
      "lat": 45.116667,
      "lng": 35.233333
    },
    {
      "cityName": "Sekizek",
      "lat": 45.233333,
      "lng": 34.583333
    },
    {
      "cityName": "Semeiz",
      "lat": 44.416667,
      "lng": 34.016667
    },
    {
      "cityName": "Semënovka",
      "lat": 45.283333,
      "lng": 35.083333
    },
    {
      "cityName": "Semidvorye",
      "lat": 44.716667,
      "lng": 34.466667
    },
    {
      "cityName": "Semisotka",
      "lat": 45.233333,
      "lng": 35.566667
    },
    {
      "cityName": "Sennoye",
      "lat": 45.066667,
      "lng": 34.833333
    },
    {
      "cityName": "Serebryanka",
      "lat": 45.65,
      "lng": 33.5
    },
    {
      "cityName": "Severnaya",
      "lat": 45.716667,
      "lng": 33.066667
    },
    {
      "cityName": "Severny Dzhankoy",
      "lat": 45.666667,
      "lng": 34.933333
    },
    {
      "cityName": "Seytdzhevt",
      "lat": 45.116667,
      "lng": 35.666667
    },
    {
      "cityName": "ShakhMurza Staraya",
      "lat": 44.983333,
      "lng": 35.016667
    },
    {
      "cityName": "Shakul",
      "lat": 44.816667,
      "lng": 33.916667
    },
    {
      "cityName": "Shcheglovka",
      "lat": 45.283333,
      "lng": 33.183333
    },
    {
      "cityName": "Shchemilovka",
      "lat": 46.15,
      "lng": 33.7
    },
    {
      "cityName": "Shestovo",
      "lat": 45.633333,
      "lng": 33.4
    },
    {
      "cityName": "Shevekova",
      "lat": 44.916667,
      "lng": 35.2
    },
    {
      "cityName": "Sheykhasan",
      "lat": 45.111944,
      "lng": 36.255278
    },
    {
      "cityName": "SheykhEli",
      "lat": 45.133333,
      "lng": 35.15
    },
    {
      "cityName": "SheykhMonay",
      "lat": 45.333333,
      "lng": 34.866667
    },
    {
      "cityName": "Shiban",
      "lat": 45.25,
      "lng": 34.1
    },
    {
      "cityName": "Shigalak",
      "lat": 45.383333,
      "lng": 34.05
    },
    {
      "cityName": "Shishkino",
      "lat": 45.333333,
      "lng": 33.216667
    },
    {
      "cityName": "ShubinoBaygodzha",
      "lat": 45.283333,
      "lng": 35.216667
    },
    {
      "cityName": "Shumkhay",
      "lat": 44.866667,
      "lng": 34.266667
    },
    {
      "cityName": "Simferopol",
      "lat": 44.95,
      "lng": 34.1
    },
    {
      "cityName": "Skala",
      "lat": 45.266667,
      "lng": 35.933333
    },
    {
      "cityName": "Skvortsovo",
      "lat": 45.066667,
      "lng": 33.816667
    },
    {
      "cityName": "Sofiyevka",
      "lat": 45.1,
      "lng": 34
    },
    {
      "cityName": "Sokoly",
      "lat": 45.666667,
      "lng": 33.466667
    },
    {
      "cityName": "Soldatska Slobidka",
      "lat": 45.331111,
      "lng": 36.446389
    },
    {
      "cityName": "Solënaya",
      "lat": 45.4,
      "lng": 33.083333
    },
    {
      "cityName": "Sollar",
      "lat": 44.983333,
      "lng": 34.75
    },
    {
      "cityName": "Solnechnaya Dolina",
      "lat": 44.866667,
      "lng": 35.1
    },
    {
      "cityName": "Solnechnogorskoye",
      "lat": 44.75,
      "lng": 34.55
    },
    {
      "cityName": "Solovyevka",
      "lat": 44.95,
      "lng": 34.3
    },
    {
      "cityName": "Solyanoye",
      "lat": 45.333333,
      "lng": 35.416667
    },
    {
      "cityName": "Sotera",
      "lat": 44.733333,
      "lng": 34.5
    },
    {
      "cityName": "Sotsdorf",
      "lat": 45.566667,
      "lng": 33.316667
    },
    {
      "cityName": "Sovetskoye",
      "lat": 44.55,
      "lng": 34.166667
    },
    {
      "cityName": "Spasovka",
      "lat": 45.133333,
      "lng": 35.116667
    },
    {
      "cityName": "Sredniy Dzhankoy",
      "lat": 45.65,
      "lng": 34.983333
    },
    {
      "cityName": "Sredniy Saray",
      "lat": 45.9,
      "lng": 33.716667
    },
    {
      "cityName": "Stakhanovka",
      "lat": 45.383333,
      "lng": 33.95
    },
    {
      "cityName": "StaroBayaut",
      "lat": 45.4,
      "lng": 34.45
    },
    {
      "cityName": "Staroselye",
      "lat": 44.75,
      "lng": 33.916667
    },
    {
      "cityName": "Stary Baragan",
      "lat": 45.533333,
      "lng": 33.516667
    },
    {
      "cityName": "Stary Chuvash",
      "lat": 46.116667,
      "lng": 33.816667
    },
    {
      "cityName": "Stary Kerleut",
      "lat": 45.383333,
      "lng": 34.833333
    },
    {
      "cityName": "StaryYalantash",
      "lat": 45.833333,
      "lng": 33.916667
    },
    {
      "cityName": "Stary Yashlav",
      "lat": 45.45,
      "lng": 33.733333
    },
    {
      "cityName": "Staryy Bashaul",
      "lat": 45.086389,
      "lng": 36.304444
    },
    {
      "cityName": "Stroganovka Verkhnyaya",
      "lat": 44.933333,
      "lng": 34.2
    },
    {
      "cityName": "Subashi",
      "lat": 45.1,
      "lng": 35.05
    },
    {
      "cityName": "SuinEli",
      "lat": 45.098056,
      "lng": 36.230833
    },
    {
      "cityName": "Sukhodolnoye",
      "lat": 45.266667,
      "lng": 33.85
    },
    {
      "cityName": "SultanBazar",
      "lat": 45.383333,
      "lng": 34.333333
    },
    {
      "cityName": "Sultanovka",
      "lat": 44.983333,
      "lng": 35.283333
    },
    {
      "cityName": "SultanSaray",
      "lat": 45,
      "lng": 34.65
    },
    {
      "cityName": "Sundukoy",
      "lat": 45.3,
      "lng": 35.983333
    },
    {
      "cityName": "Synyahine",
      "lat": 45.348333,
      "lng": 36.588889
    },
    {
      "cityName": "SyrtKarakchora",
      "lat": 45.6,
      "lng": 33.983333
    },
    {
      "cityName": "Tabachnoye",
      "lat": 44.9,
      "lng": 33.7
    },
    {
      "cityName": "Tabun Adargin",
      "lat": 45.483333,
      "lng": 34.583333
    },
    {
      "cityName": "Taganashmin",
      "lat": 45.616667,
      "lng": 34.75
    },
    {
      "cityName": "Takyl",
      "lat": 45.383333,
      "lng": 33.6
    },
    {
      "cityName": "TaliIlyak",
      "lat": 45.35,
      "lng": 33.983333
    },
    {
      "cityName": "Tamak",
      "lat": 45.583333,
      "lng": 34.95
    },
    {
      "cityName": "Tama",
      "lat": 44.966667,
      "lng": 34.6
    },
    {
      "cityName": "Tambovka",
      "lat": 45.116667,
      "lng": 35.333333
    },
    {
      "cityName": "Tanabay",
      "lat": 45.666667,
      "lng": 33.1
    },
    {
      "cityName": "Tarkhan",
      "lat": 45.439722,
      "lng": 36.420556
    },
    {
      "cityName": "TashAlchin",
      "lat": 45.15,
      "lng": 36.033333
    },
    {
      "cityName": "TashKazakKonrat",
      "lat": 45.466667,
      "lng": 34.033333
    },
    {
      "cityName": "Tashke",
      "lat": 45.316667,
      "lng": 33.333333
    },
    {
      "cityName": "TashlyKipchak",
      "lat": 45.533333,
      "lng": 34.183333
    },
    {
      "cityName": "TashlySheykhEli",
      "lat": 45.5,
      "lng": 34.2
    },
    {
      "cityName": "Tashlyyar",
      "lat": 45.35,
      "lng": 35.983333
    },
    {
      "cityName": "TaukDzhamin",
      "lat": 45.433333,
      "lng": 34.083333
    },
    {
      "cityName": "TauKipchak",
      "lat": 44.966667,
      "lng": 34.35
    },
    {
      "cityName": "Taygan",
      "lat": 44.983333,
      "lng": 34.533333
    },
    {
      "cityName": "Tayguch",
      "lat": 45.2,
      "lng": 35.966667
    },
    {
      "cityName": "Taymaz Tatarskiy",
      "lat": 45.366667,
      "lng": 34.633333
    },
    {
      "cityName": "Teberti",
      "lat": 44.7,
      "lng": 33.833333
    },
    {
      "cityName": "Tegesh",
      "lat": 45.1,
      "lng": 34.083333
    },
    {
      "cityName": "TemeshBakuf",
      "lat": 45.116667,
      "lng": 33.716667
    },
    {
      "cityName": "Temesh",
      "lat": 45.183333,
      "lng": 33.683333
    },
    {
      "cityName": "Temir Bulat",
      "lat": 45.616667,
      "lng": 33.733333
    },
    {
      "cityName": "Temir",
      "lat": 45.516667,
      "lng": 34.116667
    },
    {
      "cityName": "TereklyAss",
      "lat": 45.366667,
      "lng": 32.983333
    },
    {
      "cityName": "Terenair",
      "lat": 44.933333,
      "lng": 34.266667
    },
    {
      "cityName": "Termenchi",
      "lat": 45.083333,
      "lng": 34.2
    },
    {
      "cityName": "Tesseli",
      "lat": 44.383333,
      "lng": 33.766667
    },
    {
      "cityName": "Timiryazevo",
      "lat": 45.616667,
      "lng": 34.366667
    },
    {
      "cityName": "Togunchi",
      "lat": 45.666667,
      "lng": 34.2
    },
    {
      "cityName": "Tokarëvo",
      "lat": 45.283333,
      "lng": 35.15
    },
    {
      "cityName": "TokSheykh",
      "lat": 45.383333,
      "lng": 32.933333
    },
    {
      "cityName": "Tolban",
      "lat": 44.95,
      "lng": 34.283333
    },
    {
      "cityName": "Tole",
      "lat": 44.716667,
      "lng": 33.816667
    },
    {
      "cityName": "Tolga",
      "lat": 44.983333,
      "lng": 34.7
    },
    {
      "cityName": "Tomashëvka",
      "lat": 45.933333,
      "lng": 34.116667
    },
    {
      "cityName": "Toply",
      "lat": 45,
      "lng": 34.883333
    },
    {
      "cityName": "Totanay",
      "lat": 45.516667,
      "lng": 34.6
    },
    {
      "cityName": "Toytebe",
      "lat": 45.483333,
      "lng": 33.366667
    },
    {
      "cityName": "Trëkhgornaya",
      "lat": 45.076667,
      "lng": 36.1325
    },
    {
      "cityName": "Tretiy Kazenny Uchastok",
      "lat": 46.05,
      "lng": 33.8
    },
    {
      "cityName": "Tsementna Slobidka",
      "lat": 45.3325,
      "lng": 36.468056
    },
    {
      "cityName": "Tuatay",
      "lat": 45.133333,
      "lng": 34.2
    },
    {
      "cityName": "Tulat",
      "lat": 45.066667,
      "lng": 33.866667
    },
    {
      "cityName": "Tulumchak",
      "lat": 45.233333,
      "lng": 35.416667
    },
    {
      "cityName": "Turash",
      "lat": 45.533333,
      "lng": 33.383333
    },
    {
      "cityName": "Turkmen",
      "lat": 45.383056,
      "lng": 36.368333
    },
    {
      "cityName": "Tuvaka",
      "lat": 45.666667,
      "lng": 33
    },
    {
      "cityName": "Tyubey",
      "lat": 45.633333,
      "lng": 34.15
    },
    {
      "cityName": "Tyumen",
      "lat": 45.25,
      "lng": 33.516667
    },
    {
      "cityName": "Tyuzler",
      "lat": 44.466667,
      "lng": 34.083333
    },
    {
      "cityName": "UcheveliOrka",
      "lat": 45.683333,
      "lng": 33.9
    },
    {
      "cityName": "Uchkuy",
      "lat": 45.216667,
      "lng": 35.033333
    },
    {
      "cityName": "Uchkuyu Tarkhan",
      "lat": 45.016667,
      "lng": 33.833333
    },
    {
      "cityName": "UlanEli",
      "lat": 45.483333,
      "lng": 33.033333
    },
    {
      "cityName": "UlinEli",
      "lat": 45.5,
      "lng": 33.75
    },
    {
      "cityName": "Urchuk",
      "lat": 45.366667,
      "lng": 33.716667
    },
    {
      "cityName": "Ursupki Kipchak",
      "lat": 45.383333,
      "lng": 34.65
    },
    {
      "cityName": "UrusKhodzha",
      "lat": 45.016667,
      "lng": 34.8
    },
    {
      "cityName": "Urzhin",
      "lat": 46.016667,
      "lng": 33.933333
    },
    {
      "cityName": "Uyshun",
      "lat": 45.116667,
      "lng": 34.9
    },
    {
      "cityName": "Uyutnaya",
      "lat": 44.833333,
      "lng": 34.95
    },
    {
      "cityName": "VakufBaygodzha",
      "lat": 45.283333,
      "lng": 35.25
    },
    {
      "cityName": "Varvarovka",
      "lat": 45.333333,
      "lng": 34.9
    },
    {
      "cityName": "Varyagino",
      "lat": 45.75,
      "lng": 33.366667
    },
    {
      "cityName": "Vasilevka",
      "lat": 45.133333,
      "lng": 34.8
    },
    {
      "cityName": "Vasilkovoye",
      "lat": 45.2,
      "lng": 35.316667
    },
    {
      "cityName": "Verkhniy SeymonLarkoy",
      "lat": 44.916667,
      "lng": 33.983333
    },
    {
      "cityName": "Verkhnyaya Osma",
      "lat": 45.1,
      "lng": 34.25
    },
    {
      "cityName": "Vesëlaya Dolina",
      "lat": 45.7,
      "lng": 33.1
    },
    {
      "cityName": "Vetrovka",
      "lat": 45.366667,
      "lng": 33.65
    },
    {
      "cityName": "Vinogradnoye",
      "lat": 44.483333,
      "lng": 34.1
    },
    {
      "cityName": "Vinogradovo",
      "lat": 45.4,
      "lng": 33.666667
    },
    {
      "cityName": "Vishnëvka",
      "lat": 45.966667,
      "lng": 33.966667
    },
    {
      "cityName": "Vishnevoye",
      "lat": 45.133333,
      "lng": 34.583333
    },
    {
      "cityName": "Vladislavka",
      "lat": 45.466667,
      "lng": 34.6
    },
    {
      "cityName": "Vladislavovka",
      "lat": 45.166667,
      "lng": 35.366667
    },
    {
      "cityName": "Voinka",
      "lat": 45.867778,
      "lng": 33.993056
    },
    {
      "cityName": "Vorontsovka",
      "lat": 45.85,
      "lng": 33.8
    },
    {
      "cityName": "Voron",
      "lat": 44.883333,
      "lng": 34.816667
    },
    {
      "cityName": "Voskhod",
      "lat": 44.516667,
      "lng": 34.216667
    },
    {
      "cityName": "Vostochnoye",
      "lat": 45.181389,
      "lng": 36.025833
    },
    {
      "cityName": "Vypasnoye",
      "lat": 45.616667,
      "lng": 33.9
    },
    {
      "cityName": "Yakubovka",
      "lat": 45.333333,
      "lng": 34.483333
    },
    {
      "cityName": "YanyshTakyl",
      "lat": 45.128333,
      "lng": 36.406944
    },
    {
      "cityName": "Yastrebkovo",
      "lat": 45.116667,
      "lng": 33.733333
    },
    {
      "cityName": "Yegorovo",
      "lat": 45.385833,
      "lng": 36.482778
    },
    {
      "cityName": "Yelënovka",
      "lat": 45.583333,
      "lng": 34.05
    },
    {
      "cityName": "Yolotoye",
      "lat": 45.423056,
      "lng": 36.08
    },
    {
      "cityName": "Yudendorf",
      "lat": 45.65,
      "lng": 33.916667
    },
    {
      "cityName": "YukharyBashi",
      "lat": 44.983333,
      "lng": 34.633333
    },