{
  "name": "Fribourg",
  "cities": [
    {
      "cityName": "Abländschen",
      "lat": 46.566667,
      "lng": 7.3
    },
    {
      "cityName": "Adannes",
      "lat": 46.516667,
      "lng": 7.25
    },
    {
      "cityName": "Aeschlenberg",
      "lat": 46.783333,
      "lng": 7.266667
    },
    {
      "cityName": "Albeuve",
      "lat": 46.516667,
      "lng": 7.066667
    },
    {
      "cityName": "Alterswil",
      "lat": 46.8,
      "lng": 7.266667
    },
    {
      "cityName": "Arconciel",
      "lat": 46.75,
      "lng": 7.116667
    },
    {
      "cityName": "Attalens",
      "lat": 46.516667,
      "lng": 6.85
    },
    {
      "cityName": "Autigny",
      "lat": 46.733333,
      "lng": 7.016667
    },
    {
      "cityName": "Avry",
      "lat": 46.783333,
      "lng": 7.066667
    },
    {
      "cityName": "Bad-Schwarzsee",
      "lat": 46.666667,
      "lng": 7.283333
    },
    {
      "cityName": "Barberêche",
      "lat": 46.866667,
      "lng": 7.166667
    },
    {
      "cityName": "Belfaux",
      "lat": 46.816667,
      "lng": 7.1
    },
    {
      "cityName": "Biberen",
      "lat": 46.933333,
      "lng": 7.216667
    },
    {
      "cityName": "Bonnefontaine",
      "lat": 46.733333,
      "lng": 7.2
    },
    {
      "cityName": "Bösingen",
      "lat": 46.9,
      "lng": 7.216667
    },
    {
      "cityName": "Broc",
      "lat": 46.616667,
      "lng": 7.1
    },
    {
      "cityName": "Bulle",
      "lat": 46.616667,
      "lng": 7.066667
    },
    {
      "cityName": "Bundtels",
      "lat": 46.866667,
      "lng": 7.216667
    },
    {
      "cityName": "Burstera",
      "lat": 46.683333,
      "lng": 7.283333
    },
    {
      "cityName": "Cerniat",
      "lat": 46.633333,
      "lng": 7.166667
    },
    {
      "cityName": "Charmey",
      "lat": 46.616667,
      "lng": 7.166667
    },
    {
      "cityName": "Châtonnaye",
      "lat": 46.75,
      "lng": 6.933333
    },
    {
      "cityName": "Chavannes-sous-Orsonnens",
      "lat": 46.733333,
      "lng": 6.983333
    },
    {
      "cityName": "Cheyres",
      "lat": 46.816667,
      "lng": 6.783333
    },
    {
      "cityName": "Corcelles",
      "lat": 46.833333,
      "lng": 6.966667
    },
    {
      "cityName": "Cordast",
      "lat": 46.866667,
      "lng": 7.15
    },
    {
      "cityName": "Corminboeuf",
      "lat": 46.8,
      "lng": 7.1
    },
    {
      "cityName": "Cottens",
      "lat": 46.75,
      "lng": 7.033333
    },
    {
      "cityName": "Courgevaux",
      "lat": 46.9,
      "lng": 7.1
    },
    {
      "cityName": "Courlevon",
      "lat": 46.883333,
      "lng": 7.1
    },
    {
      "cityName": "Courtepin",
      "lat": 46.85,
      "lng": 7.2
    },
    {
      "cityName": "Courtion",
      "lat": 46.866667,
      "lng": 7.066667
    },
    {
      "cityName": "Cressier",
      "lat": 46.9,
      "lng": 7.133333
    },
    {
      "cityName": "Domdidier",
      "lat": 46.866667,
      "lng": 7.016667
    },
    {
      "cityName": "Dompierre",
      "lat": 46.85,
      "lng": 7
    },
    {
      "cityName": "Donatyre",
      "lat": 46.883333,
      "lng": 7.066667
    },
    {
      "cityName": "Echarlens",
      "lat": 46.65,
      "lng": 7.066667
    },
    {
      "cityName": "Ecuvillens",
      "lat": 46.75,
      "lng": 7.083333
    },
    {
      "cityName": "En la Gottaz",
      "lat": 46.7,
      "lng": 7.1
    },
    {
      "cityName": "Enney",
      "lat": 46.566667,
      "lng": 7.083333
    },
    {
      "cityName": "Entenmoos",
      "lat": 46.766667,
      "lng": 7.25
    },
    {
      "cityName": "Ependes",
      "lat": 46.75,
      "lng": 7.133333
    },
    {
      "cityName": "Farvagny-le-Grand",
      "lat": 46.716667,
      "lng": 7.066667
    },
    {
      "cityName": "Farvagny-le-Petit",
      "lat": 46.733333,
      "lng": 7.083333
    },
    {
      "cityName": "Flamatt",
      "lat": 46.883333,
      "lng": 7.3
    },
    {
      "cityName": "Freiburg",
      "lat": 46.8,
      "lng": 7.15
    },
    {
      "cityName": "Galmiz",
      "lat": 46.95,
      "lng": 7.15
    },
    {
      "cityName": "Giffers",
      "lat": 46.766667,
      "lng": 7.216667
    },
    {
      "cityName": "Grandsivaz",
      "lat": 46.783333,
      "lng": 6.983333
    },
    {
      "cityName": "Grandvillard",
      "lat": 46.55,
      "lng": 7.1
    },
    {
      "cityName": "Grolley",
      "lat": 46.833333,
      "lng": 7.083333
    },
    {
      "cityName": "Gross Gurmels",
      "lat": 46.883333,
      "lng": 7.166667
    },
    {
      "cityName": "Gruyères",
      "lat": 46.583333,
      "lng": 7.083333
    },
    {
      "cityName": "Guggisberg",
      "lat": 46.766667,
      "lng": 7.333333
    },
    {
      "cityName": "Hauterive",
      "lat": 46.75,
      "lng": 7.1
    },
    {
      "cityName": "Hauteville",
      "lat": 46.666667,
      "lng": 7.116667
    },
    {
      "cityName": "Heitenried",
      "lat": 46.833333,
      "lng": 7.3
    },
    {
      "cityName": "Im Fang",
      "lat": 46.6,
      "lng": 7.25
    },
    {
      "cityName": "Im Kloster",
      "lat": 46.716667,
      "lng": 7.3
    },
    {
      "cityName": "Jaun",
      "lat": 46.6,
      "lng": 7.283333
    },
    {
      "cityName": "Jeuss",
      "lat": 46.9,
      "lng": 7.166667
    },
    {
      "cityName": "Kalchstätten",
      "lat": 46.766667,
      "lng": 7.3
    },
    {
      "cityName": "Kerzers",
      "lat": 46.966667,
      "lng": 7.2
    },
    {
      "cityName": "Kriechenwil",
      "lat": 46.9,
      "lng": 7.233333
    },
    {
      "cityName": "La Roche",
      "lat": 46.7,
      "lng": 7.133333
    },
    {
      "cityName": "Le Bry",
      "lat": 46.7,
      "lng": 7.083333
    },
    {
      "cityName": "Léchelles",
      "lat": 46.833333,
      "lng": 7.016667
    },
    {
      "cityName": "Liebistorf",
      "lat": 46.916667,
      "lng": 7.2
    },
    {
      "cityName": "Lurtigen",
      "lat": 46.916667,
      "lng": 7.166667
    },
    {
      "cityName": "Mannens",
      "lat": 46.8,
      "lng": 6.966667
    },
    {
      "cityName": "Marly-le-Grand",
      "lat": 46.766667,
      "lng": 7.15
    },
    {
      "cityName": "Mézières",
      "lat": 46.683333,
      "lng": 6.933333
    },
    {
      "cityName": "Mollettes",
      "lat": 46.633333,
      "lng": 7.016667
    },
    {
      "cityName": "Montagny-la-Ville",
      "lat": 46.816667,
      "lng": 6.983333
    },
    {
      "cityName": "Murten",
      "lat": 46.933333,
      "lng": 7.116667
    },
    {
      "cityName": "Noréaz",
      "lat": 46.8,
      "lng": 7.016667
    },
    {
      "cityName": "Ober Rohrmoos",
      "lat": 46.6,
      "lng": 7.316667
    },
    {
      "cityName": "Oberschrot",
      "lat": 46.733333,
      "lng": 7.266667
    },
    {
      "cityName": "Onnens",
      "lat": 46.783333,
      "lng": 7.05
    },
    {
      "cityName": "Orsonnens",
      "lat": 46.716667,
      "lng": 6.983333
    },
    {
      "cityName": "Plaffeien",
      "lat": 46.75,
      "lng": 7.283333
    },
    {
      "cityName": "Plasselb",
      "lat": 46.733333,
      "lng": 7.25
    },
    {
      "cityName": "Ponthaux",
      "lat": 46.816667,
      "lng": 7.033333
    },
    {
      "cityName": "Porsel",
      "lat": 46.6,
      "lng": 6.866667
    },
    {
      "cityName": "Portalban",
      "lat": 46.916667,
      "lng": 6.95
    },
    {
      "cityName": "Praroman",
      "lat": 46.75,
      "lng": 7.183333
    },
    {
      "cityName": "Riaz",
      "lat": 46.633333,
      "lng": 7.066667
    },
    {
      "cityName": "Ried",
      "lat": 46.95,
      "lng": 7.183333
    },
    {
      "cityName": "Riedstätt",
      "lat": 46.783333,
      "lng": 7.316667
    },
    {
      "cityName": "Riffenmatt",
      "lat": 46.766667,
      "lng": 7.35
    },
    {
      "cityName": "Römerswil",
      "lat": 46.783333,
      "lng": 7.183333
    },
    {
      "cityName": "Romont",
      "lat": 46.7,
      "lng": 6.916667
    },
    {
      "cityName": "Rossens",
      "lat": 46.716667,
      "lng": 7.1
    },
    {
      "cityName": "Rue",
      "lat": 46.616667,
      "lng": 6.816667
    },
    {
      "cityName": "Saanenmöser",
      "lat": 46.516667,
      "lng": 7.3
    },
    {
      "cityName": "Sâles",
      "lat": 46.633333,
      "lng": 6.966667
    },
    {
      "cityName": "Sangernboden",
      "lat": 46.716667,
      "lng": 7.35
    },
    {
      "cityName": "Sankt Antoni",
      "lat": 46.816667,
      "lng": 7.266667
    },
    {
      "cityName": "Sankt Ursen",
      "lat": 46.8,
      "lng": 7.216667
    },
    {
      "cityName": "Schmitten",
      "lat": 46.866667,
      "lng": 7.25
    },
    {
      "cityName": "Semsales",
      "lat": 46.583333,
      "lng": 6.933333
    },
    {
      "cityName": "Siviriez",
      "lat": 46.666667,
      "lng": 6.866667
    },
    {
      "cityName": "Sorens",
      "lat": 46.683333,
      "lng": 7.05
    },
    {
      "cityName": "Sugiez",
      "lat": 46.966667,
      "lng": 7.1
    },
    {
      "cityName": "Treyfayes",
      "lat": 46.666667,
      "lng": 6.95
    },
    {
      "cityName": "Treyvaux",
      "lat": 46.733333,
      "lng": 7.133333
    },
    {
      "cityName": "Ueberstorf",
      "lat": 46.866667,
      "lng": 7.3
    },
    {
      "cityName": "Vauderens",
      "lat": 46.616667,
      "lng": 6.85
    },
    {
      "cityName": "Vaulruz",
      "lat": 46.616667,
      "lng": 7
    },
    {
      "cityName": "Villarsel-le-Gibloux",
      "lat": 46.716667,
      "lng": 7.016667
    },
    {
      "cityName": "Villarsiviriaux",
      "lat": 46.7,
      "lng": 7.016667
    },
    {
      "cityName": "Villars-sur-Glâne",
      "lat": 46.8,
      "lng": 7.116667
    },
    {
      "cityName": "Villars-sur-Marly",
      "lat": 46.766667,
      "lng": 7.183333
    },
    {
      "cityName": "Villarvolard",
      "lat": 46.65,
      "lng": 7.1
    },
    {
      "cityName": "Villaz-Saint-Pierre",
      "lat": 46.716667,
      "lng": 6.966667
    },
    {
      "cityName": "Vuadens",
      "lat": 46.616667,
      "lng": 7.033333
    },
    {
      "cityName": "Vuisternens",
      "lat": 46.7,
      "lng": 7.05
    },
    {
      "cityName": "Wallenbuch",
      "lat": 46.916667,
      "lng": 7.216667
    },
    {
      "cityName": "Wallenried",
      "lat": 46.866667,
      "lng": 7.116667
    },
    {
      "cityName": "Wünnewil",
      "lat": 46.883333,
      "lng": 7.266667
    },
    {
      "cityName": "Zumholz",
      "lat": 46.75,
      "lng": 7.3
    }
  ]
}