{
  "name": "Flevoland",
  "cities": [
    {
      "cityName": "Almere",
      "lat": 52.3666667,
      "lng": 5.15
    },
    {
      "cityName": "Almere-Haven",
      "lat": 52.3166667,
      "lng": 5.1833333
    },
    {
      "cityName": "Bant",
      "lat": 52.7666667,
      "lng": 5.75
    },
    {
      "cityName": "Biddinghuizen",
      "lat": 52.45,
      "lng": 5.7
    },
    {
      "cityName": "Creil",
      "lat": 52.7666667,
      "lng": 5.6666667
    },
    {
      "cityName": "Dronten",
      "lat": 52.5333333,
      "lng": 5.7166667
    },
    {
      "cityName": "Emmeloord",
      "lat": 52.7166667,
      "lng": 5.7666667
    },
    {
      "cityName": "Ens",
      "lat": 52.6333333,
      "lng": 5.8333333
    },
    {
      "cityName": "Espele",
      "lat": 52.7166667,
      "lng": 5.65
    },
    {
      "cityName": "Haven van Lelystad",
      "lat": 52.5166667,
      "lng": 5.45
    },
    {
      "cityName": "Ketelhaven",
      "lat": 52.5833333,
      "lng": 5.75
    },
    {
      "cityName": "Kraggenburg",
      "lat": 52.6666667,
      "lng": 5.9
    },
    {
      "cityName": "Luttelgeest",
      "lat": 52.75,
      "lng": 5.85
    },
    {
      "cityName": "Marknesse",
      "lat": 52.7166667,
      "lng": 5.8666667
    },
    {
      "cityName": "Middelbuurt",
      "lat": 52.6333333,
      "lng": 5.7833333
    },
    {
      "cityName": "Nagele",
      "lat": 52.65,
      "lng": 5.7333333
    },
    {
      "cityName": "Oostvaardersdiep",
      "lat": 52.4166667,
      "lng": 5.2333333
    },
    {
      "cityName": "Roggebotsluis",
      "lat": 52.55,
      "lng": 5.85
    },
    {
      "cityName": "Rutten",
      "lat": 52.8,
      "lng": 5.7
    },
    {
      "cityName": "Swifterbant",
      "lat": 52.5666667,
      "lng": 5.6333333
    },
    {
      "cityName": "Tollebeek",
      "lat": 52.6833333,
      "lng": 5.6833333
    },
    {
      "cityName": "Top",
      "lat": 52.6666667,
      "lng": 5.6
    },
    {
      "cityName": "Zeewolde",
      "lat": 52.3666667,
      "lng": 5.55
    }
  ]
}