{
  "name": "Levkas",
  "cities": [
    {
      "cityName": "Ágios Pétros",
      "lat": 38.6666667,
      "lng": 20.6
    },
    {
      "cityName": "Akhoúria",
      "lat": 38.7166667,
      "lng": 20.7333333
    },
    {
      "cityName": "Alatrá",
      "lat": 38.6833333,
      "lng": 20.6666667
    },
    {
      "cityName": "Aléxandhros",
      "lat": 38.75,
      "lng": 20.6833333
    },
    {
      "cityName": "Áno Exánthia",
      "lat": 38.75,
      "lng": 20.6166667
    },
    {
      "cityName": "Apólpaina",
      "lat": 38.8166667,
      "lng": 20.6833333
    },
    {
      "cityName": "Asproyerakáta",
      "lat": 38.7833333,
      "lng": 20.65
    },
    {
      "cityName": "Athánion",
      "lat": 38.6666667,
      "lng": 20.5666667
    },
    {
      "cityName": "Ayía Marína",
      "lat": 38.8333333,
      "lng": 20.6833333
    },
    {
      "cityName": "Áyios Andréas",
      "lat": 38.75,
      "lng": 20.65
    },
    {
      "cityName": "Áyios Ilías",
      "lat": 38.7,
      "lng": 20.6333333
    },
    {
      "cityName": "Áyios Nikítas",
      "lat": 38.7833333,
      "lng": 20.6166667
    },
    {
      "cityName": "Ayios Nikólaos",
      "lat": 38.5833333,
      "lng": 20.55
    },
    {
      "cityName": "Áyios Vasílios",
      "lat": 38.7,
      "lng": 20.6166667
    },
    {
      "cityName": "Chortáta",
      "lat": 38.7166667,
      "lng": 20.6
    },
    {
      "cityName": "Dhráganon",
      "lat": 38.6833333,
      "lng": 20.5833333
    },
    {
      "cityName": "Dhrimónas",
      "lat": 38.7666667,
      "lng": 20.6333333
    },
    {
      "cityName": "Englouví",
      "lat": 38.7333333,
      "lng": 20.65
    },
    {
      "cityName": "Epískopos",
      "lat": 38.7666667,
      "lng": 20.7166667
    },
    {
      "cityName": "Évyiros",
      "lat": 38.6166667,
      "lng": 20.6666667
    },
    {
      "cityName": "Fraxí",
      "lat": 38.75,
      "lng": 20.7166667
    },
    {
      "cityName": "Ftérno",
      "lat": 38.65,
      "lng": 20.6833333
    },
    {
      "cityName": "Kalamítsi",
      "lat": 38.75,
      "lng": 20.6
    },
    {
      "cityName": "Kálamos",
      "lat": 38.6166667,
      "lng": 20.9333333
    },
    {
      "cityName": "Kalligónion",
      "lat": 38.8166667,
      "lng": 20.7166667
    },
    {
      "cityName": "Kariá",
      "lat": 38.7666667,
      "lng": 20.65
    },
    {
      "cityName": "Kariótai",
      "lat": 38.7833333,
      "lng": 20.7
    },
    {
      "cityName": "Kastós",
      "lat": 38.5666667,
      "lng": 20.9166667
    },
    {
      "cityName": "Katokhóri",
      "lat": 38.6666667,
      "lng": 20.7
    },
    {
      "cityName": "Katoméri",
      "lat": 38.65,
      "lng": 20.7833333
    },
    {
      "cityName": "Kávallos",
      "lat": 38.7833333,
      "lng": 20.6666667
    },
    {
      "cityName": "Kefalí",
      "lat": 38.6,
      "lng": 20.8833333
    },
    {
      "cityName": "Kharadhiátika",
      "lat": 38.6833333,
      "lng": 20.6833333
    },
    {
      "cityName": "Kolóni",
      "lat": 38.7166667,
      "lng": 20.6833333
    },
    {
      "cityName": "Komilió",
      "lat": 38.7166667,
      "lng": 20.5833333
    },
    {
      "cityName": "Kondáraina",
      "lat": 38.6333333,
      "lng": 20.6333333
    },
    {
      "cityName": "Lefkáda",
      "lat": 38.8275,
      "lng": 20.7019444
    },
    {
      "cityName": "Marandokhóri",
      "lat": 38.6333333,
      "lng": 20.65
    },
    {
      "cityName": "Nidhrí",
      "lat": 38.7,
      "lng": 20.7166667
    },
    {
      "cityName": "Palaiokatoúna",
      "lat": 38.7,
      "lng": 20.7
    },
    {
      "cityName": "Palaiokhóri",
      "lat": 38.7,
      "lng": 20.6833333
    },
    {
      "cityName": "Platístoma",
      "lat": 38.7333333,
      "lng": 20.6666667
    },
    {
      "cityName": "Póndi",
      "lat": 38.6333333,
      "lng": 20.6
    },
    {
      "cityName": "Póros",
      "lat": 38.6333333,
      "lng": 20.7166667
    },
    {
      "cityName": "Roupakiá",
      "lat": 38.6833333,
      "lng": 20.6166667
    },
    {
      "cityName": "Sívota",
      "lat": 38.6166667,
      "lng": 20.6833333
    },
    {
      "cityName": "Sívros",
      "lat": 38.6666667,
      "lng": 20.65
    },
    {
      "cityName": "Spartokhórion",
      "lat": 38.6666667,
      "lng": 20.7666667
    },
    {
      "cityName": "Spasméni Vrísi",
      "lat": 38.8,
      "lng": 20.7166667
    },
    {
      "cityName": "Tafíon",
      "lat": 38.6666667,
      "lng": 20.7833333
    },
    {
      "cityName": "Tsoukaládes",
      "lat": 38.8166667,
      "lng": 20.65
    },
    {
      "cityName": "Vasilikí",
      "lat": 38.6166667,
      "lng": 20.6
    },
    {
      "cityName": "Vavkerí",
      "lat": 38.7166667,
      "lng": 20.6666667
    },
    {
      "cityName": "Vlikhón",
      "lat": 38.6833333,
      "lng": 20.7
    }
  ]
}