{
  "name": "Kerkira",
  "cities": [
    {
      "cityName": "Achílleion",
      "lat": 39.5644444,
      "lng": 19.905
    },
    {
      "cityName": "Afión",
      "lat": 39.7208333,
      "lng": 19.6594444
    },
    {
      "cityName": "Áfra",
      "lat": 39.6197222,
      "lng": 19.8577778
    },
    {
      "cityName": "(( Agía Aikateríni ))",
      "lat": 39.8172222,
      "lng": 19.845
    },
    {
      "cityName": "(( Agía Eleoúsa ))",
      "lat": 39.6,
      "lng": 19.9
    },
    {
      "cityName": "Ágioi Déka",
      "lat": 39.5558333,
      "lng": 19.8847222
    },
    {
      "cityName": "Ágioi Doúloi",
      "lat": 39.745,
      "lng": 19.7572222
    },
    {
      "cityName": "Ágioi Theódoroi",
      "lat": 39.4233333,
      "lng": 20.0688889
    },
    {
      "cityName": "Ágios Aimilianós",
      "lat": 39.1530556,
      "lng": 20.2236111
    },
    {
      "cityName": "Ágios Athanásios",
      "lat": 39.7338889,
      "lng": 19.7161111
    },
    {
      "cityName": "Ágios Dimítrios",
      "lat": 39.4605556,
      "lng": 19.9491667
    },
    {
      "cityName": "Ágios Ilías",
      "lat": 39.7986111,
      "lng": 19.8686111
    },
    {
      "cityName": "Ágios Ioánnis",
      "lat": 39.6158333,
      "lng": 19.85
    },
    {
      "cityName": "Ágios Márkos",
      "lat": 39.7075,
      "lng": 19.8202778
    },
    {
      "cityName": "Ágios Matthaíos",
      "lat": 39.4958333,
      "lng": 19.8730556
    },
    {
      "cityName": "Ágios Nikólaos",
      "lat": 39.4427778,
      "lng": 19.9955556
    },
    {
      "cityName": "Agios Panteleimon",
      "lat": 39.7752778,
      "lng": 19.8213889
    },
    {
      "cityName": "Ágios Prokópios",
      "lat": 39.5733333,
      "lng": 19.8766667
    },
    {
      "cityName": "Ágios Rókkos",
      "lat": 39.6216667,
      "lng": 19.9186111
    },
    {
      "cityName": "Ágios Stéfanos",
      "lat": 39.7666667,
      "lng": 19.9463889
    },
    {
      "cityName": "Agní",
      "lat": 39.7361111,
      "lng": 19.9280556
    },
    {
      "cityName": "Agnítsasi",
      "lat": 39.7566667,
      "lng": 19.9302778
    },
    {
      "cityName": "Agrafoí",
      "lat": 39.7633333,
      "lng": 19.7386111
    },
    {
      "cityName": "Agrós",
      "lat": 39.7233333,
      "lng": 19.7213889
    },
    {
      "cityName": "Aleimmatádes",
      "lat": 39.695,
      "lng": 19.7263889
    },
    {
      "cityName": "Alepochórion",
      "lat": 39.5566667,
      "lng": 19.8713889
    },
    {
      "cityName": "Alepoú",
      "lat": 39.6102778,
      "lng": 19.8888889
    },
    {
      "cityName": "Ámmos",
      "lat": 39.8436111,
      "lng": 19.4097222
    },
    {
      "cityName": "Análipsi",
      "lat": 39.6033333,
      "lng": 19.925
    },
    {
      "cityName": "Análipsis",
      "lat": 39.7011111,
      "lng": 19.8222222
    },
    {
      "cityName": "Anapaftíria",
      "lat": 39.7833333,
      "lng": 19.8825
    },
    {
      "cityName": "Anapládes",
      "lat": 39.4222222,
      "lng": 20.0463889
    },
    {
      "cityName": "Andiperni",
      "lat": 39.7741667,
      "lng": 19.7411111
    },
    {
      "cityName": "Anemogiannátika",
      "lat": 39.2180556,
      "lng": 20.1563889
    },
    {
      "cityName": "Anemómilos",
      "lat": 39.6088889,
      "lng": 19.9266667
    },
    {
      "cityName": "Ano Chorion",
      "lat": 39.7797222,
      "lng": 19.515
    },
    {
      "cityName": "Áno Garoúna",
      "lat": 39.5486111,
      "lng": 19.8694444
    },
    {
      "cityName": "Áno Korakiána",
      "lat": 39.7077778,
      "lng": 19.7916667
    },
    {
      "cityName": "Áno Lefkímmi",
      "lat": 39.4244444,
      "lng": 20.0616667
    },
    {
      "cityName": "Áno Mathrákion",
      "lat": 39.7644444,
      "lng": 19.5283333
    },
    {
      "cityName": "Áno Pavliána",
      "lat": 39.52,
      "lng": 19.8572222
    },
    {
      "cityName": "Áno Viroú",
      "lat": 39.5838889,
      "lng": 19.8819444
    },
    {
      "cityName": "Apergátika",
      "lat": 39.2319444,
      "lng": 20.1483333
    },
    {
      "cityName": "Argyrádes",
      "lat": 39.4369444,
      "lng": 19.9758333
    },
    {
      "cityName": "Argyrátika",
      "lat": 39.2263889,
      "lng": 20.1452778
    },
    {
      "cityName": "Arkadádes",
      "lat": 39.7069444,
      "lng": 19.7269444
    },
    {
      "cityName": "Armenádes",
      "lat": 39.7458333,
      "lng": 19.6866667
    },
    {
      "cityName": "Aronátika",
      "lat": 39.2255556,
      "lng": 20.1313889
    },
    {
      "cityName": "Arvanitakaíïka",
      "lat": 39.205,
      "lng": 20.1555556
    },
    {
      "cityName": "Aspiotádes",
      "lat": 39.7258333,
      "lng": 19.7011111
    },
    {
      "cityName": "Astrakári",
      "lat": 39.7930556,
      "lng": 19.7541667
    },
    {
      "cityName": "Athinioí",
      "lat": 39.7180556,
      "lng": 19.7233333
    },
    {
      "cityName": "Avliótai",
      "lat": 39.775,
      "lng": 19.6625
    },
    {
      "cityName": "Áyios Nikólaos",
      "lat": 39.6088889,
      "lng": 19.8561111
    },
    {
      "cityName": "Bastátika",
      "lat": 39.3961111,
      "lng": 20.0663889
    },
    {
      "cityName": "Bastoúni",
      "lat": 39.5905556,
      "lng": 19.8713889
    },
    {
      "cityName": "Benitsa",
      "lat": 39.5455556,
      "lng": 19.9072222
    },
    {
      "cityName": "Bogdanátika",
      "lat": 39.1925,
      "lng": 20.1783333
    },
    {
      "cityName": "Boïkátika",
      "lat": 39.2044444,
      "lng": 20.1441667
    },
    {
      "cityName": "Chalidiáta",
      "lat": 39.5361111,
      "lng": 19.8975
    },
    {
      "cityName": "Chlomatianá",
      "lat": 39.4625,
      "lng": 19.9208333
    },
    {
      "cityName": "Chlomós",
      "lat": 39.4566667,
      "lng": 19.9552778
    },
    {
      "cityName": "Chorepískopoi",
      "lat": 39.7191667,
      "lng": 19.7402778
    },
    {
      "cityName": "Chourdátika",
      "lat": 39.2269444,
      "lng": 20.1333333
    },
    {
      "cityName": "Corcyra",
      "lat": 39.62,
      "lng": 19.9197222
    },
    {
      "cityName": "Dafnáta",
      "lat": 39.5333333,
      "lng": 19.8994444
    },
    {
      "cityName": "Dáfni",
      "lat": 39.7297222,
      "lng": 19.6936111
    },
    {
      "cityName": "Dalietátika",
      "lat": 39.2341667,
      "lng": 20.1305556
    },
    {
      "cityName": "Deletátika",
      "lat": 39.8533333,
      "lng": 19.4072222
    },
    {
      "cityName": "Dendiátika",
      "lat": 39.2280556,
      "lng": 20.1608333
    },
    {
      "cityName": "Dhoukádhes",
      "lat": 39.69,
      "lng": 19.7388889
    },
    {
      "cityName": "Dhragotiná",
      "lat": 39.3827778,
      "lng": 20.0838889
    },
    {
      "cityName": "Dhrosáton",
      "lat": 39.7325,
      "lng": 19.7344444
    },
    {
      "cityName": "Epískepsis",
      "lat": 39.7597222,
      "lng": 19.8136111
    },
    {
      "cityName": "Episkopianá",
      "lat": 39.4955556,
      "lng": 19.9186111
    },
    {
      "cityName": "Episkopí",
      "lat": 39.7469444,
      "lng": 19.7705556
    },
    {
      "cityName": "Ereikoússa",
      "lat": 39.8808333,
      "lng": 19.5913889
    },
    {
      "cityName": "Evropoúloi",
      "lat": 39.625,
      "lng": 19.8613889
    },
    {
      "cityName": "Fanariotátika",
      "lat": 39.1855556,
      "lng": 20.1816667
    },
    {
      "cityName": "(( Filaréton ))",
      "lat": 39.5833333,
      "lng": 19.9166667
    },
    {
      "cityName": "Fountána",
      "lat": 39.2111111,
      "lng": 20.1641667
    },
    {
      "cityName": "Gáïos",
      "lat": 39.1972222,
      "lng": 20.1855556
    },
    {
      "cityName": "Gardeládes",
      "lat": 39.6794444,
      "lng": 19.7438889
    },
    {
      "cityName": "Garítsa",
      "lat": 39.6138889,
      "lng": 19.9197222
    },
    {
      "cityName": "Gastóuri",
      "lat": 39.56,
      "lng": 19.8975
    },
    {
      "cityName": "Gavrádes",
      "lat": 39.7327778,
      "lng": 19.7069444
    },
    {
      "cityName": "Gazátika",
      "lat": 39.675,
      "lng": 19.8152778
    },
    {
      "cityName": "Georgoutsátika",
      "lat": 39.2286111,
      "lng": 20.1530556
    },
    {
      "cityName": "Giannádes",
      "lat": 39.63,
      "lng": 19.7594444
    },
    {
      "cityName": "Gouviá",
      "lat": 39.6502778,
      "lng": 19.8433333
    },
    {
      "cityName": "Grammatikaíika",
      "lat": 39.2147222,
      "lng": 20.1411111
    },
    {
      "cityName": "Gýrou",
      "lat": 39.7088889,
      "lng": 19.7325
    },
    {
      "cityName": "Ieramónakhos",
      "lat": 39.2044444,
      "lng": 20.1716667
    },
    {
      "cityName": "Ipsilá",
      "lat": 39.7788889,
      "lng": 19.8733333
    },
    {
      "cityName": "Ípsos",
      "lat": 39.6947222,
      "lng": 19.8366667
    },
    {
      "cityName": "Kagkátika",
      "lat": 39.2152778,
      "lng": 20.1608333
    },
    {
      "cityName": "Kalafatiónes",
      "lat": 39.5780556,
      "lng": 19.8552778
    },
    {
      "cityName": "Kalámi",
      "lat": 39.7436111,
      "lng": 19.9322222
    },
    {
      "cityName": "(( Kalodhikátika ))",
      "lat": 39.2333333,
      "lng": 20.1333333
    },
    {
      "cityName": "Kalývia",
      "lat": 39.4536111,
      "lng": 20
    },
    {
      "cityName": "Kamára",
      "lat": 39.555,
      "lng": 19.8611111
    },
    {
      "cityName": "Kanakádes",
      "lat": 39.6488889,
      "lng": 19.7616667
    },
    {
      "cityName": "Kanáli Lemendíon",
      "lat": 39.6055556,
      "lng": 19.8925
    },
    {
      "cityName": "Kariótikon",
      "lat": 39.7638889,
      "lng": 19.9275
    },
    {
      "cityName": "Karousádes",
      "lat": 39.7808333,
      "lng": 19.7411111
    },
    {
      "cityName": "Kasiópi",
      "lat": 39.7886111,
      "lng": 19.9186111
    },
    {
      "cityName": "Kastanéa",
      "lat": 39.5925,
      "lng": 19.8833333
    },
    {
      "cityName": "Kastellánoi",
      "lat": 39.5666667,
      "lng": 19.8652778
    },
    {
      "cityName": "Katávolos",
      "lat": 39.7325,
      "lng": 19.905
    },
    {
      "cityName": "Káto Garoúna",
      "lat": 39.5411111,
      "lng": 19.8580556
    },
    {
      "cityName": "Káto Korakiána",
      "lat": 39.6897222,
      "lng": 19.8252778
    },
    {
      "cityName": "Káto Pavliána",
      "lat": 39.5258333,
      "lng": 19.8602778
    },
    {
      "cityName": "Káto Spílaion",
      "lat": 39.4641667,
      "lng": 19.9391667
    },
    {
      "cityName": "Katsaméika",
      "lat": 39.1822222,
      "lng": 20.1913889
    },
    {
      "cityName": "Kavallárena",
      "lat": 39.7386111,
      "lng": 19.9272222
    },
    {
      "cityName": "Kavalloúrion",
      "lat": 39.7744444,
      "lng": 19.7502778
    },
    {
      "cityName": "Kávos",
      "lat": 39.3838889,
      "lng": 20.1133333
    },
    {
      "cityName": "Kavvadádes",
      "lat": 39.7372222,
      "lng": 19.6652778
    },
    {
      "cityName": "Kefalátika",
      "lat": 39.1877778,
      "lng": 20.1833333
    },
    {
      "cityName": "Keliá",
      "lat": 39.7708333,
      "lng": 19.9116667
    },
    {
      "cityName": "Kéndroma",
      "lat": 39.7363889,
      "lng": 19.9294444
    },
    {
      "cityName": "(( Kerasá ))",
      "lat": 39.7525,
      "lng": 19.9419444
    },
    {
      "cityName": "Khaldhiata",
      "lat": 39.5333333,
      "lng": 19.9
    },
    {
      "cityName": "Kinopiástai",
      "lat": 39.5694444,
      "lng": 19.8825
    },
    {
      "cityName": "Kiprianádhes",
      "lat": 39.74,
      "lng": 19.7630556
    },
    {
      "cityName": "Klimatiá",
      "lat": 39.7391667,
      "lng": 19.7825
    },
    {
      "cityName": "(( Klonátika ))",
      "lat": 39.2,
      "lng": 20.1833333
    },
    {
      "cityName": "Kokkíni",
      "lat": 39.6105556,
      "lng": 19.8102778
    },
    {
      "cityName": "Kombítsi",
      "lat": 39.6008333,
      "lng": 19.8694444
    },
    {
      "cityName": "Kondókali",
      "lat": 39.6452778,
      "lng": 19.8494444
    },
    {
      "cityName": "Kondoyiannátika",
      "lat": 39.2197222,
      "lng": 20.1625
    },
    {
      "cityName": "Kopsokhiládhes",
      "lat": 39.75,
      "lng": 19.7333333
    },
    {
      "cityName": "Korakádes",
      "lat": 39.4575,
      "lng": 19.9886111
    },
    {
      "cityName": "Kornáta",
      "lat": 39.5205556,
      "lng": 19.9013889
    },
    {
      "cityName": "Kothoníki",
      "lat": 39.5838889,
      "lng": 19.8688889
    },
    {
      "cityName": "Kouloúra",
      "lat": 39.7488889,
      "lng": 19.9388889
    },
    {
      "cityName": "Kounavádes",
      "lat": 39.7605556,
      "lng": 19.6952778
    },
    {
      "cityName": "Kouramádes",
      "lat": 39.57,
      "lng": 19.8527778
    },
    {
      "cityName": "Kourtaíïka",
      "lat": 39.21,
      "lng": 20.1591667
    },
    {
      "cityName": "Kouspádes",
      "lat": 39.4544444,
      "lng": 19.9775
    },
    {
      "cityName": "Koútsi",
      "lat": 39.2155556,
      "lng": 20.1630556
    },
    {
      "cityName": "Kriniá",
      "lat": 39.7872222,
      "lng": 19.8511111
    },
    {
      "cityName": "Kríni",
      "lat": 39.6852778,
      "lng": 19.6844444
    },
    {
      "cityName": "Kritiká",
      "lat": 39.3933333,
      "lng": 20.0522222
    },
    {
      "cityName": "Láfkion",
      "lat": 39.7780556,
      "lng": 19.8430556
    },
    {
      "cityName": "Lákka",
      "lat": 39.2347222,
      "lng": 20.135
    },
    {
      "cityName": "Lákones",
      "lat": 39.6811111,
      "lng": 19.7072222
    },
    {
      "cityName": "Liapádes",
      "lat": 39.6694444,
      "lng": 19.7363889
    },
    {
      "cityName": "Línia",
      "lat": 39.4452778,
      "lng": 19.9447222
    },
    {
      "cityName": "(( Litherés ))",
      "lat": 39.7891667,
      "lng": 19.805
    },
    {
      "cityName": "Longós",
      "lat": 39.2255556,
      "lng": 20.1608333
    },
    {
      "cityName": "Loútsai",
      "lat": 39.7877778,
      "lng": 19.8736111
    },
    {
      "cityName": "Magaziá",
      "lat": 39.2119444,
      "lng": 20.1541667
    },
    {
      "cityName": "Magouládes",
      "lat": 39.7575,
      "lng": 19.6772222
    },
    {
      "cityName": "Makrádes",
      "lat": 39.6913889,
      "lng": 19.6852778
    },
    {
      "cityName": "Makrátika",
      "lat": 39.1913889,
      "lng": 20.1813889
    },
    {
      "cityName": "Manatádes",
      "lat": 39.7213889,
      "lng": 19.7141667
    },
    {
      "cityName": "Mandoúki",
      "lat": 39.6275,
      "lng": 19.8963889
    },
    {
      "cityName": "Manesátika",
      "lat": 39.2125,
      "lng": 20.1461111
    },
    {
      "cityName": "Marathiá",
      "lat": 39.4277778,
      "lng": 19.9944444
    },
    {
      "cityName": "Mármaron",
      "lat": 39.6422222,
      "lng": 19.7602778
    },
    {
      "cityName": "Mastorátika",
      "lat": 39.2238889,
      "lng": 20.1486111
    },
    {
      "cityName": "Mastoriátika",
      "lat": 39.8558333,
      "lng": 19.415
    },
    {
      "cityName": "Melíkia",
      "lat": 39.4177778,
      "lng": 20.0830556
    },
    {
      "cityName": "Melíssia",
      "lat": 39.7925,
      "lng": 19.6955556
    },
    {
      "cityName": "Méngoulas",
      "lat": 39.7533333,
      "lng": 19.9016667
    },
    {
      "cityName": "Mesariá",
      "lat": 39.7386111,
      "lng": 19.7194444
    },
    {
      "cityName": "Mesongí",
      "lat": 39.4780556,
      "lng": 19.9338889
    },
    {
      "cityName": "Mokílas",
      "lat": 39.4422222,
      "lng": 20.0586111
    },
    {
      "cityName": "Mólos",
      "lat": 39.4391667,
      "lng": 20.0563889
    },
    {
      "cityName": "Moraitika",
      "lat": 39.4863889,
      "lng": 19.9252778
    },
    {
      "cityName": "Mougkelátika",
      "lat": 39.2333333,
      "lng": 20.1413889
    },
    {
      "cityName": "Neochorákion",
      "lat": 39.4408333,
      "lng": 19.9791667
    },
    {
      "cityName": "Neochórion",
      "lat": 39.3925,
      "lng": 20.0783333
    },
    {
      "cityName": "Nímfai",
      "lat": 39.7533333,
      "lng": 19.7822222
    },
    {
      "cityName": "Nisáki",
      "lat": 39.7252778,
      "lng": 19.8902778
    },
    {
      "cityName": "Nótos",
      "lat": 39.4472222,
      "lng": 20.0038889
    },
    {
      "cityName": "Oxiás",
      "lat": 39.1883333,
      "lng": 20.1911111
    },
    {
      "cityName": "Págoi",
      "lat": 39.7077778,
      "lng": 19.7036111
    },
    {
      "cityName": "Palaiochórion",
      "lat": 39.39,
      "lng": 20.0675
    },
    {
      "cityName": "Palaión Choríon",
      "lat": 39.7447222,
      "lng": 19.8813889
    },
    {
      "cityName": "Pandoriónes",
      "lat": 39.3783333,
      "lng": 20.0886111
    },
    {
      "cityName": "Papadátika",
      "lat": 39.8480556,
      "lng": 19.4133333
    },
    {
      "cityName": "Papoutsíras",
      "lat": 39.3827778,
      "lng": 20.1158333
    },
    {
      "cityName": "Pélekas",
      "lat": 39.5916667,
      "lng": 19.8233333
    },
    {
      "cityName": "Peloúni",
      "lat": 39.8013889,
      "lng": 19.86
    },
    {
      "cityName": "Pendátion",
      "lat": 39.5325,
      "lng": 19.8433333
    },
    {
      "cityName": "Perítheia",
      "lat": 39.7625,
      "lng": 19.8722222
    },
    {
      "cityName": "Perivólion",
      "lat": 39.4205556,
      "lng": 20.0147222
    },
    {
      "cityName": "Perouládes",
      "lat": 39.7866667,
      "lng": 19.6716667
    },
    {
      "cityName": "Petáleia",
      "lat": 39.7513889,
      "lng": 19.8372222
    },
    {
      "cityName": "Petrátika",
      "lat": 39.2305556,
      "lng": 20.1308333
    },
    {
      "cityName": "Píthos",
      "lat": 39.8002778,
      "lng": 19.8511111
    },
    {
      "cityName": "Plátonas",
      "lat": 39.7694444,
      "lng": 19.7755556
    },
    {
      "cityName": "Pórta",
      "lat": 39.75,
      "lng": 19.9161111
    },
    {
      "cityName": "Potámion",
      "lat": 39.4202778,
      "lng": 20.0825
    },
    {
      "cityName": "Potamós",
      "lat": 39.625,
      "lng": 19.8755556
    },
    {
      "cityName": "Pouládes",
      "lat": 39.6633333,
      "lng": 19.8072222
    },
    {
      "cityName": "Prinílas",
      "lat": 39.7044444,
      "lng": 19.6975
    },
    {
      "cityName": "Psachniá",
      "lat": 39.7833333,
      "lng": 19.8433333
    },
    {
      "cityName": "Rachtádes",
      "lat": 39.7441667,
      "lng": 19.695
    },
    {
      "cityName": "Rafaládes",
      "lat": 39.7172222,
      "lng": 19.7308333
    },
    {
      "cityName": "Randátika",
      "lat": 39.2197222,
      "lng": 20.1419444
    },
    {
      "cityName": "Róda",
      "lat": 39.7886111,
      "lng": 19.7875
    },
    {
      "cityName": "(( Romanátika ))",
      "lat": 39.2166667,
      "lng": 20.1666667
    },
    {
      "cityName": "Roumanádes",
      "lat": 39.44,
      "lng": 19.9930556
    },
    {
      "cityName": "(( Saoúli ))",
      "lat": 39.7955556,
      "lng": 19.8108333
    },
    {
      "cityName": "Sfakerá",
      "lat": 39.7747222,
      "lng": 19.7858333
    },
    {
      "cityName": "Sgourádes",
      "lat": 39.7283333,
      "lng": 19.8233333
    },
    {
      "cityName": "(( Sgoúrna ))",
      "lat": 39.78,
      "lng": 19.6805556
    },
    {
      "cityName": "Sidárion",
      "lat": 39.7858333,
      "lng": 19.7066667
    },
    {
      "cityName": "Sinarádes",
      "lat": 39.5647222,
      "lng": 19.8458333
    },
    {
      "cityName": "Skriperón",
      "lat": 39.6986111,
      "lng": 19.77
    },
    {
      "cityName": "Sokrákion",
      "lat": 39.715,
      "lng": 19.7897222
    },
    {
      "cityName": "Sparterá",
      "lat": 39.3788889,
      "lng": 20.0933333
    },
    {
      "cityName": "Spartílas",
      "lat": 39.72,
      "lng": 19.8388889
    },
    {
      "cityName": "(( Stratiá ))",
      "lat": 39.6,
      "lng": 19.9166667
    },
    {
      "cityName": "Streníllas",
      "lat": 39.7444444,
      "lng": 19.8366667
    },
    {
      "cityName": "Strongilí",
      "lat": 39.5058333,
      "lng": 19.9058333
    },
    {
      "cityName": "Strongiloí",
      "lat": 39.7802778,
      "lng": 19.8263889
    },
    {
      "cityName": "Termenádes",
      "lat": 39.7358333,
      "lng": 19.6930556
    },
    {
      "cityName": "(( Tranakátika ))",
      "lat": 39.1833333,
      "lng": 20.2
    },
    {
      "cityName": "Trimódhion",
      "lat": 39.7713889,
      "lng": 19.8313889
    },
    {
      "cityName": "Tsíkoulo",
      "lat": 39.7627778,
      "lng": 19.9105556
    },
    {
      "cityName": "Valaneíon",
      "lat": 39.7325,
      "lng": 19.7541667
    },
    {
      "cityName": "Varipatádhes",
      "lat": 39.5888889,
      "lng": 19.8466667
    },
    {
      "cityName": "Vasilátika",
      "lat": 39.2222222,
      "lng": 20.1338889
    },
    {
      "cityName": "Vatoniaí",
      "lat": 39.7022222,
      "lng": 19.7166667
    },
    {
      "cityName": "Vátos",
      "lat": 39.6086111,
      "lng": 19.7886111
    },
    {
      "cityName": "Velanitiátika",
      "lat": 39.1877778,
      "lng": 20.1786111
    },
    {
      "cityName": "Velonádes",
      "lat": 39.7527778,
      "lng": 19.7086111
    },
    {
      "cityName": "Vígla",
      "lat": 39.75,
      "lng": 19.9333333
    },
    {
      "cityName": "Vinglatoúrion",
      "lat": 39.7283333,
      "lng": 19.8861111
    },
    {
      "cityName": "Vístonas",
      "lat": 39.6933333,
      "lng": 19.695
    },
    {
      "cityName": "Vitaládes",
      "lat": 39.4105556,
      "lng": 20.0216667
    },
    {
      "cityName": "Vitouládes",
      "lat": 39.6872222,
      "lng": 19.7213889
    },
    {
      "cityName": "Vlachopoulátika",
      "lat": 39.1966667,
      "lng": 20.1705556
    },
    {
      "cityName": "Vouniatádes",
      "lat": 39.5166667,
      "lng": 19.8736111
    },
    {
      "cityName": "Vouníon",
      "lat": 39.7919444,
      "lng": 19.855
    },
    {
      "cityName": "Vragkaniótika",
      "lat": 39.4672222,
      "lng": 19.9122222
    },
    {
      "cityName": "Xanthátai",
      "lat": 39.7522222,
      "lng": 19.7638889
    },
    {
      "cityName": "Yimárion",
      "lat": 39.7425,
      "lng": 19.9275
    },
    {
      "cityName": "Zenembisátika",
      "lat": 39.1858333,
      "lng": 20.1872222
    },
    {
      "cityName": "Zigós",
      "lat": 39.7255556,
      "lng": 19.7988889
    }
  ]
}