{
  "name": "Kozani",
  "cities": [
    {
      "cityName": "Aëtós",
      "lat": 40.6666667,
      "lng": 21.55
    },
    {
      "cityName": "Agía Kyriakí",
      "lat": 40.2780556,
      "lng": 22.1097222
    },
    {
      "cityName": "Ágioi Theódoroi",
      "lat": 40.3708333,
      "lng": 22.0205556
    },
    {
      "cityName": "Ágios Merkoúrios",
      "lat": 40.2766667,
      "lng": 22.0852778
    },
    {
      "cityName": "Aianí",
      "lat": 40.1666667,
      "lng": 21.8166667
    },
    {
      "cityName": "Akriní",
      "lat": 40.4333333,
      "lng": 21.9
    },
    {
      "cityName": "Ak-Saklí",
      "lat": 40.2833333,
      "lng": 21.9666667
    },
    {
      "cityName": "Alonákia",
      "lat": 40.3166667,
      "lng": 21.6666667
    },
    {
      "cityName": "Amígdhala",
      "lat": 40.45,
      "lng": 21.8333333
    },
    {
      "cityName": "Amigdhaléa",
      "lat": 40.25,
      "lng": 21.9
    },
    {
      "cityName": "Anarrákhi",
      "lat": 40.4833333,
      "lng": 21.5666667
    },
    {
      "cityName": "Anáryiroi",
      "lat": 40.6,
      "lng": 21.6166667
    },
    {
      "cityName": "Anaselítsa",
      "lat": 40.2666667,
      "lng": 21.55
    },
    {
      "cityName": "Anatolí",
      "lat": 40.2333333,
      "lng": 21.9
    },
    {
      "cityName": "Anatolikón",
      "lat": 40.55,
      "lng": 21.75
    },
    {
      "cityName": "Áno Kómi",
      "lat": 40.2333333,
      "lng": 21.8333333
    },
    {
      "cityName": "Árdassa",
      "lat": 40.4833333,
      "lng": 21.6333333
    },
    {
      "cityName": "Áryillos",
      "lat": 40.2666667,
      "lng": 21.75
    },
    {
      "cityName": "Aspronéri",
      "lat": 40.2333333,
      "lng": 21.75
    },
    {
      "cityName": "Asvestópetra",
      "lat": 40.4666667,
      "lng": 21.6666667
    },
    {
      "cityName": "Avgí",
      "lat": 40.3441667,
      "lng": 22.0413889
    },
    {
      "cityName": "Avlaí",
      "lat": 40.1833333,
      "lng": 21.9666667
    },
    {
      "cityName": "Ávra",
      "lat": 40.2841667,
      "lng": 22.0238889
    },
    {
      "cityName": "Axiókastron",
      "lat": 40.2666667,
      "lng": 21.4166667
    },
    {
      "cityName": "Ayía Paraskeví",
      "lat": 40.2166667,
      "lng": 21.7833333
    },
    {
      "cityName": "Áyios Dhimítrios",
      "lat": 40.4166667,
      "lng": 21.9166667
    },
    {
      "cityName": "Áyios Kharálambos",
      "lat": 40.3833333,
      "lng": 21.9833333
    },
    {
      "cityName": "Áyios Khristóforos",
      "lat": 40.5166667,
      "lng": 21.75
    },
    {
      "cityName": "Baxí",
      "lat": 40.1833333,
      "lng": 21.85
    },
    {
      "cityName": "Chakirlí",
      "lat": 40.35,
      "lng": 21.8666667
    },
    {
      "cityName": "Chaljilár",
      "lat": 40.6333333,
      "lng": 21.7
    },
    {
      "cityName": "Chekérz-Kóï",
      "lat": 40.6333333,
      "lng": 21.5666667
    },
    {
      "cityName": "Chobanlí",
      "lat": 40.3763889,
      "lng": 22.0033333
    },
    {
      "cityName": "Chor",
      "lat": 40.5666667,
      "lng": 21.6
    },
    {
      "cityName": "Dedelér",
      "lat": 40.3166667,
      "lng": 21.65
    },
    {
      "cityName": "Deïnlí",
      "lat": 40.3333333,
      "lng": 21.7166667
    },
    {
      "cityName": "Demirjilár",
      "lat": 40.3833333,
      "lng": 21.7
    },
    {
      "cityName": "Dhafnerón",
      "lat": 40.1833333,
      "lng": 21.5833333
    },
    {
      "cityName": "Dhélinon",
      "lat": 40.1166667,
      "lng": 21.9333333
    },
    {
      "cityName": "Dhrépanon",
      "lat": 40.35,
      "lng": 21.8333333
    },
    {
      "cityName": "Dhroserón",
      "lat": 40.5333333,
      "lng": 21.6
    },
    {
      "cityName": "Dortalí",
      "lat": 40.3833333,
      "lng": 21.9666667
    },
    {
      "cityName": "Dravudánista",
      "lat": 40.25,
      "lng": 21.6833333
    },
    {
      "cityName": "Dugjilár",
      "lat": 40.2166667,
      "lng": 21.8833333
    },
    {
      "cityName": "Durutlár",
      "lat": 40.4833333,
      "lng": 21.7166667
    },
    {
      "cityName": "Eláti",
      "lat": 39.9758333,
      "lng": 21.8188889
    },
    {
      "cityName": "Éllevi",
      "lat": 40.65,
      "lng": 21.7
    },
    {
      "cityName": "Embórion",
      "lat": 40.4833333,
      "lng": 21.55
    },
    {
      "cityName": "Erátira",
      "lat": 40.35,
      "lng": 21.5166667
    },
    {
      "cityName": "Ertomús",
      "lat": 40.4166667,
      "lng": 21.7666667
    },
    {
      "cityName": "Fanós",
      "lat": 40.6666667,
      "lng": 21.6
    },
    {
      "cityName": "Fitíviani",
      "lat": 40.3163889,
      "lng": 22.1144444
    },
    {
      "cityName": "Foúfas",
      "lat": 40.5166667,
      "lng": 21.55
    },
    {
      "cityName": "Fourgátsi",
      "lat": 40.2333333,
      "lng": 21.4166667
    },
    {
      "cityName": "Fteliá",
      "lat": 40.3333333,
      "lng": 21.8833333
    },
    {
      "cityName": "Fteliónas",
      "lat": 40.4833333,
      "lng": 21.8166667
    },
    {
      "cityName": "Galatiní",
      "lat": 40.3166667,
      "lng": 21.55
    },
    {
      "cityName": "Galiána",
      "lat": 40.3333333,
      "lng": 21.8666667
    },
    {
      "cityName": "Goúlai",
      "lat": 40.1666667,
      "lng": 21.9166667
    },
    {
      "cityName": "Govlítsa",
      "lat": 40.2666667,
      "lng": 21.8166667
    },
    {
      "cityName": "Gulénja",
      "lat": 40.6666667,
      "lng": 21.6333333
    },
    {
      "cityName": "Gurjióva",
      "lat": 40.4166667,
      "lng": 21.6833333
    },
    {
      "cityName": "Hádova",
      "lat": 40.3633333,
      "lng": 22.0619444
    },
    {
      "cityName": "Haïdarlí",
      "lat": 40.4333333,
      "lng": 21.8666667
    },
    {
      "cityName": "Hají-Omurlú",
      "lat": 40.2666667,
      "lng": 21.9333333
    },
    {
      "cityName": "Hasilár",
      "lat": 40.2166667,
      "lng": 21.9
    },
    {
      "cityName": "Heïbelí",
      "lat": 40.2963889,
      "lng": 22.0336111
    },
    {
      "cityName": "Ileslí",
      "lat": 40.3166667,
      "lng": 21.9166667
    },
    {
      "cityName": "Iskuplér",
      "lat": 40.35,
      "lng": 21.9166667
    },
    {
      "cityName": "Islamlí",
      "lat": 40.3333333,
      "lng": 21.7833333
    },
    {
      "cityName": "Ísvoros",
      "lat": 40.2666667,
      "lng": 21.7833333
    },
    {
      "cityName": "Jijilér",
      "lat": 40.2833333,
      "lng": 21.8666667
    },
    {
      "cityName": "Kaïlária",
      "lat": 40.5147222,
      "lng": 21.6786111
    },
    {
      "cityName": "Kaisária",
      "lat": 40.1666667,
      "lng": 21.8666667
    },
    {
      "cityName": "Kalamiá",
      "lat": 40.3166667,
      "lng": 21.7
    },
    {
      "cityName": "Kalonéri",
      "lat": 40.2833333,
      "lng": 21.4833333
    },
    {
      "cityName": "Kalpurjilár",
      "lat": 40.3333333,
      "lng": 21.6666667
    },
    {
      "cityName": "Kapnokhórion",
      "lat": 40.3666667,
      "lng": 21.9833333
    },
    {
      "cityName": "Kará Bunár",
      "lat": 40.45,
      "lng": 21.7333333
    },
    {
      "cityName": "Karagách",
      "lat": 40.3833333,
      "lng": 21.7666667
    },
    {
      "cityName": "Kardhía",
      "lat": 40.45,
      "lng": 21.8
    },
    {
      "cityName": "Kardhítsa",
      "lat": 40.25,
      "lng": 21.8
    },
    {
      "cityName": "Kariokhóri",
      "lat": 40.5,
      "lng": 21.7666667
    },
    {
      "cityName": "Karsí",
      "lat": 40.35,
      "lng": 21.8166667
    },
    {
      "cityName": "Kastanéa",
      "lat": 40.17,
      "lng": 22.0188889
    },
    {
      "cityName": "Katafíyion",
      "lat": 40.2544444,
      "lng": 22.1391667
    },
    {
      "cityName": "Káto Kómi",
      "lat": 40.2166667,
      "lng": 21.85
    },
    {
      "cityName": "Káto Nevóliani",
      "lat": 40.6333333,
      "lng": 21.5833333
    },
    {
      "cityName": "Kechelér",
      "lat": 40.25,
      "lng": 21.9166667
    },
    {
      "cityName": "Keraséa",
      "lat": 40.2,
      "lng": 21.8
    },
    {
      "cityName": "Khóra",
      "lat": 40.2619444,
      "lng": 21.5441667
    },
    {
      "cityName": "Kínami",
      "lat": 40.2666667,
      "lng": 21.45
    },
    {
      "cityName": "Kipári",
      "lat": 40.3333333,
      "lng": 21.6833333
    },
    {
      "cityName": "Kíssa",
      "lat": 40.35,
      "lng": 21.95
    },
    {
      "cityName": "Kojá-Matlí",
      "lat": 40.2833333,
      "lng": 21.7333333
    },
    {
      "cityName": "Kokkiniá",
      "lat": 40.2,
      "lng": 21.4833333
    },
    {
      "cityName": "Kómanos",
      "lat": 40.4666667,
      "lng": 21.7666667
    },
    {
      "cityName": "Komniná",
      "lat": 40.6,
      "lng": 21.7833333
    },
    {
      "cityName": "Koskoú",
      "lat": 40.1833333,
      "lng": 21.5166667
    },
    {
      "cityName": "Kozáni",
      "lat": 40.3011111,
      "lng": 21.7863889
    },
    {
      "cityName": "Kranídhia",
      "lat": 40.2,
      "lng": 21.95
    },
    {
      "cityName": "Kremastí",
      "lat": 40.35,
      "lng": 21.9333333
    },
    {
      "cityName": "Krióvrisi",
      "lat": 40.4833333,
      "lng": 21.6
    },
    {
      "cityName": "Ktenás",
      "lat": 40.3833333,
      "lng": 21.7166667
    },
    {
      "cityName": "Kténi",
      "lat": 40.1833333,
      "lng": 21.7666667
    },
    {
      "cityName": "Kuchúk-Matlí",
      "lat": 40.3333333,
      "lng": 21.7333333
    },
    {
      "cityName": "Láï",
      "lat": 40.3,
      "lng": 21.4166667
    },
    {
      "cityName": "Láva",
      "lat": 40.1511111,
      "lng": 22.0144444
    },
    {
      "cityName": "Lazarádhes",
      "lat": 40.0166667,
      "lng": 21.85
    },
    {
      "cityName": "Levéntis",
      "lat": 40.3597222,
      "lng": 22.0316667
    },
    {
      "cityName": "Línga",
      "lat": 40.5,
      "lng": 21.5333333
    },
    {
      "cityName": "Liubétinon",
      "lat": 40.6666667,
      "lng": 21.5833333
    },
    {
      "cityName": "Mathitikaí Exochaí Kozánis",
      "lat": 40.3930556,
      "lng": 22.0838889
    },
    {
      "cityName": "Melíssia",
      "lat": 40.3333333,
      "lng": 21.8
    },
    {
      "cityName": "Mikrókastron",
      "lat": 40.2666667,
      "lng": 21.5
    },
    {
      "cityName": "Mókraini",
      "lat": 40.5333333,
      "lng": 21.5
    },
    {
      "cityName": "Muralár",
      "lat": 40.6166667,
      "lng": 21.75
    },
    {
      "cityName": "Nalbán-kóï",
      "lat": 40.5666667,
      "lng": 21.7
    },
    {
      "cityName": "Námata",
      "lat": 40.4166667,
      "lng": 21.5166667
    },
    {
      "cityName": "Néa Iráklia",
      "lat": 40.2333333,
      "lng": 21.9666667
    },
    {
      "cityName": "Okúz-Ová",
      "lat": 40.3319444,
      "lng": 22.0113889
    },
    {
      "cityName": "Ortá-Kóï",
      "lat": 40.1966667,
      "lng": 22.0205556
    },
    {
      "cityName": "Palaiográtsanon",
      "lat": 40.2152778,
      "lng": 22.0658333
    },
    {
      "cityName": "Palaiókastron",
      "lat": 40.2,
      "lng": 21.6
    },
    {
      "cityName": "Palioúrion",
      "lat": 40.3166667,
      "lng": 21.4333333
    },
    {
      "cityName": "Panáreti",
      "lat": 40.25,
      "lng": 21.4333333
    },
    {
      "cityName": "Pelekános",
      "lat": 40.3666667,
      "lng": 21.4666667
    },
    {
      "cityName": "Pendávrison",
      "lat": 40.55,
      "lng": 21.7166667
    },
    {
      "cityName": "Perdhikiá",
      "lat": 40.35,
      "lng": 21.7166667
    },
    {
      "cityName": "Polídhendron",
      "lat": 40.2166667,
      "lng": 21.4833333
    },
    {
      "cityName": "Polinéri",
      "lat": 40.45,
      "lng": 21.5166667
    },
    {
      "cityName": "Polírrakhon",
      "lat": 40.1333333,
      "lng": 21.95
    },
    {
      "cityName": "Portoráz",
      "lat": 40.25,
      "lng": 21.75
    },
    {
      "cityName": "Prosílion",
      "lat": 40.15,
      "lng": 21.95
    },
    {
      "cityName": "Proskinitárion",
      "lat": 40.35,
      "lng": 21.9666667
    },
    {
      "cityName": "Radovísta",
      "lat": 40.2,
      "lng": 21.75
    },
    {
      "cityName": "Riákion",
      "lat": 40.4,
      "lng": 21.9333333
    },
    {
      "cityName": "Rímnion",
      "lat": 40.1333333,
      "lng": 21.8666667
    },
    {
      "cityName": "Sahinlár",
      "lat": 40.3,
      "lng": 21.65
    },
    {
      "cityName": "Sartaklí",
      "lat": 40.2,
      "lng": 21.8666667
    },
    {
      "cityName": "Selfije",
      "lat": 40.1797222,
      "lng": 21.9944444
    },
    {
      "cityName": "Sisánion",
      "lat": 40.4333333,
      "lng": 21.5
    },
    {
      "cityName": "Skélidhron",
      "lat": 40.6166667,
      "lng": 21.5
    },
    {
      "cityName": "Spiliá",
      "lat": 40.5,
      "lng": 21.8166667
    },
    {
      "cityName": "Velvendhós",
      "lat": 40.2516667,
      "lng": 22.0630556
    },
    {
      "cityName": "Zoodóchos Pigí",
      "lat": 40.3958333,
      "lng": 22.0827778
    }
  ]
}