{
  "name": "Baghlan",
  "cities": [
    {
      "cityName": "Ab-e Barik",
      "lat": 35.858611,
      "lng": 69.746944
    },
    {
      "cityName": "Abedkhel",
      "lat": 35.8975,
      "lng": 69.514444
    },
    {
      "cityName": "Ab Khvorak",
      "lat": 35.830278,
      "lng": 68.409167
    },
    {
      "cityName": "Abkul'",
      "lat": 35.881389,
      "lng": 68.996667
    },
    {
      "cityName": "Ab Sarina",
      "lat": 36.064167,
      "lng": 68.959722
    },
    {
      "cityName": "Afgani-Doshi",
      "lat": 35.626667,
      "lng": 68.689167
    },
    {
      "cityName": "Ageri",
      "lat": 35.719444,
      "lng": 69.356389
    },
    {
      "cityName": "Agli",
      "lat": 36.063889,
      "lng": 68.936111
    },
    {
      "cityName": "Ahangar",
      "lat": 35.6075,
      "lng": 68.698889
    },
    {
      "cityName": "Ahangaran",
      "lat": 35.614444,
      "lng": 69.493056
    },
    {
      "cityName": "Ahengar",
      "lat": 35.698889,
      "lng": 69.315278
    },
    {
      "cityName": "Akakhel",
      "lat": 35.955278,
      "lng": 68.641111
    },
    {
      "cityName": "Aka Khel",
      "lat": 36.013333,
      "lng": 68.638611
    },
    {
      "cityName": "Akakheyl'",
      "lat": 36.043333,
      "lng": 68.652778
    },
    {
      "cityName": "Akakheyl",
      "lat": 36.225833,
      "lng": 69.239722
    },
    {
      "cityName": "Akhtar",
      "lat": 36.106944,
      "lng": 68.688333
    },
    {
      "cityName": "Akhundzadakhel",
      "lat": 35.853333,
      "lng": 68.762778
    },
    {
      "cityName": "Akkul'",
      "lat": 36.368889,
      "lng": 68.83
    },
    {
      "cityName": "`Alam`ali",
      "lat": 35.579444,
      "lng": 68.461667
    },
    {
      "cityName": "Alamtu",
      "lat": 35.954167,
      "lng": 69.036389
    },
    {
      "cityName": "`Ala' od Din",
      "lat": 36.268611,
      "lng": 68.6975
    },
    {
      "cityName": "Alefsah Kala",
      "lat": 35.9175,
      "lng": 68.506667
    },
    {
      "cityName": "`Alibeg",
      "lat": 36.23,
      "lng": 69.119444
    },
    {
      "cityName": "`Alidost",
      "lat": 35.119167,
      "lng": 68.247222
    },
    {
      "cityName": "Alimka",
      "lat": 35.961667,
      "lng": 68.996389
    },
    {
      "cityName": "Aluca",
      "lat": 35.216389,
      "lng": 68.141667
    },
    {
      "cityName": "Alugak",
      "lat": 35.705556,
      "lng": 69.182778
    },
    {
      "cityName": "Andarab",
      "lat": 35.634444,
      "lng": 69.259444
    },
    {
      "cityName": "Angar",
      "lat": 35.398889,
      "lng": 68.342222
    },
    {
      "cityName": "Aqcasma",
      "lat": 35.8725,
      "lng": 68.291667
    },
    {
      "cityName": "Aqkotal",
      "lat": 36.2,
      "lng": 69.083333
    },
    {
      "cityName": "Aqsay",
      "lat": 36.116667,
      "lng": 69.1
    },
    {
      "cityName": "`Arab",
      "lat": 36.2075,
      "lng": 68.702222
    },
    {
      "cityName": "`Arabha",
      "lat": 36.351389,
      "lng": 68.841667
    },
    {
      "cityName": "Arakas",
      "lat": 36.048333,
      "lng": 69.026111
    },
    {
      "cityName": "Aral",
      "lat": 36.048333,
      "lng": 68.437778
    },
    {
      "cityName": "Arcar",
      "lat": 35.630833,
      "lng": 69.661389
    },
    {
      "cityName": "Arsalakhan Kalay",
      "lat": 35.814167,
      "lng": 68.766667
    },
    {
      "cityName": "Arzangan",
      "lat": 35.671667,
      "lng": 69.326389
    },
    {
      "cityName": "Arzangan-e `Olya",
      "lat": 35.663889,
      "lng": 69.304722
    },
    {
      "cityName": "Arzangän-e Soflá",
      "lat": 35.652778,
      "lng": 69.296389
    },
    {
      "cityName": "Arzo",
      "lat": 35.616389,
      "lng": 69.273333
    },
    {
      "cityName": "`Aseqan",
      "lat": 35.495833,
      "lng": 68.218611
    },
    {
      "cityName": "Avaran",
      "lat": 35.55,
      "lng": 68.808611
    },
    {
      "cityName": "Awda",
      "lat": 35.615278,
      "lng": 69.281111
    },
    {
      "cityName": "Awdali",
      "lat": 35.182222,
      "lng": 68.358333
    },
    {
      "cityName": "Awlad",
      "lat": 35.673333,
      "lng": 69.358056
    },
    {
      "cityName": "Awnu",
      "lat": 35.803056,
      "lng": 69.543611
    },
    {
      "cityName": "Aylaq-e Samandan",
      "lat": 35.646111,
      "lng": 69.635278
    },
    {
      "cityName": "Aytak",
      "lat": 35.848889,
      "lng": 68.438611
    },
    {
      "cityName": "`Azi od Din",
      "lat": 35.450833,
      "lng": 68.27
    },
    {
      "cityName": "Azirok",
      "lat": 36.3,
      "lng": 68.95
    },
    {
      "cityName": "Babarangi",
      "lat": 36.083333,
      "lng": 69.016667
    },
    {
      "cityName": "Babar",
      "lat": 35.981389,
      "lng": 68.623333
    },
    {
      "cityName": "Badal'mast",
      "lat": 36.11,
      "lng": 68.801389
    },
    {
      "cityName": "Badamdara-i-Kalan",
      "lat": 36.226667,
      "lng": 69.066667
    },
    {
      "cityName": "Badam Pesta",
      "lat": 36.399167,
      "lng": 68.983889
    },
    {
      "cityName": "Badkhana",
      "lat": 35.993611,
      "lng": 69.820278
    },
    {
      "cityName": "Bagh-e Bala",
      "lat": 35.601944,
      "lng": 69.2075
    },
    {
      "cityName": "Bagh-e Balina",
      "lat": 35.542222,
      "lng": 68.524444
    },
    {
      "cityName": "Bagh-e Jabaq",
      "lat": 35.665,
      "lng": 69.293611
    },
    {
      "cityName": "Baghe Jamila",
      "lat": 35.955,
      "lng": 69.023056
    },
    {
      "cityName": "Baghe Molasah",
      "lat": 35.594167,
      "lng": 68.678611
    },
    {
      "cityName": "Bagh-e Nazar",
      "lat": 35.805,
      "lng": 69.309167
    },
    {
      "cityName": "Baghe Qadzi",
      "lat": 35.743611,
      "lng": 68.788333
    },
    {
      "cityName": "Baghe Samal",
      "lat": 35.988333,
      "lng": 68.632778
    },
    {
      "cityName": "Bagh-e Tordalay",
      "lat": 36.073611,
      "lng": 69.055278
    },
    {
      "cityName": "Baghlan",
      "lat": 36.126944,
      "lng": 68.705278
    },
    {
      "cityName": "Bajga",
      "lat": 35.583056,
      "lng": 69.0275
    },
    {
      "cityName": "Bakhsara",
      "lat": 35.617778,
      "lng": 69.498889
    },
    {
      "cityName": "Baklabaca",
      "lat": 36.279167,
      "lng": 69.107222
    },
    {
      "cityName": "Baklabaca-i-Asyabe Toghay",
      "lat": 36.248333,
      "lng": 69.102778
    },
    {
      "cityName": "Baklaw",
      "lat": 35.933611,
      "lng": 68.481944
    },
    {
      "cityName": "Bala Dor-e Avval",
      "lat": 36.061667,
      "lng": 68.670556
    },
    {
      "cityName": "Bala Dor-e Dovvom",
      "lat": 36.045278,
      "lng": 68.666667
    },
    {
      "cityName": "Balasad",
      "lat": 35.991389,
      "lng": 69.626111
    },
    {
      "cityName": "Bandaspan",
      "lat": 35.694444,
      "lng": 69.049444
    },
    {
      "cityName": "Bande Hawdz",
      "lat": 35.921111,
      "lng": 69.638611
    },
    {
      "cityName": "Band-e Sabzak",
      "lat": 35.703889,
      "lng": 68.453056
    },
    {
      "cityName": "Baragi",
      "lat": 36.041944,
      "lng": 68.971389
    },
    {
      "cityName": "Barak",
      "lat": 35.993611,
      "lng": 69.4825
    },
    {
      "cityName": "Barata",
      "lat": 35.690556,
      "lng": 69.327222
    },
    {
      "cityName": "Barati",
      "lat": 36.002222,
      "lng": 68.439444
    },
    {
      "cityName": "Barfak",
      "lat": 35.349167,
      "lng": 68.161111
    },
    {
      "cityName": "Barkah",
      "lat": 36.223333,
      "lng": 69.156667
    },
    {
      "cityName": "Basahr",
      "lat": 36.251667,
      "lng": 68.838611
    },
    {
      "cityName": "Basal",
      "lat": 35.101389,
      "lng": 68.201944
    },
    {
      "cityName": "Bashi-Qolleh",
      "lat": 36.058889,
      "lng": 69.135556
    },
    {
      "cityName": "Batob",
      "lat": 36.23,
      "lng": 69.161111
    },
    {
      "cityName": "Bawakhsel",
      "lat": 35.639167,
      "lng": 69.443056
    },
    {
      "cityName": "Bayram",
      "lat": 36.25,
      "lng": 69
    },
    {
      "cityName": "Baysakal",
      "lat": 36.238611,
      "lng": 68.545278
    },
    {
      "cityName": "Bazar",
      "lat": 35.958333,
      "lng": 69.508056
    },
    {
      "cityName": "Bazare Tala",
      "lat": 35.388611,
      "lng": 68.221389
    },
    {
      "cityName": "Bedak",
      "lat": 35.876667,
      "lng": 68.938333
    },
    {
      "cityName": "Begsahr",
      "lat": 35.4775,
      "lng": 68.640833
    },
    {
      "cityName": "Begzad",
      "lat": 36.150833,
      "lng": 68.705278
    },
    {
      "cityName": "Belawsang",
      "lat": 35.596667,
      "lng": 68.771944
    },
    {
      "cityName": "Betris",
      "lat": 35.225833,
      "lng": 68.278333
    },
    {
      "cityName": "Bibiaina",
      "lat": 36.056944,
      "lng": 68.66
    },
    {
      "cityName": "Bibi A'ina",
      "lat": 36.073056,
      "lng": 68.658611
    },
    {
      "cityName": "Bibigavara",
      "lat": 35.995,
      "lng": 68.506389
    },
    {
      "cityName": "Bokatan",
      "lat": 35.576389,
      "lng": 69.442222
    },
    {
      "cityName": "Bolak Mordad",
      "lat": 36.224722,
      "lng": 68.822222
    },
    {
      "cityName": "Boz Darreh",
      "lat": 35.968333,
      "lng": 69.09
    },
    {
      "cityName": "Bulagani",
      "lat": 36.186667,
      "lng": 68.928333
    },
    {
      "cityName": "Bulah Qeshlaq",
      "lat": 36.248889,
      "lng": 68.819722
    },
    {
      "cityName": "Bunazai",
      "lat": 36.105278,
      "lng": 68.997778
    },
    {
      "cityName": "Cabotara",
      "lat": 35.981667,
      "lng": 68.448889
    },
    {
      "cityName": "Caca",
      "lat": 36.230833,
      "lng": 68.880833
    },
    {
      "cityName": "Cacan",
      "lat": 35.612222,
      "lng": 69.453333
    },
    {
      "cityName": "Caharbagh",
      "lat": 35.599167,
      "lng": 68.577222
    },
    {
      "cityName": "Cahardar",
      "lat": 35.396111,
      "lng": 68.607222
    },
    {
      "cityName": "Cahardeh",
      "lat": 35.864167,
      "lng": 69.226389
    },
    {
      "cityName": "Caharikarak",
      "lat": 35.737222,
      "lng": 69.3175
    },
    {
      "cityName": "Caharmaghza",
      "lat": 35.630556,
      "lng": 68.395833
    },
    {
      "cityName": "Caharmaghzzar",
      "lat": 35.482778,
      "lng": 69.106389
    },
    {
      "cityName": "Caharqeslaq",
      "lat": 36.035,
      "lng": 69.731111
    },
    {
      "cityName": "Cahar Samba Tepa",
      "lat": 36.298889,
      "lng": 68.835278
    },
    {
      "cityName": "Caharsofa",
      "lat": 35.816667,
      "lng": 69.550556
    },
    {
      "cityName": "Cahe Ahu",
      "lat": 35.152222,
      "lng": 68.291667
    },
    {
      "cityName": "Cahe Ana",
      "lat": 35.893889,
      "lng": 68.465
    },
    {
      "cityName": "Cahe Jungan",
      "lat": 35.911111,
      "lng": 68.488056
    },
    {
      "cityName": "Cahe Qara",
      "lat": 35.871667,
      "lng": 68.395833
    },
    {
      "cityName": "Cakari",
      "lat": 35.996667,
      "lng": 69.643889
    },
    {
      "cityName": "Cakhak",
      "lat": 35.596667,
      "lng": 68.602778
    },
    {
      "cityName": "Caman",
      "lat": 35.665278,
      "lng": 69.373056
    },
    {
      "cityName": "Candaran",
      "lat": 35.528056,
      "lng": 68.9225
    },
    {
      "cityName": "Capa",
      "lat": 36.192778,
      "lng": 69.141111
    },
    {
      "cityName": "Capdara",
      "lat": 35.601667,
      "lng": 68.251111
    },
    {
      "cityName": "Capsay",
      "lat": 36.1475,
      "lng": 69.194167
    },
    {
      "cityName": "Caqmaqsekh",
      "lat": 35.598333,
      "lng": 68.708333
    },
    {
      "cityName": "Cara",
      "lat": 36.352778,
      "lng": 68.960833
    },
    {
      "cityName": "Carbagh",
      "lat": 35.967222,
      "lng": 69.640833
    },
    {
      "cityName": "Carkhabaka",
      "lat": 36.09,
      "lng": 68.960833
    },
    {
      "cityName": "Carmab",
      "lat": 35.813333,
      "lng": 68.588056
    },
    {
      "cityName": "Casay",
      "lat": 36.020556,
      "lng": 68.985278
    },
    {
      "cityName": "Casma-i-Rabat",
      "lat": 36.145556,
      "lng": 69.458333
    },
    {
      "cityName": "Casma-i-Ser",
      "lat": 36.056111,
      "lng": 68.558611
    },
    {
      "cityName": "Cawgani",
      "lat": 35.601111,
      "lng": 68.901111
    },
    {
      "cityName": "Cawni Nawbahar",
      "lat": 35.660278,
      "lng": 69.380833
    },
    {
      "cityName": "Cayabi",
      "lat": 36.198333,
      "lng": 68.765
    },
    {
      "cityName": "Cayla",
      "lat": 35.793611,
      "lng": 69.0525
    },
    {
      "cityName": "Cedman",
      "lat": 35.631389,
      "lng": 69.6525
    },
    {
      "cityName": "Cehelgazi",
      "lat": 35.955278,
      "lng": 68.4775
    },
    {
      "cityName": "Cehelghori",
      "lat": 35.616944,
      "lng": 68.680833
    },
    {
      "cityName": "Cehelkapa-i-Larkhaw",
      "lat": 35.820833,
      "lng": 68.809167
    },
    {
      "cityName": "Celona",
      "lat": 35.597222,
      "lng": 68.516111
    },
    {
      "cityName": "Cem Qal`a",
      "lat": 36.139444,
      "lng": 68.746111
    },
    {
      "cityName": "Charah-ye Hezarqaq",
      "lat": 36.309444,
      "lng": 69.016667
    },
    {
      "cityName": "Chashmah-i-Sher",
      "lat": 36.067222,
      "lng": 68.590278
    },
    {
      "cityName": "Chinzai",
      "lat": 35.981667,
      "lng": 68.549167
    },
    {
      "cityName": "Chokak",
      "lat": 35.544444,
      "lng": 68.9225
    },
    {
      "cityName": "Choqorakdeh",
      "lat": 35.5275,
      "lng": 68.343889
    },
    {
      "cityName": "Choruk",
      "lat": 36.287778,
      "lng": 68.855833
    },
    {
      "cityName": "Chuluza'i",
      "lat": 36.193333,
      "lng": 68.758611
    },
    {
      "cityName": "Dahana",
      "lat": 35.900278,
      "lng": 69.506944
    },
    {
      "cityName": "Dahanae Ghori",
      "lat": 35.9075,
      "lng": 68.493889
    },
    {
      "cityName": "Dahan-e Ab Khvorak",
      "lat": 35.821944,
      "lng": 68.426389
    },
    {
      "cityName": "Dahane Ahanfolad",
      "lat": 35.62,
      "lng": 68.333611
    },
    {
      "cityName": "Dahane Arbesan",
      "lat": 35.654167,
      "lng": 69.401944
    },
    {
      "cityName": "Dahan-e Asiagal",
      "lat": 35.220833,
      "lng": 68.214722
    },
    {
      "cityName": "Dahane Baghdara",
      "lat": 35.607778,
      "lng": 69.446944
    },
    {
      "cityName": "Dahane Bibidara",
      "lat": 35.401667,
      "lng": 68.640833
    },
    {
      "cityName": "Dahane Darrahe Ghori",
      "lat": 35.76,
      "lng": 68.919722
    },
    {
      "cityName": "Dahan-e Estama",
      "lat": 35.414722,
      "lng": 68.245
    },
    {
      "cityName": "Dahaneh Yakhak",
      "lat": 35.543611,
      "lng": 68.884444
    },
    {
      "cityName": "Dahaneh-ye Qoreqsay",
      "lat": 35.605,
      "lng": 68.281944
    },
    {
      "cityName": "Dahaneh-ye Valian",
      "lat": 35.589722,
      "lng": 68.869444
    },
    {
      "cityName": "Dahane Kawa",
      "lat": 35.599722,
      "lng": 68.936111
    },
    {
      "cityName": "Dahane Khojasafa",
      "lat": 35.762778,
      "lng": 68.841389
    },
    {
      "cityName": "Dahan-e Kuru",
      "lat": 35.5975,
      "lng": 68.802222
    },
    {
      "cityName": "Dahane Qaza",
      "lat": 35.618889,
      "lng": 69.546667
    },
    {
      "cityName": "Dahan-e Roghani",
      "lat": 36.15,
      "lng": 69.466667
    },
    {
      "cityName": "Dahan-e Samadi",
      "lat": 35.155278,
      "lng": 68.220833
    },
    {
      "cityName": "Dahan-e Siahqowl",
      "lat": 35.559167,
      "lng": 68.410833
    },
    {
      "cityName": "Dahan-e Spinab",
      "lat": 35.986389,
      "lng": 68.446944
    },
    {
      "cityName": "Dahane Turmos",
      "lat": 35.499722,
      "lng": 68.331389
    },
    {
      "cityName": "Dahan-e Zaw",
      "lat": 35.351944,
      "lng": 68.163889
    },
    {
      "cityName": "Dahan-lakhsanak",
      "lat": 35.196667,
      "lng": 68.341389
    },
    {
      "cityName": "Dahla",
      "lat": 36.082778,
      "lng": 69.101667
    },
    {
      "cityName": "Dah Marda",
      "lat": 36.113889,
      "lng": 68.980278
    },
    {
      "cityName": "Daka",
      "lat": 35.842778,
      "lng": 68.788056
    },
    {
      "cityName": "Damana",
      "lat": 35.973889,
      "lng": 69.523333
    },
    {
      "cityName": "Dane Khusdara",
      "lat": 35.620556,
      "lng": 69.096944
    },
    {
      "cityName": "Dan-e Seli",
      "lat": 35.748611,
      "lng": 68.805278
    },
    {
      "cityName": "Darae Su",
      "lat": 35.551944,
      "lng": 69.4875
    },
    {
      "cityName": "Daragak",
      "lat": 35.602778,
      "lng": 68.638056
    },
    {
      "cityName": "Daragi",
      "lat": 35.626389,
      "lng": 69.313611
    },
    {
      "cityName": "Darakheyl'",
      "lat": 36.337222,
      "lng": 68.7825
    },
    {
      "cityName": "Darband",
      "lat": 35.891944,
      "lng": 69.604444
    },
    {
      "cityName": "Darrahe Deh",
      "lat": 35.8725,
      "lng": 69.720833
    },
    {
      "cityName": "Darrahe Jar",
      "lat": 35.741667,
      "lng": 69.465833
    },
    {
      "cityName": "Darrahe Kalan",
      "lat": 35.889167,
      "lng": 68.488333
    },
    {
      "cityName": "Darrahe Kanda",
      "lat": 35.769444,
      "lng": 68.9475
    },
    {
      "cityName": "Darrahe Sange Bala",
      "lat": 35.166111,
      "lng": 68.240278
    },
    {
      "cityName": "Darrahe Sawaj",
      "lat": 35.539722,
      "lng": 68.924722
    },
    {
      "cityName": "Daryami",
      "lat": 36.025833,
      "lng": 69.783611
    },
    {
      "cityName": "Dashtak",
      "lat": 35.655278,
      "lng": 69.389444
    },
    {
      "cityName": "Dasht-e Khasa",
      "lat": 36.2,
      "lng": 69.5775
    },
    {
      "cityName": "Dasht-e Lajam",
      "lat": 35.407778,
      "lng": 68.252222
    },
    {
      "cityName": "Dasht-e Qazi",
      "lat": 36.065556,
      "lng": 69.091667
    },
    {
      "cityName": "Dasht-e Rabat",
      "lat": 36.104722,
      "lng": 69.606111
    },
    {
      "cityName": "Dasht-e Shahwan",
      "lat": 36.136111,
      "lng": 69.660833
    },
    {
      "cityName": "Dawlatbeg",
      "lat": 35.3525,
      "lng": 68.1475
    },
    {
      "cityName": "Dawoti",
      "lat": 35.611111,
      "lng": 69.135
    },
    {
      "cityName": "Daymirak",
      "lat": 35.897222,
      "lng": 68.521111
    },
    {
      "cityName": "Deh-afghanan",
      "lat": 35.926944,
      "lng": 69.545556
    },
    {
      "cityName": "Dehaka",
      "lat": 35.783333,
      "lng": 69.566667
    },
    {
      "cityName": "Dehake Khawus",
      "lat": 35.787222,
      "lng": 69.573889
    },
    {
      "cityName": "Deh-e Bala",
      "lat": 35.626389,
      "lng": 69.280278
    },
    {
      "cityName": "Dehe Bas",
      "lat": 36.266667,
      "lng": 69.101944
    },
    {
      "cityName": "Dehe Kalan",
      "lat": 36.022222,
      "lng": 69.793611
    },
    {
      "cityName": "Dehe Keryan",
      "lat": 35.942222,
      "lng": 69.536944
    },
    {
      "cityName": "Dehe Khatib",
      "lat": 35.946944,
      "lng": 69.533611
    },
    {
      "cityName": "Dehe Lala",
      "lat": 35.942222,
      "lng": 69.658333
    },
    {
      "cityName": "Deh-e Mianeh",
      "lat": 35.933611,
      "lng": 69.515278
    },
    {
      "cityName": "Deh-e Mirak",
      "lat": 35.931111,
      "lng": 69.505278
    },
    {
      "cityName": "Dehe Naw",
      "lat": 36.128056,
      "lng": 69.674444
    },
    {
      "cityName": "Dehe Pasa'i",
      "lat": 36.035,
      "lng": 69.741944
    },
    {
      "cityName": "Deh-e Qashoq",
      "lat": 35.996944,
      "lng": 69.618056
    },
    {
      "cityName": "Deh-e Salah",
      "lat": 35.689167,
      "lng": 69.314167
    },
    {
      "cityName": "Deh-esan",
      "lat": 36.017778,
      "lng": 69.631389
    },
    {
      "cityName": "Deh-e Taleb",
      "lat": 35.930556,
      "lng": 69.547778
    },
    {
      "cityName": "Deh-e Toran",
      "lat": 35.87,
      "lng": 68.355556
    },
    {
      "cityName": "Deh-e Zangar",
      "lat": 35.64,
      "lng": 69.436944
    },
    {
      "cityName": "Deh Miran",
      "lat": 36.214722,
      "lng": 69.596389
    },
    {
      "cityName": "Deh-Mirkhel",
      "lat": 35.881111,
      "lng": 69.526389
    },
    {
      "cityName": "Dehmordeh",
      "lat": 35.932222,
      "lng": 69.084722
    },
    {
      "cityName": "Dehyak",
      "lat": 35.628333,
      "lng": 69.453333
    },
    {
      "cityName": "Deh-zardi",
      "lat": 36.283333,
      "lng": 69.6
    },
    {
      "cityName": "Dewalak",
      "lat": 35.158611,
      "lng": 68.122778
    },
    {
      "cityName": "Dizak",
      "lat": 35.706667,
      "lng": 69.343056
    },
    {
      "cityName": "Doab",
      "lat": 35.48,
      "lng": 68.878056
    },
    {
      "cityName": "Do Ab",
      "lat": 36.013611,
      "lng": 69.606667
    },
    {
      "cityName": "Doabi",
      "lat": 35.598611,
      "lng": 68.992222
    },
    {
      "cityName": "Do Abi",
      "lat": 36.007778,
      "lng": 69.135278
    },
    {
      "cityName": "Dosakh",
      "lat": 35.405,
      "lng": 68.9975
    },
    {
      "cityName": "Dosawan",
      "lat": 35.641667,
      "lng": 69.406111
    },
    {
      "cityName": "Doshi",
      "lat": 35.608611,
      "lng": 68.685833
    },
    {
      "cityName": "Dozdanak",
      "lat": 35.9175,
      "lng": 68.959167
    },
    {
      "cityName": "Dozdan",
      "lat": 35.891111,
      "lng": 68.988611
    },
    {
      "cityName": "Dundaki",
      "lat": 35.827222,
      "lng": 69.581111
    },
    {
      "cityName": "Dzhadran",
      "lat": 36.2975,
      "lng": 68.814722
    },
    {
      "cityName": "Dzhalavgir",
      "lat": 36.414167,
      "lng": 68.915833
    },
    {
      "cityName": "Dzhandakheyl'",
      "lat": 36.1925,
      "lng": 68.704722
    },
    {
      "cityName": "Dzhangal'miri",
      "lat": 35.643333,
      "lng": 68.707222
    },
    {
      "cityName": "Dzhangarik",
      "lat": 36.257778,
      "lng": 68.779167
    },
    {
      "cityName": "Dzhari-Khasantal'kyshlak",
      "lat": 36.308889,
      "lng": 68.781111
    },
    {
      "cityName": "Dzhari-Khushk",
      "lat": 36.249722,
      "lng": 68.778333
    },
    {
      "cityName": "Dzharkyshlak",
      "lat": 36.275556,
      "lng": 68.828611
    },
    {
      "cityName": "Dzhaval'tapa",
      "lat": 36.263333,
      "lng": 68.831389
    },
    {
      "cityName": "Dzhaybar",
      "lat": 35.793333,
      "lng": 68.8
    },
    {
      "cityName": "Dzhonau",
      "lat": 35.940278,
      "lng": 68.659444
    },
    {
      "cityName": "Dzhuyi-Dzhadid",
      "lat": 36.2075,
      "lng": 68.790833
    },
    {
      "cityName": "Ebrahimkhel",
      "lat": 35.994722,
      "lng": 68.627222
    },
    {
      "cityName": "Ebrahim Khel",
      "lat": 36.001944,
      "lng": 68.6175
    },
    {
      "cityName": "Egri",
      "lat": 36.084167,
      "lng": 69.081389
    },
    {
      "cityName": "Emuk",
      "lat": 36.028611,
      "lng": 69.77
    },
    {
      "cityName": "Enal",
      "lat": 35.615556,
      "lng": 69.067222
    },
    {
      "cityName": "Esane `Azizan",
      "lat": 35.9,
      "lng": 68.494444
    },
    {
      "cityName": "Eskar",
      "lat": 35.555,
      "lng": 68.5225
    },
    {
      "cityName": "Eslamdara",
      "lat": 36.185833,
      "lng": 69.222222
    },
    {
      "cityName": "Espandak",
      "lat": 35.513611,
      "lng": 68.926111
    },
    {
      "cityName": "Espyan",
      "lat": 36.134444,
      "lng": 69.678333
    },
    {
      "cityName": "Falul",
      "lat": 36.211667,
      "lng": 69.259444
    },
    {
      "cityName": "Farashkoshteh",
      "lat": 35.636111,
      "lng": 69.694167
    },
    {
      "cityName": "Farghanbul",
      "lat": 36.028056,
      "lng": 69.653333
    },
    {
      "cityName": "Fatmal",
      "lat": 36.125556,
      "lng": 69.578611
    },
    {
      "cityName": "Ferozak",
      "lat": 35.365278,
      "lng": 67.995
    },
    {
      "cityName": "Foj",
      "lat": 35.616389,
      "lng": 69.159167
    },
    {
      "cityName": "Foloel-e Pay'in",
      "lat": 36.22,
      "lng": 69.250556
    },
    {
      "cityName": "Gadalak",
      "lat": 35.721944,
      "lng": 69.3875
    },
    {
      "cityName": "Gadi",
      "lat": 36.216389,
      "lng": 68.739722
    },
    {
      "cityName": "Gadzhi",
      "lat": 36.061944,
      "lng": 68.633333
    },
    {
      "cityName": "Gali",
      "lat": 35.728333,
      "lng": 69.399722
    },
    {
      "cityName": "Gambar",
      "lat": 35.492778,
      "lng": 68.326389
    },
    {
      "cityName": "Gandacasma",
      "lat": 35.978611,
      "lng": 68.463056
    },
    {
      "cityName": "Gandachashma",
      "lat": 36.25,
      "lng": 69.233333
    },
    {
      "cityName": "Gandzhi",
      "lat": 35.790833,
      "lng": 68.536389
    },
    {
      "cityName": "Gardana-i-Ghunj",
      "lat": 35.491389,
      "lng": 68.94
    },
    {
      "cityName": "Gardan Deh",
      "lat": 35.151667,
      "lng": 68.092222
    },
    {
      "cityName": "Garmaba",
      "lat": 36.019167,
      "lng": 69.573611
    },
    {
      "cityName": "Gastoghay",
      "lat": 35.580833,
      "lng": 68.484722
    },
    {
      "cityName": "Gavargan",
      "lat": 35.9275,
      "lng": 68.6475
    },
    {
      "cityName": "Gavi",
      "lat": 35.914722,
      "lng": 68.548611
    },
    {
      "cityName": "Gavmordeh",
      "lat": 35.983333,
      "lng": 69.266667
    },
    {
      "cityName": "Gavsavar",
      "lat": 35.998333,
      "lng": 68.665833
    },
    {
      "cityName": "Gawrasang",
      "lat": 35.2025,
      "lng": 68.223333
    },
    {
      "cityName": "Gazan",
      "lat": 35.599722,
      "lng": 68.868333
    },
    {
      "cityName": "Gelasdara",
      "lat": 35.791944,
      "lng": 69.279722
    },
    {
      "cityName": "Gerdab",
      "lat": 36.333889,
      "lng": 68.841111
    },
    {
      "cityName": "Gerdani",
      "lat": 35.921944,
      "lng": 69.664167
    },
    {
      "cityName": "Gerdi Masjed",
      "lat": 36.175278,
      "lng": 69.308333
    },
    {
      "cityName": "Gerojoy",
      "lat": 35.613889,
      "lng": 68.311389
    },
    {
      "cityName": "Ghandaki",
      "lat": 36.245278,
      "lng": 69.121111
    },
    {
      "cityName": "Ghazmarq",
      "lat": 35.633056,
      "lng": 69.196389
    },
    {
      "cityName": "Gherozar",
      "lat": 35.573333,
      "lng": 68.438611
    },
    {
      "cityName": "Ghojur",
      "lat": 35.144167,
      "lng": 68.238333
    },
    {
      "cityName": "Gholam Bay",
      "lat": 36.176111,
      "lng": 68.735
    },
    {
      "cityName": "Ghorisang",
      "lat": 35.739722,
      "lng": 69.413333
    },
    {
      "cityName": "Ghorqol",
      "lat": 35.872222,
      "lng": 68.534167
    },
    {
      "cityName": "Ghowrqowl",
      "lat": 35.892222,
      "lng": 68.553056
    },
    {
      "cityName": "Godan",
      "lat": 36.204444,
      "lng": 68.761111
    },
    {
      "cityName": "Godano Kalay",
      "lat": 35.964167,
      "lng": 68.626667
    },
    {
      "cityName": "Godara",
      "lat": 35.613889,
      "lng": 69.206389
    },
    {
      "cityName": "Godri",
      "lat": 36.061111,
      "lng": 69.286667
    },
    {
      "cityName": "Gola",
      "lat": 35.988889,
      "lng": 69.772778
    },
    {
      "cityName": "Gorisokhta",
      "lat": 35.466667,
      "lng": 68.971389
    },
    {
      "cityName": "Gosa",
      "lat": 35.393611,
      "lng": 68.415278
    },
    {
      "cityName": "Gozar-e Langar",
      "lat": 36.068333,
      "lng": 69.523611
    },
    {
      "cityName": "Gul'dara",
      "lat": 35.394444,
      "lng": 68.564167
    },
    {
      "cityName": "Gulyamkhasan",
      "lat": 35.960278,
      "lng": 68.575833
    },
    {
      "cityName": "Gumbazaqeshlaq",
      "lat": 35.936111,
      "lng": 68.595556
    },
    {
      "cityName": "Gurgorak",
      "lat": 36.076667,
      "lng": 68.582778
    },
    {
      "cityName": "Hafezbaca",
      "lat": 36.053333,
      "lng": 69.082778
    },
    {
      "cityName": "Haft Aregh",
      "lat": 36.050833,
      "lng": 68.628333
    },
    {
      "cityName": "Hajikhel",
      "lat": 35.749722,
      "lng": 69.319444
    },
    {
      "cityName": "Hasan Tal",
      "lat": 36.223611,
      "lng": 68.8
    },
    {
      "cityName": "Hazarabay",
      "lat": 35.9975,
      "lng": 69.655
    },
    {
      "cityName": "Hazara-i-Larkhawi",
      "lat": 35.927222,
      "lng": 68.585556
    },
    {
      "cityName": "Hazarakhan Kalay",
      "lat": 35.781944,
      "lng": 68.793333
    },
    {
      "cityName": "Hazar Qagh",
      "lat": 36.25,
      "lng": 68.966667
    },
    {
      "cityName": "Hemmat Khel",
      "lat": 36.279722,
      "lng": 68.755556
    },
    {
      "cityName": "Hesar",
      "lat": 35.498889,
      "lng": 68.933333
    },
    {
      "cityName": "Hoseyn Khel",
      "lat": 36.024722,
      "lng": 68.672778
    },
    {
      "cityName": "Jadran",
      "lat": 36.086667,
      "lng": 69.061944
    },
    {
      "cityName": "Jaladan",
      "lat": 35.99,
      "lng": 69.682222
    },
    {
      "cityName": "Jalandari",
      "lat": 35.946389,
      "lng": 69.513056
    },
    {
      "cityName": "Jalogir",
      "lat": 36.424722,
      "lng": 68.903056
    },
    {
      "cityName": "Jameh",
      "lat": 35.939722,
      "lng": 69.023056
    },
    {
      "cityName": "Jamesayed",
      "lat": 35.558333,
      "lng": 68.389444
    },
    {
      "cityName": "Jang Aghli",
      "lat": 35.994444,
      "lng": 68.439722
    },
    {
      "cityName": "Jangalak",
      "lat": 35.594444,
      "lng": 69.206667
    },
    {
      "cityName": "Jaraw",
      "lat": 36.1775,
      "lng": 69.496111
    },
    {
      "cityName": "Jaryan",
      "lat": 36.220833,
      "lng": 69.624722
    },
    {
      "cityName": "Jokana",
      "lat": 35.969444,
      "lng": 69.035556
    },
    {
      "cityName": "Jola",
      "lat": 36.071111,
      "lng": 69.0425
    },
    {
      "cityName": "Jolan",
      "lat": 35.624167,
      "lng": 68.321667
    },
    {
      "cityName": "Joye Kalan",
      "lat": 36.040833,
      "lng": 69.102778
    },
    {
      "cityName": "Jukanah",
      "lat": 36.090833,
      "lng": 69.044722
    },
    {
      "cityName": "Kabudnaw",
      "lat": 36.283333,
      "lng": 69.566667
    },
    {
      "cityName": "Kafarqal`a",
      "lat": 35.700556,
      "lng": 68.240556
    },
    {
      "cityName": "Kafarzada",
      "lat": 35.647222,
      "lng": 69.662778
    },
    {
      "cityName": "Kaftarkhana",
      "lat": 35.629722,
      "lng": 69.138889
    },
    {
      "cityName": "Kaian",
      "lat": 35.634444,
      "lng": 68.428333
    },
    {
      "cityName": "Kajdara",
      "lat": 35.526667,
      "lng": 69.284167
    },
    {
      "cityName": "Kaj Gerd",
      "lat": 35.619167,
      "lng": 69.166389
    },
    {
      "cityName": "Kajinaw",
      "lat": 35.929722,
      "lng": 69.661667
    },
    {
      "cityName": "Kakhvakhana",
      "lat": 35.925556,
      "lng": 68.717778
    },
    {
      "cityName": "Kalabaday",
      "lat": 35.813333,
      "lng": 68.805833
    },
    {
      "cityName": "Kalaishan",
      "lat": 35.763333,
      "lng": 68.906111
    },
    {
      "cityName": "Kalangozar",
      "lat": 35.566667,
      "lng": 68.420556
    },
    {
      "cityName": "Kalayi-Khokumran",
      "lat": 35.947778,
      "lng": 68.601667
    },
    {
      "cityName": "Kal-e Dawalati",
      "lat": 36.218333,
      "lng": 68.837778
    },
    {
      "cityName": "Kal",
      "lat": 36.194444,
      "lng": 69.166667
    },
    {
      "cityName": "Kal'takul'",
      "lat": 35.816944,
      "lng": 68.575278
    },
    {
      "cityName": "Kamarca",
      "lat": 35.712222,
      "lng": 69.322222
    },
    {
      "cityName": "Kampirak",
      "lat": 35.724722,
      "lng": 68.591111
    },
    {
      "cityName": "Kamyakhlar",
      "lat": 35.710278,
      "lng": 69.2475
    },
    {
      "cityName": "Kam Yakhlar",
      "lat": 35.7,
      "lng": 69.258889
    },
    {
      "cityName": "Kandakhari",
      "lat": 36.223333,
      "lng": 68.765556
    },
    {
      "cityName": "Kandakhar",
      "lat": 36.341667,
      "lng": 68.718889
    },
    {
      "cityName": "Kandeh Sang",
      "lat": 35.590556,
      "lng": 68.598889
    },
    {
      "cityName": "Karabatur-Kyshlak",
      "lat": 36.511944,
      "lng": 68.655833
    },
    {
      "cityName": "Karabek",
      "lat": 35.878056,
      "lng": 68.565833
    },
    {
      "cityName": "Karadaka",
      "lat": 35.836667,
      "lng": 68.788333
    },
    {
      "cityName": "Karafakirbay",
      "lat": 35.974722,
      "lng": 68.5975
    },
    {
      "cityName": "Karaguchmazar",
      "lat": 36.1075,
      "lng": 68.956111
    },
    {
      "cityName": "Karamat",
      "lat": 35.665278,
      "lng": 68.725278
    },
    {
      "cityName": "Karaola",
      "lat": 35.898611,
      "lng": 68.566111
    },
    {
      "cityName": "Karayshkulla",
      "lat": 35.946667,
      "lng": 68.621111
    },
    {
      "cityName": "Karez",
      "lat": 35.916944,
      "lng": 69.013056
    },
    {
      "cityName": "Kar Kar",
      "lat": 36.035278,
      "lng": 68.773056
    },
    {
      "cityName": "Karkundzhak",
      "lat": 35.601667,
      "lng": 68.823611
    },
    {
      "cityName": "Kastarash",
      "lat": 35.728333,
      "lng": 69.416111
    },
    {
      "cityName": "Katakhana",
      "lat": 35.947222,
      "lng": 68.486111
    },
    {
      "cityName": "Katarsum",
      "lat": 34.998889,
      "lng": 67.676667
    },
    {
      "cityName": "Kawsandaz",
      "lat": 35.344167,
      "lng": 68.141944
    },
    {
      "cityName": "Kaysarkheyl'",
      "lat": 36.163333,
      "lng": 68.687778
    },
    {
      "cityName": "Kazak",
      "lat": 36.026111,
      "lng": 68.650833
    },
    {
      "cityName": "Kazi",
      "lat": 36.169444,
      "lng": 68.728056
    },
    {
      "cityName": "Kermes Bala",
      "lat": 35.617222,
      "lng": 68.291667
    },
    {
      "cityName": "Kermesh Pa'in",
      "lat": 35.613889,
      "lng": 68.295833
    },
    {
      "cityName": "Kezar",
      "lat": 35.892222,
      "lng": 69.688333
    },
    {
      "cityName": "Khaderkhel",
      "lat": 35.9375,
      "lng": 68.609167
    },
    {
      "cityName": "Khalah Za'i",
      "lat": 36.117778,
      "lng": 68.7125
    },
    {
      "cityName": "Khalposhteh",
      "lat": 35.743333,
      "lng": 69.313889
    },
    {
      "cityName": "Khalyan",
      "lat": 35.829722,
      "lng": 69.566389
    },
    {
      "cityName": "Khamkhati",
      "lat": 35.877222,
      "lng": 69.531944
    },
    {
      "cityName": "Khanikhel",
      "lat": 35.94,
      "lng": 68.647778
    },
    {
      "cityName": "Kharoti",
      "lat": 35.913889,
      "lng": 68.517222
    },
    {
      "cityName": "Kharoto Kalay",
      "lat": 35.95,
      "lng": 68.569722
    },
    {
      "cityName": "Khawus",
      "lat": 35.851944,
      "lng": 69.541667
    },
    {
      "cityName": "Khazak",
      "lat": 35.996667,
      "lng": 68.553056
    },
    {
      "cityName": "Khazenah",
      "lat": 35.805556,
      "lng": 69.110278
    },
    {
      "cityName": "Khej",
      "lat": 35.616667,
      "lng": 69.349444
    },
    {
      "cityName": "Khelar",
      "lat": 35.492778,
      "lng": 68.320278
    },
    {
      "cityName": "Khenjan",
      "lat": 35.585556,
      "lng": 68.9025
    },
    {
      "cityName": "Khetyan",
      "lat": 35.658889,
      "lng": 69.355833
    },
    {
      "cityName": "Khiaban",
      "lat": 36.016667,
      "lng": 69.583333
    },
    {
      "cityName": "Khobdara",
      "lat": 35.4975,
      "lng": 68.885278
    },
    {
      "cityName": "Khoda Dad Kheyl",
      "lat": 36.252778,
      "lng": 68.704722
    },
    {
      "cityName": "Khodzha-Al'van",
      "lat": 36.092222,
      "lng": 68.523611
    },
    {
      "cityName": "Khodzhakhan",
      "lat": 36.159722,
      "lng": 68.7225
    },
    {
      "cityName": "Khodzha",
      "lat": 35.961111,
      "lng": 68.599167
    },
    {
      "cityName": "Khojadelbar Baba",
      "lat": 35.956389,
      "lng": 68.606944
    },
    {
      "cityName": "Khoja-qalat",
      "lat": 35.606389,
      "lng": 69.040278
    },
    {
      "cityName": "Kholah",
      "lat": 36.051389,
      "lng": 68.479722
    },
    {
      "cityName": "Khoshkak",
      "lat": 35.521111,
      "lng": 69.058611
    },
    {
      "cityName": "Khostgan",
      "lat": 35.395278,
      "lng": 68.327222
    },
    {
      "cityName": "Khugiani",
      "lat": 35.990278,
      "lng": 68.674167
    },
    {
      "cityName": "Khukdara",
      "lat": 36.084444,
      "lng": 69.162222
    },
    {
      "cityName": "Khvajah Jeran",
      "lat": 36.04,
      "lng": 69.251111
    },
    {
      "cityName": "Khvaja Owlia",
      "lat": 35.855833,
      "lng": 69.280833
    },
    {
      "cityName": "Khvajeh `Aref-e Vali",
      "lat": 35.804722,
      "lng": 69.595833
    },
    {
      "cityName": "Khvajehbid",
      "lat": 35.815833,
      "lng": 68.330833
    },
    {
      "cityName": "Khvajeh Khezr",
      "lat": 35.999444,
      "lng": 69.094167
    },
    {
      "cityName": "Khvajeh Wakht",
      "lat": 35.730833,
      "lng": 69.155833
    },
    {
      "cityName": "Khvazak",
      "lat": 36.087222,
      "lng": 69.024167
    },
    {
      "cityName": "Khwaja Pak",
      "lat": 35.873611,
      "lng": 68.430278
    },
    {
      "cityName": "Kishanabad",
      "lat": 35.62,
      "lng": 69.211111
    },
    {
      "cityName": "Kohna Masjed",
      "lat": 36.020556,
      "lng": 68.583611
    },
    {
      "cityName": "Kohneh Deh",
      "lat": 35.481667,
      "lng": 69.128889
    },
    {
      "cityName": "Kohneh Qal`eh",
      "lat": 36.083056,
      "lng": 69.0525
    },
    {
      "cityName": "Kohneh Qeshlaq",
      "lat": 36.309444,
      "lng": 69.164722
    },
    {
      "cityName": "Kokan",
      "lat": 35.993611,
      "lng": 68.681667
    },
    {
      "cityName": "Kokbari",
      "lat": 35.600278,
      "lng": 68.735278
    },
    {
      "cityName": "Kololasang",
      "lat": 35.389167,
      "lng": 68.399444
    },
    {
      "cityName": "Koragah",
      "lat": 35.628889,
      "lng": 68.385
    },
    {
      "cityName": "Kotale Sabzak",
      "lat": 35.910278,
      "lng": 69.008611
    },
    {
      "cityName": "Kotub",
      "lat": 36.012778,
      "lng": 68.656667
    },
    {
      "cityName": "Kubi",
      "lat": 36.098611,
      "lng": 68.992222
    },
    {
      "cityName": "Kuchi",
      "lat": 36.2325,
      "lng": 68.845833
    },
    {
      "cityName": "Kuhnadch",
      "lat": 35.551667,
      "lng": 69.0475
    },
    {
      "cityName": "Kuhnaqeslaq",
      "lat": 35.906944,
      "lng": 68.997778
    },
    {
      "cityName": "Kuk Cenar",
      "lat": 36.186389,
      "lng": 68.698056
    },
    {
      "cityName": "Kuli-Asia",
      "lat": 35.568611,
      "lng": 68.907222
    },
    {
      "cityName": "Kuli-Bekmukhammed",
      "lat": 35.825278,
      "lng": 68.541111
    },
    {
      "cityName": "Kuli-Iskar",
      "lat": 35.568611,
      "lng": 68.517778
    },
    {
      "cityName": "Kunduztapa",
      "lat": 36.0675,
      "lng": 68.62
    },
    {
      "cityName": "Kundzh",
      "lat": 35.9225,
      "lng": 68.635833
    },
    {
      "cityName": "Kurdak",
      "lat": 35.871389,
      "lng": 69.155278
    },
    {
      "cityName": "Kuru",
      "lat": 35.561111,
      "lng": 68.810833
    },
    {
      "cityName": "Kyshlaktipa",
      "lat": 35.920556,
      "lng": 68.504444
    },
    {
      "cityName": "Kyzylbay",
      "lat": 35.9625,
      "lng": 68.559722
    },
    {
      "cityName": "Kyzylsay",
      "lat": 36.441667,
      "lng": 68.8825
    },
    {
      "cityName": "Labgozar",
      "lat": 35.975,
      "lng": 69.7975
    },
    {
      "cityName": "Laghaki",
      "lat": 36.1,
      "lng": 69.166667
    },
    {
      "cityName": "Laghak",
      "lat": 35.562222,
      "lng": 69.274722
    },
    {
      "cityName": "Lakankhel",
      "lat": 36.102222,
      "lng": 69.014722
    },
    {
      "cityName": "Lalaka",
      "lat": 36.0775,
      "lng": 68.647778
    },
    {
      "cityName": "Lal'mai",
      "lat": 35.504722,
      "lng": 68.929444
    },
    {
      "cityName": "Larak",
      "lat": 36.184722,
      "lng": 69.304167
    },
    {
      "cityName": "Larbach",
      "lat": 35.621389,
      "lng": 69.575278
    },
    {
      "cityName": "Lar-e Badak",
      "lat": 35.584444,
      "lng": 68.453889
    },
    {
      "cityName": "Larkhabi",
      "lat": 36.231667,
      "lng": 68.727222
    },
    {
      "cityName": "Larkhavi",
      "lat": 35.905,
      "lng": 68.603611
    },
    {
      "cityName": "Larwan",
      "lat": 35.9075,
      "lng": 69.667222
    },
    {
      "cityName": "Lawkani",
      "lat": 35.618611,
      "lng": 69.5075
    },
    {
      "cityName": "Layn",
      "lat": 35.646389,
      "lng": 69.271667
    },
    {
      "cityName": "Lobya",
      "lat": 35.508333,
      "lng": 68.341944
    },
    {
      "cityName": "Logaryan",
      "lat": 36.056667,
      "lng": 69.113611
    },
    {
      "cityName": "Lohogaro Kalay",
      "lat": 35.951389,
      "lng": 68.628333
    },
    {
      "cityName": "Lukhtogay",
      "lat": 35.605,
      "lng": 68.509722
    },
    {
      "cityName": "Madrasa",
      "lat": 36.036944,
      "lng": 68.991667
    },
    {
      "cityName": "Mahajer",
      "lat": 36.171667,
      "lng": 68.765556
    },
    {
      "cityName": "Mahbas-e Baghan-e Jadio",
      "lat": 36.164722,
      "lng": 68.767778
    },
    {
      "cityName": "Mal'khan",
      "lat": 35.476667,
      "lng": 68.951111
    },
    {
      "cityName": "Mangal'",
      "lat": 35.990833,
      "lng": 68.551944
    },
    {
      "cityName": "Mangal",
      "lat": 36.005833,
      "lng": 68.554444
    },
    {
      "cityName": "Marghah",
      "lat": 35.595278,
      "lng": 69.009722
    },
    {
      "cityName": "Marghaw",
      "lat": 35.570556,
      "lng": 68.236111
    },
    {
      "cityName": "Masan",
      "lat": 35.828056,
      "lng": 69.251667
    },
    {
      "cityName": "Maydachapah",
      "lat": 36.183333,
      "lng": 69.1
    },
    {
      "cityName": "Maydanak",
      "lat": 35.815556,
      "lng": 68.413056
    },
    {
      "cityName": "Mazarkolu",
      "lat": 35.916389,
      "lng": 69.5675
    },
    {
      "cityName": "Mazar",
      "lat": 35.602778,
      "lng": 68.95
    },
    {
      "cityName": "Mengak",
      "lat": 35.764167,
      "lng": 68.859167
    },
    {
      "cityName": "Mian Deh",
      "lat": 35.519722,
      "lng": 68.714444
    },
    {
      "cityName": "Miandeh",
      "lat": 35.998056,
      "lng": 69.669167
    },
    {
      "cityName": "Miandek",
      "lat": 35.581944,
      "lng": 69.206111
    },
    {
      "cityName": "Mian Sahib",
      "lat": 36.034722,
      "lng": 68.644444
    },
    {
      "cityName": "Mianshahr",
      "lat": 36.018889,
      "lng": 69.521111
    },
    {
      "cityName": "Miranganah",
      "lat": 36.132778,
      "lng": 69.667222
    },
    {
      "cityName": "Mirbaya",
      "lat": 35.768611,
      "lng": 69.322778
    },
    {
      "cityName": "Mirkhel",
      "lat": 36.2025,
      "lng": 69.561667
    },
    {
      "cityName": "Mirsekar",
      "lat": 35.967778,
      "lng": 69.498611
    },
    {
      "cityName": "Mirwah",
      "lat": 35.628333,
      "lng": 69.299722
    },
    {
      "cityName": "Mohajerin",
      "lat": 35.908889,
      "lng": 68.541111
    },
    {
      "cityName": "Molla Khel",
      "lat": 36.348611,
      "lng": 68.803611
    },
    {
      "cityName": "Molla Qader",
      "lat": 36.231111,
      "lng": 68.874722
    },
    {
      "cityName": "Molla Shahzada",
      "lat": 36.011111,
      "lng": 68.581389
    },
    {
      "cityName": "Morghabi Dahan",
      "lat": 35.661944,
      "lng": 69.363611
    },
    {
      "cityName": "Morghi",
      "lat": 35.796944,
      "lng": 69.368889
    },
    {
      "cityName": "Moroy Bala",
      "lat": 35.571111,
      "lng": 68.641944
    },
    {
      "cityName": "Mulwar",
      "lat": 36.12,
      "lng": 69.640556
    },
    {
      "cityName": "Mundzhana",
      "lat": 35.602778,
      "lng": 68.850833
    },
    {
      "cityName": "Mushkani",
      "lat": 35.584167,
      "lng": 68.807222
    },
    {
      "cityName": "Nagharakhana",
      "lat": 35.405556,
      "lng": 68.2625
    },
    {
      "cityName": "Nahrin",
      "lat": 36.065278,
      "lng": 69.133889
    },
    {
      "cityName": "Nakil'",
      "lat": 35.955556,
      "lng": 68.575
    },
    {
      "cityName": "Namak",
      "lat": 35.565,
      "lng": 69.421111
    },
    {
      "cityName": "Na`man",
      "lat": 35.736111,
      "lng": 68.6575
    },
    {
      "cityName": "Naqel",
      "lat": 35.979167,
      "lng": 68.561667
    },
    {
      "cityName": "Narmqolak",
      "lat": 35.225278,
      "lng": 68.144444
    },
    {
      "cityName": "Naseri",
      "lat": 35.83,
      "lng": 68.798056
    },
    {
      "cityName": "Nasir",
      "lat": 35.968611,
      "lng": 68.669722
    },
    {
      "cityName": "Naubir",
      "lat": 35.790278,
      "lng": 68.686667
    },
    {
      "cityName": "Nawbahar",
      "lat": 35.655,
      "lng": 69.361667
    },
    {
      "cityName": "Nayak",
      "lat": 35.135556,
      "lng": 68.196389
    },
    {
      "cityName": "Naytoghay",
      "lat": 35.393889,
      "lng": 68.433611
    },
    {
      "cityName": "Niazafghan",
      "lat": 36.080278,
      "lng": 69.090278
    },
    {
      "cityName": "Niazollah Kalay",
      "lat": 35.964167,
      "lng": 68.664167
    },
    {
      "cityName": "Nilan",
      "lat": 35.808333,
      "lng": 68.385278
    },
    {
      "cityName": "Oghursang",
      "lat": 35.591667,
      "lng": 68.756667
    },
    {
      "cityName": "Omar Khel",
      "lat": 36.091111,
      "lng": 68.633889
    },
    {
      "cityName": "Or",
      "lat": 35.169444,
      "lng": 68.383056
    },
    {
      "cityName": "Ortablaki",
      "lat": 35.9225,
      "lng": 68.531111
    },
    {
      "cityName": "Oshtor Ghal",
      "lat": 36.159722,
      "lng": 68.836111
    },
    {
      "cityName": "Osman Kheyl",
      "lat": 35.775,
      "lng": 68.760556
    },
    {
      "cityName": "`Osman Kheyl",
      "lat": 36.068333,
      "lng": 69.080278
    },
    {
      "cityName": "Owpyani",
      "lat": 36.221389,
      "lng": 68.845278
    },
    {
      "cityName": "Pahlavan Tash",
      "lat": 36.309444,
      "lng": 69.126111
    },
    {
      "cityName": "Paindadzhan",
      "lat": 35.934167,
      "lng": 68.626667
    },
    {
      "cityName": "Palpayah",
      "lat": 35.716111,
      "lng": 68.965556
    },
    {
      "cityName": "Panjseri",
      "lat": 35.890556,
      "lng": 69.121111
    },
    {
      "cityName": "Panshari",
      "lat": 35.996111,
      "lng": 69.248333
    },
    {
      "cityName": "Paralah",
      "lat": 35.485278,
      "lng": 68.873889
    },
    {
      "cityName": "Pargolbacha",
      "lat": 36.300833,
      "lng": 69.141389
    },
    {
      "cityName": "Pasa'i",
      "lat": 35.736944,
      "lng": 69.427222
    },
    {
      "cityName": "Pasakhana",
      "lat": 36.047222,
      "lng": 69.373889
    },
    {
      "cityName": "Pasak",
      "lat": 35.550278,
      "lng": 68.920833
    },
    {
      "cityName": "Pase Kandeh",
      "lat": 35.546111,
      "lng": 69.5125
    },
    {
      "cityName": "Pas-e Mazar",
      "lat": 35.845,
      "lng": 68.897778
    },
    {
      "cityName": "Pashimandara",
      "lat": 35.940556,
      "lng": 68.516667
    },
    {
      "cityName": "Pashtan",
      "lat": 36.055,
      "lng": 69.733333
    },
    {
      "cityName": "Pay Kotal",
      "lat": 35.961944,
      "lng": 68.471111
    },
    {
      "cityName": "Pazak",
      "lat": 35.401389,
      "lng": 68.295
    },
    {
      "cityName": "Petaudzhoy",
      "lat": 35.390556,
      "lng": 68.699722
    },
    {
      "cityName": "Petavak",
      "lat": 35.764167,
      "lng": 68.888611
    },
    {
      "cityName": "Petawjoy",
      "lat": 35.200278,
      "lng": 68.326111
    },
    {
      "cityName": "Piransamya",
      "lat": 35.627778,
      "lng": 69.468056
    },
    {
      "cityName": "Pol-e Hesar",
      "lat": 35.6175,
      "lng": 69.4725
    },
    {
      "cityName": "Pol-e Khomri",
      "lat": 35.9425,
      "lng": 68.719167
    },
    {
      "cityName": "Pol-e Mohammad Salabeyg",
      "lat": 35.668333,
      "lng": 69.357778
    },
    {
      "cityName": "Posht-e Nahr",
      "lat": 36.111944,
      "lng": 68.703889
    },
    {
      "cityName": "Pulkhah",
      "lat": 35.631111,
      "lng": 69.2375
    },
    {
      "cityName": "Puza-i-Esan",
      "lat": 36.091389,
      "lng": 68.654444
    },
    {
      "cityName": "Qaburghah",
      "lat": 35.880833,
      "lng": 68.403611
    },
    {
      "cityName": "Qadzyan",
      "lat": 35.984444,
      "lng": 69.511944
    },
    {
      "cityName": "Qajghari",
      "lat": 35.775833,
      "lng": 69.318889
    },
    {
      "cityName": "Qajirkhana",
      "lat": 35.962222,
      "lng": 69.044722
    },
    {
      "cityName": "Qala`a-i-Hakemi",
      "lat": 35.989167,
      "lng": 69.504444
    },
    {
      "cityName": "Qalad",
      "lat": 35.973611,
      "lng": 69.793611
    },
    {
      "cityName": "Qal`a-i-Kuhna",
      "lat": 35.9775,
      "lng": 69.5025
    },
    {
      "cityName": "Qal`a-i-Mir",
      "lat": 35.951667,
      "lng": 69.650556
    },
    {
      "cityName": "Qal`a-i-Morad",
      "lat": 35.724722,
      "lng": 68.284444
    },
    {
      "cityName": "Qal`a-i-Sepasalar",
      "lat": 35.956944,
      "lng": 68.591944
    },
    {
      "cityName": "Qal`a-i-Wazir",
      "lat": 35.948611,
      "lng": 68.613333
    },
    {
      "cityName": "Qal`a Payan",
      "lat": 35.701667,
      "lng": 69.329722
    },
    {
      "cityName": "Qala",
      "lat": 35.616111,
      "lng": 69.5325
    },
    {
      "cityName": "Qal`a",
      "lat": 35.804722,
      "lng": 69.565833
    },
    {
      "cityName": "Qalat",
      "lat": 35.580556,
      "lng": 69.441111
    },
    {
      "cityName": "Qalich `Ali",
      "lat": 36.233333,
      "lng": 69.166667
    },
    {
      "cityName": "Qaloghu",
      "lat": 35.593056,
      "lng": 68.491389
    },
    {
      "cityName": "Qaluq",
      "lat": 35.897222,
      "lng": 68.483333
    },
    {
      "cityName": "Qamar-e Jom`eh `Ali",
      "lat": 36.2225,
      "lng": 69.216111
    },
    {
      "cityName": "Qandahariha",
      "lat": 36.369167,
      "lng": 68.756389
    },
    {
      "cityName": "Qarabaghi",
      "lat": 36.0625,
      "lng": 69.106111
    },
    {
      "cityName": "Qaraghozi",
      "lat": 36.304444,
      "lng": 69.150833
    },
    {
      "cityName": "Qarah Khaval",
      "lat": 35.751944,
      "lng": 68.497222
    },
    {
      "cityName": "Qarah",
      "lat": 35.355278,
      "lng": 68.165
    },
    {
      "cityName": "Qarya Mohammad-dad",
      "lat": 35.95,
      "lng": 69.257778
    },
    {
      "cityName": "Qasab",
      "lat": 36.060278,
      "lng": 69.15
    },
    {
      "cityName": "Qeshlaq-e Mirza Bika",
      "lat": 36.190556,
      "lng": 69.302222
    },
    {
      "cityName": "Qeshlaq Tappeh",
      "lat": 35.914722,
      "lng": 68.489722
    },
    {
      "cityName": "Qeshleh",
      "lat": 36.046667,
      "lng": 69.121111
    },
    {
      "cityName": "Qobi",
      "lat": 36.06,
      "lng": 69.008889
    },
    {
      "cityName": "Qoduq",
      "lat": 36.161111,
      "lng": 69.2
    },
    {
      "cityName": "Qos Dastak",
      "lat": 35.774444,
      "lng": 68.680278
    },
    {
      "cityName": "Qosh Sardaw",
      "lat": 35.714167,
      "lng": 68.660278
    },
    {
      "cityName": "Qosh Tappeh Farah",
      "lat": 35.947222,
      "lng": 68.702222
    },
    {
      "cityName": "Qosh Tappeh-ye Band-e Barq",
      "lat": 35.940556,
      "lng": 68.705278
    },
    {
      "cityName": "Qowzi",
      "lat": 35.88,
      "lng": 69.082778
    },
    {
      "cityName": "Qoybaghar",
      "lat": 35.930278,
      "lng": 69.103889
    },
    {
      "cityName": "Qulba",
      "lat": 35.538333,
      "lng": 69.284167
    },
    {
      "cityName": "Rabat",
      "lat": 35.594444,
      "lng": 68.544167
    },
    {
      "cityName": "Raburshodani",
      "lat": 35.264722,
      "lng": 68.184722
    },
    {
      "cityName": "Rashidi",
      "lat": 35.714444,
      "lng": 69.363056
    },
    {
      "cityName": "Reg",
      "lat": 36.078056,
      "lng": 69.520833
    },
    {
      "cityName": "Ronu",
      "lat": 35.629722,
      "lng": 69.29
    },
    {
      "cityName": "Sad `Ali",
      "lat": 35.203611,
      "lng": 68.135278
    },
    {
      "cityName": "Safedkhankalay",
      "lat": 35.995556,
      "lng": 68.603889
    },
    {
      "cityName": "Safedreg",
      "lat": 36.111111,
      "lng": 69.525833
    },
    {
      "cityName": "Safi` Khel",
      "lat": 36.256944,
      "lng": 68.769722
    },
    {
      "cityName": "Sahhasan",
      "lat": 35.624167,
      "lng": 68.373333
    },
    {
      "cityName": "Sahidan",
      "lat": 35.131667,
      "lng": 68.3425
    },
    {
      "cityName": "Sahre Naw",
      "lat": 35.938333,
      "lng": 68.7075
    },
    {
      "cityName": "Sahre Sagan",
      "lat": 35.429722,
      "lng": 68.248889
    },
    {
      "cityName": "Sahr-i-Jadid",
      "lat": 36.176944,
      "lng": 68.751389
    },
    {
      "cityName": "Sahr-i-Kohna",
      "lat": 36.220833,
      "lng": 68.774722
    },
    {
      "cityName": "Saka",
      "lat": 35.717222,
      "lng": 69.317222
    },
    {
      "cityName": "Sakhaymum",
      "lat": 36.055833,
      "lng": 69.373333
    },
    {
      "cityName": "Sakh-mazar",
      "lat": 35.269722,
      "lng": 68.401111
    },
    {
      "cityName": "Sakikalay",
      "lat": 35.998611,
      "lng": 68.645
    },
    {
      "cityName": "Sakus",
      "lat": 35.623056,
      "lng": 69.113611
    },
    {
      "cityName": "Salam Khel",
      "lat": 36.127778,
      "lng": 68.721944
    },
    {
      "cityName": "Salange Samali",
      "lat": 35.321667,
      "lng": 69.025556
    },
    {
      "cityName": "Salangi",
      "lat": 35.944167,
      "lng": 68.992222
    },
    {
      "cityName": "Saliza",
      "lat": 35.588611,
      "lng": 68.484444
    },
    {
      "cityName": "Samaluk",
      "lat": 35.641389,
      "lng": 69.563333
    },
    {
      "cityName": "Samandan",
      "lat": 35.628333,
      "lng": 69.628333
    },
    {
      "cityName": "Samarq",
      "lat": 35.893611,
      "lng": 68.754167
    },
    {
      "cityName": "Sangan",
      "lat": 36.007222,
      "lng": 69.760833
    },
    {
      "cityName": "Sangarkhel",
      "lat": 35.946111,
      "lng": 68.667778
    },
    {
      "cityName": "Sangboran",
      "lat": 35.679444,
      "lng": 69.316667
    },
    {
      "cityName": "Sang-e Lashm",
      "lat": 35.975833,
      "lng": 69.050556
    },
    {
      "cityName": "Sang-e Tanaw",
      "lat": 35.437222,
      "lng": 68.256667
    },
    {
      "cityName": "Sangsolakh",
      "lat": 35.767778,
      "lng": 68.774722
    },
    {
      "cityName": "Saqaw",
      "lat": 36.116667,
      "lng": 69.183333
    },
    {
      "cityName": "Sar Ab",
      "lat": 35.623611,
      "lng": 69.606389
    },
    {
      "cityName": "Sarbaghan",
      "lat": 35.636111,
      "lng": 69.158889
    },
    {
      "cityName": "Sare Abdara",
      "lat": 35.946944,
      "lng": 68.2575
    },
    {
      "cityName": "Sar-e Asiab",
      "lat": 36.104722,
      "lng": 68.678333
    },
    {
      "cityName": "Sar-e Band",
      "lat": 35.5475,
      "lng": 68.381111
    },
    {
      "cityName": "Sare Bed",
      "lat": 35.515,
      "lng": 68.529722
    },
    {
      "cityName": "Sar-e Kamar",
      "lat": 35.534167,
      "lng": 68.922778
    },
    {
      "cityName": "Sar-e Lar",
      "lat": 35.527778,
      "lng": 68.35
    },
    {
      "cityName": "Sar-e Nahr",
      "lat": 36.044444,
      "lng": 69.014722
    },
    {
      "cityName": "Sar-e Pol",
      "lat": 35.626389,
      "lng": 69.284167
    },
    {
      "cityName": "Sar-e Qoreqsay",
      "lat": 35.609167,
      "lng": 68.268333
    },
    {
      "cityName": "Sar-e Sang",
      "lat": 35.593333,
      "lng": 68.529167
    },
    {
      "cityName": "Sar-e Tangi",
      "lat": 36.122222,
      "lng": 68.955278
    },
    {
      "cityName": "Sar Jangal",
      "lat": 35.8375,
      "lng": 68.434722
    },
    {
      "cityName": "Sar Sang",
      "lat": 35.401389,
      "lng": 68.361667
    },
    {
      "cityName": "Sarsar",
      "lat": 36.133056,
      "lng": 69.201111
    },
    {
      "cityName": "Sasan",
      "lat": 35.792222,
      "lng": 69.345833
    },
    {
      "cityName": "Sassadkoti",
      "lat": 35.961667,
      "lng": 68.700556
    },
    {
      "cityName": "Savelan",
      "lat": 35.406667,
      "lng": 68.234444
    },
    {
      "cityName": "Sayade Bala",
      "lat": 35.683889,
      "lng": 69.306667
    },
    {
      "cityName": "Sayade Payan",
      "lat": 35.675833,
      "lng": 69.303333
    },
    {
      "cityName": "Sayedkhel",
      "lat": 35.801667,
      "lng": 68.765
    },
    {
      "cityName": "Sayed",
      "lat": 35.920278,
      "lng": 69.016389
    },
    {
      "cityName": "Sebak",
      "lat": 35.953889,
      "lng": 68.404167
    },
    {
      "cityName": "Sehpesta",
      "lat": 35.538056,
      "lng": 68.362222
    },
    {
      "cityName": "Sekh Jalal",
      "lat": 36.082222,
      "lng": 68.870278
    },
    {
      "cityName": "Sekh",
      "lat": 36.143611,
      "lng": 68.700278
    },
    {
      "cityName": "Selkhi",
      "lat": 36.003611,
      "lng": 69.812778
    },
    {
      "cityName": "Senjetak",
      "lat": 35.852778,
      "lng": 68.935
    },
    {
      "cityName": "Serqolak",
      "lat": 35.775278,
      "lng": 68.973056
    },
    {
      "cityName": "Sesran",
      "lat": 35.571667,
      "lng": 69.445278
    },
    {
      "cityName": "Shaykhan",
      "lat": 35.826111,
      "lng": 69.544444
    },
    {
      "cityName": "Shine Masjed",
      "lat": 35.723889,
      "lng": 68.509722
    },
    {
      "cityName": "Shine Ughur",
      "lat": 35.737778,
      "lng": 68.521944
    },
    {
      "cityName": "Shinimasjed",
      "lat": 35.705,
      "lng": 68.486111
    },
    {
      "cityName": "Shinvari",
      "lat": 35.995833,
      "lng": 68.569722
    },
    {
      "cityName": "Shiratalah",
      "lat": 35.769722,
      "lng": 68.533611
    },
    {
      "cityName": "Sholoktu",
      "lat": 35.756111,
      "lng": 68.530833
    },
    {
      "cityName": "Shorachah",
      "lat": 36.095,
      "lng": 69.169167
    },
    {
      "cityName": "Shorak",
      "lat": 35.99,
      "lng": 69.080833
    },
    {
      "cityName": "Shorazar",
      "lat": 35.760556,
      "lng": 68.814444
    },
    {
      "cityName": "Shurab",
      "lat": 35.801389,
      "lng": 68.399167
    },
    {
      "cityName": "Shur Qoduq",
      "lat": 36.395,
      "lng": 69.010833
    },
    {
      "cityName": "Siahchubeh Mazar",
      "lat": 35.603056,
      "lng": 68.947778
    },
    {
      "cityName": "Siah Rigak",
      "lat": 35.565556,
      "lng": 68.5225
    },
    {
      "cityName": "Siahsang",
      "lat": 35.521389,
      "lng": 68.925278
    },
    {
      "cityName": "Siah Sang",
      "lat": 35.5875,
      "lng": 68.490833
    },
    {
      "cityName": "Sochi",
      "lat": 35.898056,
      "lng": 69.484444
    },
    {
      "cityName": "Sojan",
      "lat": 35.96,
      "lng": 69.065833
    },
    {
      "cityName": "Sonalaw",
      "lat": 36.050278,
      "lng": 69.305
    },
    {
      "cityName": "Sorkhian",
      "lat": 35.560278,
      "lng": 68.913056
    },
    {
      "cityName": "Sorkh Jangal",
      "lat": 35.5975,
      "lng": 69.035833
    },
    {
      "cityName": "Sorkhjuy",
      "lat": 35.356667,
      "lng": 68.158611
    },
    {
      "cityName": "Sorkh Paryab",
      "lat": 35.809444,
      "lng": 69.403056
    },
    {
      "cityName": "Spech",
      "lat": 35.714167,
      "lng": 69.005556
    },
    {
      "cityName": "Sufikalay",
      "lat": 35.972778,
      "lng": 68.588611
    },
    {
      "cityName": "Surgol Kalay",
      "lat": 35.953333,
      "lng": 68.669722
    },
    {
      "cityName": "Tabaqsar",
      "lat": 35.394722,
      "lng": 68.383611
    },
    {
      "cityName": "Tadzhikanu-Kalay",
      "lat": 35.995833,
      "lng": 68.593333
    },
    {
      "cityName": "Tadzhikkhan-Kuli-Amchi",
      "lat": 35.968889,
      "lng": 68.551389
    },
    {
      "cityName": "Tadzhik",
      "lat": 35.9075,
      "lng": 68.512222
    },
    {
      "cityName": "Ta-e Khunak",
      "lat": 36.233333,
      "lng": 68.481111
    },
    {
      "cityName": "Tagar",
      "lat": 36.151667,
      "lng": 68.730278
    },
    {
      "cityName": "Taghanak",
      "lat": 35.566389,
      "lng": 69.445
    },
    {
      "cityName": "Tajekan",
      "lat": 35.625,
      "lng": 69.548611
    },
    {
      "cityName": "Tajik",
      "lat": 36.189444,
      "lng": 68.731667
    },
    {
      "cityName": "Takhchi",
      "lat": 36.349167,
      "lng": 68.996944
    },
    {
      "cityName": "Takhtasang",
      "lat": 35.486944,
      "lng": 68.940833
    },
    {
      "cityName": "Talakhtow",
      "lat": 35.219444,
      "lng": 68.256111
    },
    {
      "cityName": "Taleh va Barfak",
      "lat": 35.4,
      "lng": 68.166667
    },
    {
      "cityName": "Talek",
      "lat": 36.101111,
      "lng": 69.625556
    },
    {
      "cityName": "Tale Mirghazi",
      "lat": 35.760556,
      "lng": 69.313056
    },
    {
      "cityName": "Talkhakani",
      "lat": 35.65,
      "lng": 69.384444
    },
    {
      "cityName": "Tal'khian",
      "lat": 35.398611,
      "lng": 68.682778
    },
    {
      "cityName": "Tal Qeshlaq",
      "lat": 36.3175,
      "lng": 68.800833
    },
    {
      "cityName": "Tamas",
      "lat": 35.695,
      "lng": 68.584722
    },
    {
      "cityName": "Tanajawuz",
      "lat": 35.246111,
      "lng": 68.203056
    },
    {
      "cityName": "Tangi Arzo",
      "lat": 35.601111,
      "lng": 69.274444
    },
    {
      "cityName": "Tangi Murch",
      "lat": 36.286944,
      "lng": 69.178889
    },
    {
      "cityName": "Tani",
      "lat": 35.977222,
      "lng": 68.650278
    },
    {
      "cityName": "Tapakurgan",
      "lat": 35.9725,
      "lng": 68.613333
    },
    {
      "cityName": "Taporak",
      "lat": 35.825833,
      "lng": 68.769722
    },
    {
      "cityName": "Tarah Kheyl",
      "lat": 36.055556,
      "lng": 69.016667
    },
    {
      "cityName": "Tarakhel",
      "lat": 35.9675,
      "lng": 68.609167
    },
    {
      "cityName": "Tara Khel",
      "lat": 36.162222,
      "lng": 68.736111
    },
    {
      "cityName": "Tarnab",
      "lat": 35.878056,
      "lng": 68.982778
    },
    {
      "cityName": "Tarnaveh",
      "lat": 35.409167,
      "lng": 68.273611
    },
    {
      "cityName": "Tarnav",
      "lat": 35.959444,
      "lng": 69.247222
    },
    {
      "cityName": "Tatu",
      "lat": 36.111389,
      "lng": 68.873611
    },
    {
      "cityName": "Tavashakh",
      "lat": 36.076111,
      "lng": 69.119722
    },
    {
      "cityName": "Taye Pazak",
      "lat": 35.696944,
      "lng": 69.334722
    },
    {
      "cityName": "Tazun",
      "lat": 35.589444,
      "lng": 68.765
    },
    {
      "cityName": "Tele Doab",
      "lat": 35.629167,
      "lng": 69.690278
    },
    {
      "cityName": "Tiigiran",
      "lat": 35.165278,
      "lng": 68.156944
    },
    {
      "cityName": "Tirgaran",
      "lat": 35.599167,
      "lng": 69.444444
    },
    {
      "cityName": "Todakaws",
      "lat": 36.236667,
      "lng": 69.133056
    },
    {
      "cityName": "Todak",
      "lat": 35.676944,
      "lng": 68.533889
    },
    {
      "cityName": "Tokhta",
      "lat": 35.943889,
      "lng": 68.467778
    },
    {
      "cityName": "Tonddarreh",
      "lat": 35.821667,
      "lng": 68.503056
    },
    {
      "cityName": "Torkan",
      "lat": 35.604722,
      "lng": 68.915
    },
    {
      "cityName": "Tork-e Sayyad",
      "lat": 36.064722,
      "lng": 69.039722
    },
    {
      "cityName": "Tunddara",
      "lat": 35.820278,
      "lng": 68.496667
    },
    {
      "cityName": "Turani",
      "lat": 36.151667,
      "lng": 68.756667
    },
    {
      "cityName": "Turmush",
      "lat": 35.534167,
      "lng": 68.291111
    },
    {
      "cityName": "Utman Khel",
      "lat": 36.269444,
      "lng": 68.748889
    },
    {
      "cityName": "Uzbako Kalay",
      "lat": 35.909167,
      "lng": 68.503056
    },
    {
      "cityName": "Vakhshak",
      "lat": 35.893889,
      "lng": 68.429444
    },
    {
      "cityName": "Valikheyl'",
      "lat": 36.130833,
      "lng": 68.739722
    },
    {
      "cityName": "Vali",
      "lat": 36.041667,
      "lng": 68.661111
    },
    {
      "cityName": "Vardak",
      "lat": 35.958611,
      "lng": 68.6675
    },
    {
      "cityName": "Vatarchi",
      "lat": 35.918333,
      "lng": 68.938333
    },
    {
      "cityName": "Vazgari",
      "lat": 36.032778,
      "lng": 68.611389
    },
    {
      "cityName": "Vazirabad",
      "lat": 35.980278,
      "lng": 68.659444
    },
    {
      "cityName": "Wado",
      "lat": 35.488611,
      "lng": 68.271111
    },
    {
      "cityName": "Waghaw",
      "lat": 35.928056,
      "lng": 69.474444
    },
    {
      "cityName": "Wakhran",
      "lat": 36.040278,
      "lng": 69.704167
    },
    {
      "cityName": "Wardak",
      "lat": 36.2525,
      "lng": 68.814167
    },
    {
      "cityName": "Warichi",
      "lat": 35.904722,
      "lng": 69.505556
    },
    {
      "cityName": "Wolanzarduh",
      "lat": 36.04,
      "lng": 69.528889
    },
    {
      "cityName": "Wonu",
      "lat": 35.691667,
      "lng": 69.35
    },
    {
      "cityName": "Wuch",
      "lat": 35.985833,
      "lng": 69.449167
    },
    {
      "cityName": "Yakaharm",
      "lat": 36.041389,
      "lng": 69.695
    },
    {
      "cityName": "Yaka Puta",
      "lat": 36.113056,
      "lng": 68.655833
    },
    {
      "cityName": "Yaka Tut",
      "lat": 36.203889,
      "lng": 68.825278
    },
    {
      "cityName": "Yakha",
      "lat": 36.105556,
      "lng": 69.517222
    },
    {
      "cityName": "Yakhdan",
      "lat": 35.739444,
      "lng": 68.348333
    },
    {
      "cityName": "Yakhlar",
      "lat": 35.6325,
      "lng": 69.178333
    },
    {
      "cityName": "Yakhpaj",
      "lat": 35.901389,
      "lng": 69.193333
    },
    {
      "cityName": "Yamok",
      "lat": 36.123611,
      "lng": 69.617778
    },
    {
      "cityName": "Yaram-e Soflá",
      "lat": 35.93,
      "lng": 69.2625
    },
    {
      "cityName": "Yarme Ulya",
      "lat": 35.936389,
      "lng": 69.285
    },
    {
      "cityName": "Yawur",
      "lat": 36.2275,
      "lng": 69.544167
    },
    {
      "cityName": "Yoch",
      "lat": 35.606944,
      "lng": 69.061111
    },
    {
      "cityName": "Zaghan",
      "lat": 35.5575,
      "lng": 68.382778
    },
    {
      "cityName": "Zaman Khel",
      "lat": 36.328056,
      "lng": 68.764722
    },
    {
      "cityName": "Zamankheyl'",
      "lat": 35.993611,
      "lng": 68.687778
    },
    {
      "cityName": "Zamucak",
      "lat": 35.595833,
      "lng": 68.715556
    },
    {
      "cityName": "Zardak Khaval",
      "lat": 35.742222,
      "lng": 68.316944
    },
    {
      "cityName": "Zardaspan",
      "lat": 35.884444,
      "lng": 69.284444
    },
    {
      "cityName": "Zardkamar",
      "lat": 35.882778,
      "lng": 68.986111
    },
    {
      "cityName": "Zard Kamar",
      "lat": 36.196389,
      "lng": 68.796667
    },
    {
      "cityName": "Zarga",
      "lat": 35.568056,
      "lng": 68.5825
    },
    {
      "cityName": "Zar Sang-e pa'in",
      "lat": 35.176667,
      "lng": 68.248056
    },
    {
      "cityName": "Zaryat-e Oluq",
      "lat": 36.173889,
      "lng": 69.319167
    },
    {
      "cityName": "Zaymazid",
      "lat": 35.708889,
      "lng": 68.519722
    },
    {
      "cityName": "Zeker Khel",
      "lat": 36.320833,
      "lng": 68.752222
    },
    {
      "cityName": "Zer-e Nahr",
      "lat": 36.208889,
      "lng": 68.800833
    },
    {
      "cityName": "Ziloq",
      "lat": 36.178056,
      "lng": 69.336111
    },
    {
      "cityName": "Zorabi",
      "lat": 35.796667,
      "lng": 68.7775
    },
    {
      "cityName": "Zulfeqar",
      "lat": 35.616667,
      "lng": 68.670833
    }
  ]
}