{
  "name": "Hyogo",
  "cities": [
    {
      "cityName": "Aboshi",
      "lat": 34.7833333,
      "lng": 134.5833333
    },
    {
      "cityName": "Aimoto",
      "lat": 34.9666667,
      "lng": 135.15
    },
    {
      "cityName": "Aioi",
      "lat": 34.8,
      "lng": 134.4666667
    },
    {
      "cityName": "Akaho",
      "lat": 34.75,
      "lng": 134.4
    },
    {
      "cityName": "Akasaka",
      "lat": 34.7166667,
      "lng": 134.95
    },
    {
      "cityName": "Akashi",
      "lat": 34.6333333,
      "lng": 134.9833333
    },
    {
      "cityName": "Akenobe",
      "lat": 35.2666667,
      "lng": 134.6666667
    },
    {
      "cityName": "Akisato",
      "lat": 34.95,
      "lng": 134.3166667
    },
    {
      "cityName": "Ama",
      "lat": 34.2,
      "lng": 134.7333333
    },
    {
      "cityName": "Amafune",
      "lat": 35.0333333,
      "lng": 134.8833333
    },
    {
      "cityName": "Amagasaki",
      "lat": 34.7166667,
      "lng": 135.4166667
    },
    {
      "cityName": "Amarube",
      "lat": 35.65,
      "lng": 134.55
    },
    {
      "cityName": "Anaga",
      "lat": 34.2666667,
      "lng": 134.6666667
    },
    {
      "cityName": "Anji",
      "lat": 34.9833333,
      "lng": 134.6
    },
    {
      "cityName": "Ao",
      "lat": 34.8666667,
      "lng": 134.9166667
    },
    {
      "cityName": "Aoki",
      "lat": 34.2833333,
      "lng": 134.7666667
    },
    {
      "cityName": "Arai",
      "lat": 34.7666667,
      "lng": 134.8
    },
    {
      "cityName": "Arima",
      "lat": 34.8,
      "lng": 135.25
    },
    {
      "cityName": "Ashiya",
      "lat": 34.7333333,
      "lng": 135.3166667
    },
    {
      "cityName": "Awaga",
      "lat": 35.0666667,
      "lng": 134.7833333
    },
    {
      "cityName": "Azumi",
      "lat": 35.1166667,
      "lng": 134.5833333
    },
    {
      "cityName": "Befu",
      "lat": 34.7166667,
      "lng": 134.85
    },
    {
      "cityName": "Bentencho",
      "lat": 34.6833333,
      "lng": 135.1833333
    },
    {
      "cityName": "Bessho",
      "lat": 34.8,
      "lng": 134.75
    },
    {
      "cityName": "Boojicho",
      "lat": 34.6833333,
      "lng": 135.15
    },
    {
      "cityName": "Boseura",
      "lat": 34.65,
      "lng": 134.5166667
    },
    {
      "cityName": "Chikusa",
      "lat": 35.15,
      "lng": 134.4333333
    },
    {
      "cityName": "Choda",
      "lat": 34.8666667,
      "lng": 134.6333333
    },
    {
      "cityName": "Daikaidori",
      "lat": 34.6666667,
      "lng": 135.1666667
    },
    {
      "cityName": "Dempocho-minami",
      "lat": 34.6833333,
      "lng": 135.45
    },
    {
      "cityName": "Dezaikecho",
      "lat": 34.6666667,
      "lng": 135.1833333
    },
    {
      "cityName": "Dodani",
      "lat": 35.2833333,
      "lng": 134.55
    },
    {
      "cityName": "Dojo",
      "lat": 34.8666667,
      "lng": 135.2333333
    },
    {
      "cityName": "Ebara",
      "lat": 35.4666667,
      "lng": 134.7833333
    },
    {
      "cityName": "Ei",
      "lat": 34.4666667,
      "lng": 134.8333333
    },
    {
      "cityName": "Eigashima",
      "lat": 34.6666667,
      "lng": 134.9166667
    },
    {
      "cityName": "Enjitsu",
      "lat": 34.2,
      "lng": 134.8
    },
    {
      "cityName": "Fujie",
      "lat": 34.65,
      "lng": 134.95
    },
    {
      "cityName": "Fukae",
      "lat": 34.7166667,
      "lng": 135.3
    },
    {
      "cityName": "Fukiaicho",
      "lat": 34.7,
      "lng": 135.2
    },
    {
      "cityName": "Fukumoto",
      "lat": 35.05,
      "lng": 134.7666667
    },
    {
      "cityName": "Fukuoka",
      "lat": 35.4166667,
      "lng": 134.6
    },
    {
      "cityName": "Fukura",
      "lat": 34.25,
      "lng": 134.7166667
    },
    {
      "cityName": "Fukusumi",
      "lat": 35.0666667,
      "lng": 135.35
    },
    {
      "cityName": "Furuichi",
      "lat": 35.0166667,
      "lng": 135.15
    },
    {
      "cityName": "Futami",
      "lat": 34.7,
      "lng": 134.8833333
    },
    {
      "cityName": "Futatsugi",
      "lat": 34.85,
      "lng": 134.45
    },
    {
      "cityName": "Futoo",
      "lat": 34.9,
      "lng": 134.75
    },
    {
      "cityName": "Gashu",
      "lat": 34.25,
      "lng": 134.75
    },
    {
      "cityName": "Gunge",
      "lat": 34.4666667,
      "lng": 134.85
    },
    {
      "cityName": "Hamasaka",
      "lat": 35.6166667,
      "lng": 134.45
    },
    {
      "cityName": "Hara",
      "lat": 34.8166667,
      "lng": 134.3833333
    },
    {
      "cityName": "Hase",
      "lat": 35.1166667,
      "lng": 134.75
    },
    {
      "cityName": "Hayashida",
      "lat": 34.9,
      "lng": 134.5833333
    },
    {
      "cityName": "Hayashi",
      "lat": 34.65,
      "lng": 134.9666667
    },
    {
      "cityName": "Hikinoura",
      "lat": 34.55,
      "lng": 134.95
    },
    {
      "cityName": "Himedi",
      "lat": 34.8166667,
      "lng": 134.7
    },
    {
      "cityName": "Hirafuku",
      "lat": 35.05,
      "lng": 134.3666667
    },
    {
      "cityName": "Hirobata",
      "lat": 34.8,
      "lng": 134.6333333
    },
    {
      "cityName": "Hirone",
      "lat": 34.8833333,
      "lng": 135.3833333
    },
    {
      "cityName": "Hirota",
      "lat": 34.3166667,
      "lng": 134.8333333
    },
    {
      "cityName": "Hirotani",
      "lat": 35.3833333,
      "lng": 134.7833333
    },
    {
      "cityName": "Hitoichi",
      "lat": 35.65,
      "lng": 134.6333333
    },
    {
      "cityName": "Hojo",
      "lat": 34.9333333,
      "lng": 134.8333333
    },
    {
      "cityName": "Hommachi",
      "lat": 34.6666667,
      "lng": 134.7
    },
    {
      "cityName": "Honjo",
      "lat": 34.2166667,
      "lng": 134.7333333
    },
    {
      "cityName": "Ibi",
      "lat": 34.25,
      "lng": 134.6833333
    },
    {
      "cityName": "Ichijima",
      "lat": 35.2,
      "lng": 135.1333333
    },
    {
      "cityName": "Igumi",
      "lat": 35.6166667,
      "lng": 134.3833333
    },
    {
      "cityName": "Ihosaki",
      "lat": 34.7666667,
      "lng": 134.7833333
    },
    {
      "cityName": "Ikaruga",
      "lat": 34.8333333,
      "lng": 134.5833333
    },
    {
      "cityName": "Ikeda",
      "lat": 34.8166667,
      "lng": 135.4166667
    },
    {
      "cityName": "Ikoshi",
      "lat": 34.8,
      "lng": 135.35
    },
    {
      "cityName": "Ikuha",
      "lat": 34.5333333,
      "lng": 134.8833333
    },
    {
      "cityName": "Ikuho",
      "lat": 34.45,
      "lng": 134.9166667
    },
    {
      "cityName": "Ikuno",
      "lat": 35.1666667,
      "lng": 134.8
    },
    {
      "cityName": "Ikuta",
      "lat": 34.4833333,
      "lng": 134.9
    },
    {
      "cityName": "Iso",
      "lat": 35.15,
      "lng": 135.0666667
    },
    {
      "cityName": "Isonarecho",
      "lat": 34.6333333,
      "lng": 135.1333333
    },
    {
      "cityName": "Itami",
      "lat": 34.7666667,
      "lng": 135.4166667
    },
    {
      "cityName": "Itoi",
      "lat": 34.8166667,
      "lng": 134.5833333
    },
    {
      "cityName": "Iwami",
      "lat": 34.7833333,
      "lng": 134.5333333
    },
    {
      "cityName": "Izumicho",
      "lat": 34.7333333,
      "lng": 135.3333333
    },
    {
      "cityName": "Izushi",
      "lat": 35.4666667,
      "lng": 134.8666667
    },
    {
      "cityName": "Kaibara",
      "lat": 35.1333333,
      "lng": 135.0833333
    },
    {
      "cityName": "Kajiya",
      "lat": 35.0666667,
      "lng": 134.9166667
    },
    {
      "cityName": "Kakogawa",
      "lat": 34.7666667,
      "lng": 134.85
    },
    {
      "cityName": "Kami-amarube",
      "lat": 34.8,
      "lng": 134.5666667
    },
    {
      "cityName": "Kamigori",
      "lat": 34.8666667,
      "lng": 134.3666667
    },
    {
      "cityName": "Kamigumi",
      "lat": 34.4166667,
      "lng": 134.8666667
    },
    {
      "cityName": "Kamikage",
      "lat": 34.8333333,
      "lng": 135.15
    },
    {
      "cityName": "Kamikishida",
      "lat": 35.2,
      "lng": 134.65
    },
    {
      "cityName": "Kami-kushiro",
      "lat": 34.8,
      "lng": 135.4166667
    },
    {
      "cityName": "Kaminokumi",
      "lat": 34.7,
      "lng": 135.0666667
    },
    {
      "cityName": "Kami-takino",
      "lat": 34.9333333,
      "lng": 134.9666667
    },
    {
      "cityName": "Kanzakiagawa",
      "lat": 34.7333333,
      "lng": 135.45
    },
    {
      "cityName": "Kariko",
      "lat": 34.3166667,
      "lng": 134.7
    },
    {
      "cityName": "Kariya",
      "lat": 34.5166667,
      "lng": 134.9833333
    },
    {
      "cityName": "Kasumi",
      "lat": 35.6333333,
      "lng": 134.6333333
    },
    {
      "cityName": "Kawakami",
      "lat": 34.4,
      "lng": 134.8166667
    },
    {
      "cityName": "Kiba",
      "lat": 34.7666667,
      "lng": 134.7333333
    },
    {
      "cityName": "Kibi",
      "lat": 34.7833333,
      "lng": 134.6
    },
    {
      "cityName": "Kinosaki",
      "lat": 35.6166667,
      "lng": 134.8166667
    },
    {
      "cityName": "Kitamura",
      "lat": 34.8,
      "lng": 135.4
    },
    {
      "cityName": "Kita-wada",
      "lat": 35.1,
      "lng": 134.9833333
    },
    {
      "cityName": "Kobe",
      "lat": 34.6833333,
      "lng": 135.1666667
    },
    {
      "cityName": "Kokuryo",
      "lat": 35.1333333,
      "lng": 135.1166667
    },
    {
      "cityName": "Koya",
      "lat": 34.7833333,
      "lng": 135.3833333
    },
    {
      "cityName": "Kuga",
      "lat": 34.8166667,
      "lng": 134.4833333
    },
    {
      "cityName": "Kuge",
      "lat": 35.0666667,
      "lng": 135.0333333
    },
    {
      "cityName": "Kunikane",
      "lat": 34.8,
      "lng": 134.9166667
    },
    {
      "cityName": "Kuroi",
      "lat": 35.1666667,
      "lng": 135.1
    },
    {
      "cityName": "Kurubiki",
      "lat": 35.3166667,
      "lng": 134.8333333
    },
    {
      "cityName": "Kusumoto",
      "lat": 34.55,
      "lng": 134.9833333
    },
    {
      "cityName": "Kuto",
      "lat": 35.4666667,
      "lng": 134.75
    },
    {
      "cityName": "Machi",
      "lat": 35.2833333,
      "lng": 134.75
    },
    {
      "cityName": "Maenosho",
      "lat": 34.9666667,
      "lng": 134.6833333
    },
    {
      "cityName": "Magari",
      "lat": 35.1,
      "lng": 134.5833333
    },
    {
      "cityName": "Maruyama",
      "lat": 34.2833333,
      "lng": 134.6666667
    },
    {
      "cityName": "Maura",
      "lat": 34.6666667,
      "lng": 134.5333333
    },
    {
      "cityName": "Mega",
      "lat": 34.7833333,
      "lng": 134.7
    },
    {
      "cityName": "Midoro",
      "lat": 34.8,
      "lng": 134.9
    },
    {
      "cityName": "Mikagecho",
      "lat": 34.7166667,
      "lng": 135.25
    },
    {
      "cityName": "Mikazuki",
      "lat": 34.9666667,
      "lng": 134.45
    },
    {
      "cityName": "Miki",
      "lat": 34.8,
      "lng": 134.9833333
    },
    {
      "cityName": "Mikobata",
      "lat": 35.2333333,
      "lng": 134.7166667
    },
    {
      "cityName": "Minato",
      "lat": 34.3166667,
      "lng": 134.7333333
    },
    {
      "cityName": "Miya",
      "lat": 34.8,
      "lng": 134.6666667
    },
    {
      "cityName": "Miyaoki",
      "lat": 34.9166667,
      "lng": 134.6666667
    },
    {
      "cityName": "Monzen",
      "lat": 35.0833333,
      "lng": 134.9
    },
    {
      "cityName": "Moroyose",
      "lat": 35.6166667,
      "lng": 134.4166667
    },
    {
      "cityName": "Motomachidori",
      "lat": 34.6833333,
      "lng": 135.2
    },
    {
      "cityName": "Motoyamacho-Kitahata",
      "lat": 34.7333333,
      "lng": 135.2833333
    },
    {
      "cityName": "Muraoka",
      "lat": 35.4666667,
      "lng": 134.5833333
    },
    {
      "cityName": "Murotsu",
      "lat": 34.5166667,
      "lng": 134.8833333
    },
    {
      "cityName": "Myorakuji",
      "lat": 34.9666667,
      "lng": 134.9166667
    },
    {
      "cityName": "Naba",
      "lat": 34.8166667,
      "lng": 134.4666667
    },
    {
      "cityName": "Nagaya",
      "lat": 34.8,
      "lng": 135
    },
    {
      "cityName": "Nakagumi",
      "lat": 34.3666667,
      "lng": 134.7666667
    },
    {
      "cityName": "Nakahatacho",
      "lat": 35.0166667,
      "lng": 135.0333333
    },
    {
      "cityName": "Nakai",
      "lat": 34.9833333,
      "lng": 134.5333333
    },
    {
      "cityName": "Nakase",
      "lat": 35.3666667,
      "lng": 134.6166667
    },
    {
      "cityName": "Nakatsugawa",
      "lat": 34.25,
      "lng": 134.9166667
    },
    {
      "cityName": "Namase",
      "lat": 34.8166667,
      "lng": 135.3166667
    },
    {
      "cityName": "Narimatsu",
      "lat": 35.1666667,
      "lng": 135.0333333
    },
    {
      "cityName": "Nibuno",
      "lat": 34.8666667,
      "lng": 134.7166667
    },
    {
      "cityName": "Nii",
      "lat": 35.2333333,
      "lng": 134.7833333
    },
    {
      "cityName": "Nishi-futami",
      "lat": 34.7,
      "lng": 134.8666667
    },
    {
      "cityName": "Nishinomiya",
      "lat": 34.7166667,
      "lng": 135.3333333
    },
    {
      "cityName": "Nishi-takasucho",
      "lat": 34.7,
      "lng": 135.4
    },
    {
      "cityName": "Nishiwaki",
      "lat": 34.9833333,
      "lng": 134.9666667
    },
    {
      "cityName": "Nishiyama",
      "lat": 35.1333333,
      "lng": 134.9166667
    },
    {
      "cityName": "Noda",
      "lat": 34.4833333,
      "lng": 134.9666667
    },
    {
      "cityName": "Noino",
      "lat": 34.9833333,
      "lng": 134.4333333
    },
    {
      "cityName": "Nozoe",
      "lat": 34.7166667,
      "lng": 134.8833333
    },
    {
      "cityName": "Numashima",
      "lat": 34.1666667,
      "lng": 134.8166667
    },
    {
      "cityName": "Ogomachi",
      "lat": 34.8166667,
      "lng": 135.1
    },
    {
      "cityName": "Okinoura",
      "lat": 35.65,
      "lng": 134.65
    },
    {
      "cityName": "Okubocho",
      "lat": 34.6833333,
      "lng": 134.95
    },
    {
      "cityName": "Okuhata-mura",
      "lat": 35.0333333,
      "lng": 135.05
    },
    {
      "cityName": "Onocho",
      "lat": 34.85,
      "lng": 134.9333333
    },
    {
      "cityName": "Onohamacho",
      "lat": 34.6833333,
      "lng": 135.2166667
    },
    {
      "cityName": "Oshio",
      "lat": 34.7833333,
      "lng": 134.7666667
    },
    {
      "cityName": "Ota",
      "lat": 34.8333333,
      "lng": 134.6
    },
    {
      "cityName": "Oya-ichiba",
      "lat": 35.3333333,
      "lng": 134.6666667
    },
    {
      "cityName": "Saji",
      "lat": 35.2333333,
      "lng": 135
    },
    {
      "cityName": "Sakai",
      "lat": 34.45,
      "lng": 134.7833333
    },
    {
      "cityName": "Sakoshi",
      "lat": 34.7666667,
      "lng": 134.4333333
    },
    {
      "cityName": "Sanda",
      "lat": 34.8833333,
      "lng": 135.2333333
    },
    {
      "cityName": "Sano",
      "lat": 34.4666667,
      "lng": 134.9333333
    },
    {
      "cityName": "Sasayama",
      "lat": 35.0666667,
      "lng": 135.2166667
    },
    {
      "cityName": "Sayo",
      "lat": 35,
      "lng": 134.3666667
    },
    {
      "cityName": "Sekinomiya",
      "lat": 35.3666667,
      "lng": 134.6333333
    },
    {
      "cityName": "Sembon",
      "lat": 34.9333333,
      "lng": 134.4833333
    },
    {
      "cityName": "Senzo",
      "lat": 34.7833333,
      "lng": 135.4
    },
    {
      "cityName": "Shico",
      "lat": 34.4166667,
      "lng": 134.9
    },
    {
      "cityName": "Shikata",
      "lat": 34.8166667,
      "lng": 134.8166667
    },
    {
      "cityName": "Shimayacho",
      "lat": 34.6666667,
      "lng": 135.4333333
    },
    {
      "cityName": "Shimo-tanigami",
      "lat": 34.7666667,
      "lng": 135.1666667
    },
    {
      "cityName": "Shingu",
      "lat": 34.9166667,
      "lng": 134.55
    },
    {
      "cityName": "Shioya",
      "lat": 34.7666667,
      "lng": 134.3833333
    },
    {
      "cityName": "Shirahama-ku",
      "lat": 34.7833333,
      "lng": 134.7166667
    },
    {
      "cityName": "Shirasaki",
      "lat": 34.2333333,
      "lng": 134.85
    },
    {
      "cityName": "Shitsuki",
      "lat": 34.4333333,
      "lng": 134.9
    },
    {
      "cityName": "Shojo",
      "lat": 34.8166667,
      "lng": 134.5333333
    },
    {
      "cityName": "Sumoto",
      "lat": 34.35,
      "lng": 134.9
    },
    {
      "cityName": "Tahara",
      "lat": 34.95,
      "lng": 134.7666667
    },
    {
      "cityName": "Takaoka",
      "lat": 34.9166667,
      "lng": 134.9166667
    },
    {
      "cityName": "Takasago",
      "lat": 34.75,
      "lng": 134.8
    },
    {
      "cityName": "Takatoricho",
      "lat": 34.65,
      "lng": 135.1333333
    },
    {
      "cityName": "Takawa",
      "lat": 34.7333333,
      "lng": 135.0166667
    },
    {
      "cityName": "Takeda",
      "lat": 35.3,
      "lng": 134.8333333
    },
    {
      "cityName": "Takeno",
      "lat": 35.65,
      "lng": 134.75
    },
    {
      "cityName": "Tarumi",
      "lat": 34.6333333,
      "lng": 135.05
    },
    {
      "cityName": "Tatsuno",
      "lat": 34.8666667,
      "lng": 134.55
    },
    {
      "cityName": "Temma",
      "lat": 34.8,
      "lng": 134.6166667
    },
    {
      "cityName": "Tenjin",
      "lat": 34.9,
      "lng": 135.0666667
    },
    {
      "cityName": "Tomishima",
      "lat": 34.55,
      "lng": 134.9333333
    },
    {
      "cityName": "Torikaiura",
      "lat": 34.3666667,
      "lng": 134.75
    },
    {
      "cityName": "Toyooka",
      "lat": 35.5333333,
      "lng": 134.8333333
    },
    {
      "cityName": "Tsuiyama",
      "lat": 35.65,
      "lng": 134.8333333
    },
    {
      "cityName": "Tsukaguchi",
      "lat": 34.75,
      "lng": 135.4166667
    },
    {
      "cityName": "Tsukudacho",
      "lat": 34.7,
      "lng": 135.4333333
    },
    {
      "cityName": "Tsunogame",
      "lat": 34.9333333,
      "lng": 134.45
    },
    {
      "cityName": "Tsurumachi",
      "lat": 34.6833333,
      "lng": 135.4
    },
    {
      "cityName": "Tsushi",
      "lat": 34.4166667,
      "lng": 134.7833333
    },
    {
      "cityName": "Tsutsiu-cho",
      "lat": 34.7,
      "lng": 135.2166667
    },
    {
      "cityName": "Wadasakicho",
      "lat": 34.65,
      "lng": 135.1833333
    },
    {
      "cityName": "Wada",
      "lat": 35.0833333,
      "lng": 134.9833333
    },
    {
      "cityName": "Wadayamadori",
      "lat": 34.65,
      "lng": 135.1666667
    },
    {
      "cityName": "Wadayama",
      "lat": 35.3166667,
      "lng": 134.8666667
    },
    {
      "cityName": "Watase",
      "lat": 34.8833333,
      "lng": 135.1
    },
    {
      "cityName": "Yabu-ichiba",
      "lat": 35.3833333,
      "lng": 134.8166667
    },
    {
      "cityName": "Yagami-shin",
      "lat": 35.0666667,
      "lng": 135.2833333
    },
    {
      "cityName": "Yaka",
      "lat": 34.7833333,
      "lng": 134.7333333
    },
    {
      "cityName": "Yamaguchi",
      "lat": 35.2166667,
      "lng": 134.8
    },
    {
      "cityName": "Yamasaki",
      "lat": 35,
      "lng": 134.55
    },
    {
      "cityName": "Yamashitamachi",
      "lat": 34.9,
      "lng": 135.4
    },
    {
      "cityName": "Yanase",
      "lat": 35.3166667,
      "lng": 134.8833333
    },
    {
      "cityName": "Yashiro",
      "lat": 34.9166667,
      "lng": 134.9666667
    },
    {
      "cityName": "Yokamachi",
      "lat": 35.4,
      "lng": 134.7666667
    },
    {
      "cityName": "Yokoo",
      "lat": 34.8166667,
      "lng": 134.4
    },
    {
      "cityName": "Yumura",
      "lat": 35.55,
      "lng": 134.4833333
    },
    {
      "cityName": "Yura",
      "lat": 34.2833333,
      "lng": 134.95
    }
  ]
}