{
  "name": "Liaoning",
  "cities": [
    {
      "cityName": "Achin",
      "lat": 42.0588889,
      "lng": 121.745
    },
    {
      "cityName": "Adams",
      "lat": 39.3952778,
      "lng": 121.9669444
    },
    {
      "cityName": "Aerhhsiang",
      "lat": 42.8333333,
      "lng": 122.4166667
    },
    {
      "cityName": "Aiyang",
      "lat": 40.8955556,
      "lng": 124.4386111
    },
    {
      "cityName": "Aiyangcheng",
      "lat": 40.8991667,
      "lng": 124.5197222
    },
    {
      "cityName": "Aji",
      "lat": 42.2666667,
      "lng": 123.55
    },
    {
      "cityName": "Anbo",
      "lat": 39.8355556,
      "lng": 122.3069444
    },
    {
      "cityName": "Anchialou",
      "lat": 42.1002778,
      "lng": 119.5258333
    },
    {
      "cityName": "Anjia",
      "lat": 41.6,
      "lng": 123.8333333
    },
    {
      "cityName": "Ankang",
      "lat": 39.8883333,
      "lng": 124.2066667
    },
    {
      "cityName": "Anmin",
      "lat": 39.9911111,
      "lng": 124.3119444
    },
    {
      "cityName": "Anping",
      "lat": 40.28,
      "lng": 122.2591667
    },
    {
      "cityName": "Anpingtun",
      "lat": 39.9863889,
      "lng": 124.2672222
    },
    {
      "cityName": "Anshan",
      "lat": 41.1236111,
      "lng": 122.99
    },
    {
      "cityName": "Antun",
      "lat": 41.0527778,
      "lng": 121.6447222
    },
    {
      "cityName": "Antung",
      "lat": 40.1291667,
      "lng": 124.3947222
    },
    {
      "cityName": "Antunghsien",
      "lat": 39.8775,
      "lng": 124.1475
    },
    {
      "cityName": "Anziling",
      "lat": 38.9063889,
      "lng": 121.3913889
    },
    {
      "cityName": "Anzishan",
      "lat": 39.8575,
      "lng": 123.3097222
    },
    {
      "cityName": "Aochiapaotzu",
      "lat": 41.9030556,
      "lng": 124.7811111
    },
    {
      "cityName": "Aosiyingzi",
      "lat": 41.8744444,
      "lng": 121.9277778
    },
    {
      "cityName": "Ashihniulu",
      "lat": 41.5061111,
      "lng": 122.7241667
    },
    {
      "cityName": "Babao",
      "lat": 41.81,
      "lng": 125.0863889
    },
    {
      "cityName": "Babaotun",
      "lat": 42.5666667,
      "lng": 123.9
    },
    {
      "cityName": "Bachagou",
      "lat": 39.5113889,
      "lng": 121.2888889
    },
    {
      "cityName": "Badaogou",
      "lat": 41.4669444,
      "lng": 125.1916667
    },
    {
      "cityName": "Badaohao",
      "lat": 41.8136111,
      "lng": 121.99
    },
    {
      "cityName": "Badaoling",
      "lat": 41.8825,
      "lng": 121.4369444
    },
    {
      "cityName": "Bahechuan",
      "lat": 41.0236111,
      "lng": 124.8263889
    },
    {
      "cityName": "Baicaidi",
      "lat": 40.6961111,
      "lng": 125.2222222
    },
    {
      "cityName": "Baicaodian",
      "lat": 41.9811111,
      "lng": 124.7377778
    },
    {
      "cityName": "Baichangmen",
      "lat": 41.8286111,
      "lng": 121.8747222
    },
    {
      "cityName": "Baidayingzi",
      "lat": 41.4938889,
      "lng": 120.6125
    },
    {
      "cityName": "Baiguo",
      "lat": 40.3727778,
      "lng": 122.4036111
    },
    {
      "cityName": "Baijia",
      "lat": 41.6108333,
      "lng": 124.9377778
    },
    {
      "cityName": "Baijiagou",
      "lat": 42.5505556,
      "lng": 123.6116667
    },
    {
      "cityName": "Baijiaheyan",
      "lat": 40.4369444,
      "lng": 123.8372222
    },
    {
      "cityName": "Baijiatun",
      "lat": 39.9136111,
      "lng": 123.1986111
    },
    {
      "cityName": "Baijiawa",
      "lat": 41.5644444,
      "lng": 119.5047222
    },
    {
      "cityName": "Baimiaozi",
      "lat": 40.3861111,
      "lng": 124.3680556
    },
    {
      "cityName": "Baiqi",
      "lat": 40.3333333,
      "lng": 123.8427778
    },
    {
      "cityName": "Baiqingzhai",
      "lat": 41.5708333,
      "lng": 123.6902778
    },
    {
      "cityName": "Baishilazi",
      "lat": 41.0211111,
      "lng": 123.1466667
    },
    {
      "cityName": "Baishilazilinchang",
      "lat": 40.9216667,
      "lng": 124.8033333
    },
    {
      "cityName": "Baishizhai",
      "lat": 40.9525,
      "lng": 122.945
    },
    {
      "cityName": "Baishuijing",
      "lat": 39.4166667,
      "lng": 121.7666667
    },
    {
      "cityName": "Baita",
      "lat": 41.6816667,
      "lng": 123.4216667
    },
    {
      "cityName": "Baitaigou",
      "lat": 41.6852778,
      "lng": 121.2116667
    },
    {
      "cityName": "Baitayu",
      "lat": 40.6666667,
      "lng": 120.6166667
    },
    {
      "cityName": "Baitazi",
      "lat": 40.8666667,
      "lng": 119.6666667
    },
    {
      "cityName": "Baiyanggou",
      "lat": 40.3,
      "lng": 122.8
    },
    {
      "cityName": "Baiyu",
      "lat": 42.95,
      "lng": 124.7333333
    },
    {
      "cityName": "Baiyun",
      "lat": 40.84,
      "lng": 123.6036111
    },
    {
      "cityName": "Baiyundong",
      "lat": 40.5730556,
      "lng": 123.0172222
    },
    {
      "cityName": "Baizhai",
      "lat": 40.6052778,
      "lng": 122.5577778
    },
    {
      "cityName": "Bajia",
      "lat": 41.9263889,
      "lng": 119.3891667
    },
    {
      "cityName": "Bajiaotai",
      "lat": 41.2666667,
      "lng": 121.25
    },
    {
      "cityName": "Bajiazi",
      "lat": 41.0902778,
      "lng": 121.6605556
    },
    {
      "cityName": "Bakeshu",
      "lat": 40.7427778,
      "lng": 124.5275
    },
    {
      "cityName": "Bali",
      "lat": 40.7833333,
      "lng": 122.75
    },
    {
      "cityName": "Balibao",
      "lat": 41.5616667,
      "lng": 120.4116667
    },
    {
      "cityName": "Balidianzi",
      "lat": 41.2341667,
      "lng": 124.8827778
    },
    {
      "cityName": "Balingguan",
      "lat": 41.4016667,
      "lng": 120.0858333
    },
    {
      "cityName": "Baliyingzi",
      "lat": 41.9658333,
      "lng": 121.2275
    },
    {
      "cityName": "Balizhuang",
      "lat": 42.2666667,
      "lng": 123.8
    },
    {
      "cityName": "Balouzi",
      "lat": 42.4505556,
      "lng": 121.7761111
    },
    {
      "cityName": "Bamiancheng",
      "lat": 43.1938889,
      "lng": 124.0480556
    },
    {
      "cityName": "Banchangyu",
      "lat": 40.4375,
      "lng": 122.9677778
    },
    {
      "cityName": "Bangshibao",
      "lat": 40.415,
      "lng": 122.6675
    },
    {
      "cityName": "Banjita",
      "lat": 41.1852778,
      "lng": 120.8722222
    },
    {
      "cityName": "Banlamen",
      "lat": 41.8583333,
      "lng": 122.4372222
    },
    {
      "cityName": "Banlamiao",
      "lat": 40.2369444,
      "lng": 122.5913889
    },
    {
      "cityName": "Banlashan",
      "lat": 39.65,
      "lng": 123.0011111
    },
    {
      "cityName": "Banlashanzi",
      "lat": 41.4291667,
      "lng": 123.4697222
    },
    {
      "cityName": "Banqiaozi",
      "lat": 40.8375,
      "lng": 122.4791667
    },
    {
      "cityName": "Banzitun",
      "lat": 40.6366667,
      "lng": 122.9044444
    },
    {
      "cityName": "Baojiatun",
      "lat": 42.4666667,
      "lng": 122.9333333
    },
    {
      "cityName": "Baoli",
      "lat": 42.9141667,
      "lng": 123.7938889
    },
    {
      "cityName": "Baoshan",
      "lat": 40.3666667,
      "lng": 123.85
    },
    {
      "cityName": "Baoshen",
      "lat": 41.7166667,
      "lng": 121.3833333
    },
    {
      "cityName": "Baoshenmiao",
      "lat": 40.9138889,
      "lng": 119.0691667
    },
    {
      "cityName": "Baotang",
      "lat": 41.8508333,
      "lng": 125.2805556
    },
    {
      "cityName": "Baozhangzi",
      "lat": 41.0775,
      "lng": 120.0927778
    },
    {
      "cityName": "Bapanling",
      "lat": 40.9733333,
      "lng": 123.1322222
    },
    {
      "cityName": "Bashiguzi",
      "lat": 41.9241667,
      "lng": 121.77
    },
    {
      "cityName": "Basiyingzi",
      "lat": 41.86,
      "lng": 121.1341667
    },
    {
      "cityName": "Batuying",
      "lat": 41.4697222,
      "lng": 120.7561111
    },
    {
      "cityName": "Bawangmiao",
      "lat": 40.84,
      "lng": 121.9788889
    },
    {
      "cityName": "Bayi",
      "lat": 41.6083333,
      "lng": 123.2922222
    },
    {
      "cityName": "Bayuquan",
      "lat": 40.2833333,
      "lng": 122.1
    },
    {
      "cityName": "Beidamiao",
      "lat": 41.7858333,
      "lng": 119.5875
    },
    {
      "cityName": "Beideng",
      "lat": 40.7238889,
      "lng": 119.1963889
    },
    {
      "cityName": "Beidian",
      "lat": 41.3519444,
      "lng": 124.3244444
    },
    {
      "cityName": "Beidianzi",
      "lat": 39.4838889,
      "lng": 121.3508333
    },
    {
      "cityName": "Beidi",
      "lat": 41.7108333,
      "lng": 120.9663889
    },
    {
      "cityName": "Beiershijiazi",
      "lat": 42.1611111,
      "lng": 119.7455556
    },
    {
      "cityName": "Beigongyingzi",
      "lat": 41.3533333,
      "lng": 119.8413889
    },
    {
      "cityName": "Beigou",
      "lat": 40.3108333,
      "lng": 122.4252778
    },
    {
      "cityName": "Beigoumenzi",
      "lat": 41.605,
      "lng": 120.0466667
    },
    {
      "cityName": "Beiguantun",
      "lat": 39.7594444,
      "lng": 122.7177778
    },
    {
      "cityName": "Beihaicun",
      "lat": 38.9391667,
      "lng": 121.175
    },
    {
      "cityName": "Beijiang",
      "lat": 40.6575,
      "lng": 125.1777778
    },
    {
      "cityName": "Beijing",
      "lat": 39.8825,
      "lng": 123.9119444
    },
    {
      "cityName": "Beilifang",
      "lat": 41.99,
      "lng": 121.9461111
    },
    {
      "cityName": "Beilu",
      "lat": 41.0808333,
      "lng": 119.295
    },
    {
      "cityName": "Beimachang",
      "lat": 41.0661111,
      "lng": 119.3102778
    },
    {
      "cityName": "Beining",
      "lat": 41.5955556,
      "lng": 121.7927778
    },
    {
      "cityName": "Beipiao",
      "lat": 41.7919444,
      "lng": 120.7791667
    },
    {
      "cityName": "Beiquanhe",
      "lat": 41.0497222,
      "lng": 121.5158333
    },
    {
      "cityName": "Beisanjia",
      "lat": 42.0461111,
      "lng": 124.7102778
    },
    {
      "cityName": "Beisijia",
      "lat": 41.2833333,
      "lng": 120.3
    },
    {
      "cityName": "Beisiping",
      "lat": 41.7925,
      "lng": 125.1775
    },
    {
      "cityName": "Beitai",
      "lat": 41.2188889,
      "lng": 123.6383333
    },
    {
      "cityName": "Beitouzi",
      "lat": 40.2611111,
      "lng": 122.3113889
    },
    {
      "cityName": "Beiwangqing",
      "lat": 41.8419444,
      "lng": 125.1722222
    },
    {
      "cityName": "Beixiaoliutun",
      "lat": 40.9422222,
      "lng": 121.4266667
    },
    {
      "cityName": "Beizhuanchengzi",
      "lat": 41.6975,
      "lng": 121.3233333
    },
    {
      "cityName": "Benxi",
      "lat": 41.2886111,
      "lng": 123.765
    },
    {
      "cityName": "Biangou",
      "lat": 40.7283333,
      "lng": 124.3783333
    },
    {
      "cityName": "Bianmen",
      "lat": 40.3508333,
      "lng": 124.0988889
    },
    {
      "cityName": "Bianwaibaozi",
      "lat": 41.5783333,
      "lng": 124.7469444
    },
    {
      "cityName": "Bianzhangzi",
      "lat": 41.6280556,
      "lng": 120.3475
    },
    {
      "cityName": "Binhaicun",
      "lat": 38.8608333,
      "lng": 121.6216667
    },
    {
      "cityName": "Bolinchuan",
      "lat": 40.9436111,
      "lng": 124.5766667
    },
    {
      "cityName": "Boluochi",
      "lat": 41.4,
      "lng": 119.9833333
    },
    {
      "cityName": "Boluopu",
      "lat": 40.5252778,
      "lng": 122.4588889
    },
    {
      "cityName": "Boshugou",
      "lat": 40.8966667,
      "lng": 119.1772222
    },
    {
      "cityName": "Bozhangzi",
      "lat": 40.6975,
      "lng": 119.0469444
    },
    {
      "cityName": "Budayuan",
      "lat": 40.9305556,
      "lng": 125.335
    },
    {
      "cityName": "Buyunshan",
      "lat": 40.0283333,
      "lng": 122.7163889
    },
    {
      "cityName": "Caifangshen",
      "lat": 39.7375,
      "lng": 122.0177778
    },
    {
      "cityName": "Caijiapu",
      "lat": 41.0025,
      "lng": 124.3130556
    },
    {
      "cityName": "Cailuopu",
      "lat": 42.0333333,
      "lng": 123.4
    },
    {
      "cityName": "Caimugou",
      "lat": 40.8019444,
      "lng": 122.9677778
    },
    {
      "cityName": "Cainiu",
      "lat": 42.3333333,
      "lng": 123.6
    },
    {
      "cityName": "Caishenmiao",
      "lat": 41.1927778,
      "lng": 123.8944444
    },
    {
      "cityName": "Caiyuanzi",
      "lat": 39.7405556,
      "lng": 122.5527778
    },
    {
      "cityName": "Cangjiatun",
      "lat": 39.52,
      "lng": 121.6052778
    },
    {
      "cityName": "Cangshi",
      "lat": 41.9666667,
      "lng": 124.5833333
    },
    {
      "cityName": "Cangtu",
      "lat": 42.05,
      "lng": 122.1333333
    },
    {
      "cityName": "Cangzi",
      "lat": 42.1338889,
      "lng": 119.3288889
    },
    {
      "cityName": "Caohe",
      "lat": 40.4666667,
      "lng": 124.1166667
    },
    {
      "cityName": "Caohecheng",
      "lat": 40.8813889,
      "lng": 124.0538889
    },
    {
      "cityName": "Caohekou",
      "lat": 40.9,
      "lng": 123.8833333
    },
    {
      "cityName": "Caohezhang",
      "lat": 41.0638889,
      "lng": 124.0502778
    },
    {
      "cityName": "Caojiabao",
      "lat": 40.7391667,
      "lng": 122.6572222
    },
    {
      "cityName": "Caojiatun",
      "lat": 39.0636111,
      "lng": 121.9327778
    },
    {
      "cityName": "Caolougou",
      "lat": 41.0608333,
      "lng": 119.2036111
    },
    {
      "cityName": "Caopen",
      "lat": 41.4025,
      "lng": 124.6166667
    },
    {
      "cityName": "Caoshi",
      "lat": 42.2925,
      "lng": 125.2227778
    },
    {
      "cityName": "Caotun",
      "lat": 41.4297222,
      "lng": 121.7808333
    },
    {
      "cityName": "Chagou",
      "lat": 40.93,
      "lng": 124.2227778
    },
    {
      "cityName": "Chaihepu",
      "lat": 42.2833333,
      "lng": 124.15
    },
    {
      "cityName": "Chaimugou",
      "lat": 40.6877778,
      "lng": 119.4186111
    },
    {
      "cityName": "Chaiyang",
      "lat": 41.5702778,
      "lng": 120.4586111
    },
    {
      "cityName": "Chakou",
      "lat": 40.6091667,
      "lng": 122.8563889
    },
    {
      "cityName": "Chalanyingtzu",
      "lat": 42.2066667,
      "lng": 119.7205556
    },
    {
      "cityName": "Chalu",
      "lat": 40.3619444,
      "lng": 123.9083333
    },
    {
      "cityName": "Changan",
      "lat": 40.1288889,
      "lng": 124.0958333
    },
    {
      "cityName": "Changcheng",
      "lat": 38.9302778,
      "lng": 121.3138889
    },
    {
      "cityName": "Changchiangchen",
      "lat": 42.6666667,
      "lng": 122.9666667
    },
    {
      "cityName": "Changchiangcheng",
      "lat": 40.4166667,
      "lng": 124.8163889
    },
    {
      "cityName": "Changchiaputzu",
      "lat": 41.6741667,
      "lng": 125.1433333
    },
    {
      "cityName": "Changchiayingtzu",
      "lat": 41.8,
      "lng": 119.6833333
    },
    {
      "cityName": "Changchungou",
      "lat": 41.3102778,
      "lng": 125.5675
    },
    {
      "cityName": "Changdianbao",
      "lat": 39.3680556,
      "lng": 121.9063889
    },
    {
      "cityName": "Changdian",
      "lat": 40.4763889,
      "lng": 124.7983333
    },
    {
      "cityName": "Changgang",
      "lat": 40.3897222,
      "lng": 124.5188889
    },
    {
      "cityName": "Changgao",
      "lat": 41.7966667,
      "lng": 121.0497222
    },
    {
      "cityName": "Changhada",
      "lat": 42.0166667,
      "lng": 121.7666667
    },
    {
      "cityName": "Changhai",
      "lat": 39.2755556,
      "lng": 122.6
    },
    {
      "cityName": "Changhanchi",
      "lat": 41.7566667,
      "lng": 119.4411111
    },
    {
      "cityName": "Changheying",
      "lat": 41.7027778,
      "lng": 121.0997222
    },
    {
      "cityName": "Changhsing",
      "lat": 41.4419444,
      "lng": 121.7313889
    },
    {
      "cityName": "Changhsingchen",
      "lat": 41.6666667,
      "lng": 122.2666667
    },
    {
      "cityName": "Changjiabaozi",
      "lat": 41.6286111,
      "lng": 124.63
    },
    {
      "cityName": "Changjiatun",
      "lat": 40.0494444,
      "lng": 123.0672222
    },
    {
      "cityName": "Changkutai",
      "lat": 42.7,
      "lng": 122.4666667
    },
    {
      "cityName": "Changlingtzu",
      "lat": 39.8425,
      "lng": 122.6838889
    },
    {
      "cityName": "Changshanbeitou",
      "lat": 39.9461111,
      "lng": 124.0511111
    },
    {
      "cityName": "Changshan",
      "lat": 39.8691667,
      "lng": 124.0380556
    },
    {
      "cityName": "Changshanpao",
      "lat": 42.1313889,
      "lng": 124.9816667
    },
    {
      "cityName": "Changshantzutsun",
      "lat": 42.1380556,
      "lng": 125.0088889
    },
    {
      "cityName": "Changtan",
      "lat": 41.55,
      "lng": 123.0511111
    },
    {
      "cityName": "Changtang",
      "lat": 41.9052778,
      "lng": 124.0913889
    },
    {
      "cityName": "Changtuchan",
      "lat": 42.7752778,
      "lng": 124.1127778
    },
    {
      "cityName": "Changtucheng",
      "lat": 42.7816667,
      "lng": 123.9933333
    },
    {
      "cityName": "Changwu",
      "lat": 42.3666667,
      "lng": 122.5166667
    },
    {
      "cityName": "Changzaiyingzi",
      "lat": 41.1416667,
      "lng": 120.2413889
    },
    {
      "cityName": "Chaolihutong",
      "lat": 41.8661111,
      "lng": 119.8541667
    },
    {
      "cityName": "Chaoluntala",
      "lat": 42.0611111,
      "lng": 121.4263889
    },
    {
      "cityName": "Chaomidianzi",
      "lat": 41.5788889,
      "lng": 120.8561111
    },
    {
      "cityName": "Chaoxianlingdixia",
      "lat": 41.4019444,
      "lng": 123.6441667
    },
    {
      "cityName": "Chaoyangbao",
      "lat": 41.5880556,
      "lng": 121.9247222
    },
    {
      "cityName": "Chaoyanggou",
      "lat": 41.5588889,
      "lng": 125.0747222
    },
    {
      "cityName": "Chashansi",
      "lat": 41.3016667,
      "lng": 121.1672222
    },
    {
      "cityName": "Chataigou",
      "lat": 41.6480556,
      "lng": 119.5530556
    },
    {
      "cityName": "Chefangmanzuxiang",
      "lat": 41.5691667,
      "lng": 121.4322222
    },
    {
      "cityName": "Chenan",
      "lat": 41.6891667,
      "lng": 122.1127778
    },
    {
      "cityName": "Chengan",
      "lat": 41.7002778,
      "lng": 121.9322222
    },
    {
      "cityName": "Chengizutung",
      "lat": 39.5,
      "lng": 122.5
    },
    {
      "cityName": "Chengjia",
      "lat": 39.9722222,
      "lng": 122.31
    },
    {
      "cityName": "Chengjiawopu",
      "lat": 41.9633333,
      "lng": 120.4222222
    },
    {
      "cityName": "Chengmenbaozi",
      "lat": 41.1005556,
      "lng": 124.3722222
    },
    {
      "cityName": "Chengshan",
      "lat": 39.6966667,
      "lng": 122.6286111
    },
    {
      "cityName": "Chengtou",
      "lat": 41.1997222,
      "lng": 125.2186111
    },
    {
      "cityName": "Chenhsiangtun",
      "lat": 41.5675,
      "lng": 123.5136111
    },
    {
      "cityName": "Chenhsing",
      "lat": 42.7147222,
      "lng": 124.9208333
    },
    {
      "cityName": "Chenhsipu",
      "lat": 42.3833333,
      "lng": 123.7
    },
    {
      "cityName": "Chenjiabaozi",
      "lat": 40.3875,
      "lng": 123.5147222
    },
    {
      "cityName": "Chenjia",
      "lat": 38.7177778,
      "lng": 121.14
    },
    {
      "cityName": "Chenjiadian",
      "lat": 40.3058333,
      "lng": 122.8175
    },
    {
      "cityName": "Chenjiatun",
      "lat": 39.7716667,
      "lng": 121.9272222
    },
    {
      "cityName": "Chenjiaxiaodian",
      "lat": 39.7275,
      "lng": 122.1486111
    },
    {
      "cityName": "Chenmeiyingzi",
      "lat": 41.1461111,
      "lng": 120.3377778
    },
    {
      "cityName": "Chentun",
      "lat": 40.1277778,
      "lng": 122.1916667
    },
    {
      "cityName": "Chezhangzi",
      "lat": 42.2597222,
      "lng": 119.5775
    },
    {
      "cityName": "Chialima",
      "lat": 41.5166667,
      "lng": 122.6166667
    },
    {
      "cityName": "Chiangchünshih",
      "lat": 39.9127778,
      "lng": 121.6897222
    },
    {
      "cityName": "Chiaohoyingtzu",
      "lat": 42.1316667,
      "lng": 119.7105556
    },
    {
      "cityName": "Chiaoputientzu",
      "lat": 41.8127778,
      "lng": 125.1652778
    },
    {
      "cityName": "Chiaotou",
      "lat": 41.2091667,
      "lng": 123.7241667
    },
    {
      "cityName": "Chiapikou",
      "lat": 40.9366667,
      "lng": 125.5666667
    },
    {
      "cityName": "Chichiapao",
      "lat": 40.9333333,
      "lng": 123.8166667
    },
    {
      "cityName": "Chichiatzu",
      "lat": 42.9833333,
      "lng": 123.7
    },
    {
      "cityName": "Chichuanshan",
      "lat": 40.5513889,
      "lng": 123.9116667
    },
    {
      "cityName": "Chienchangchen",
      "lat": 40.8158333,
      "lng": 119.7897222
    },
    {
      "cityName": "Chienchang",
      "lat": 41.2458333,
      "lng": 124.4825
    },
    {
      "cityName": "Chienhsien",
      "lat": 41.1077778,
      "lng": 121.1416667
    },
    {
      "cityName": "Chienjihshan",
      "lat": 39.9613889,
      "lng": 124.2127778
    },
    {
      "cityName": "Chienkangkang",
      "lat": 42.1211111,
      "lng": 119.3355556
    },
    {
      "cityName": "Chienkuyüshu",
      "lat": 43.1455556,
      "lng": 123.6691667
    },
    {
      "cityName": "Chienniumao",
      "lat": 41.2386111,
      "lng": 125.165
    },
    {
      "cityName": "Chienniumaokou",
      "lat": 41.2088889,
      "lng": 125.1647222
    },
    {
      "cityName": "Chienping",
      "lat": 41.8975,
      "lng": 119.7147222
    },
    {
      "cityName": "Chienshantzu",
      "lat": 41.8591667,
      "lng": 120.8472222
    },
    {
      "cityName": "Chientahushan",
      "lat": 41.6147222,
      "lng": 122.1519444
    },
    {
      "cityName": "Chientunwe",
      "lat": 40.2,
      "lng": 120.1
    },
    {
      "cityName": "Chienyangtungtun",
      "lat": 39.9825,
      "lng": 124.2013889
    },
    {
      "cityName": "Chihsientun",
      "lat": 39.9705556,
      "lng": 124.2655556
    },
    {
      "cityName": "Chihyüantun",
      "lat": 42.4497222,
      "lng": 125.0955556
    },
    {
      "cityName": "Chikou",
      "lat": 40.9219444,
      "lng": 122.4808333
    },
    {
      "cityName": "Chiliho",
      "lat": 41.3344444,
      "lng": 121.2722222
    },
    {
      "cityName": "Chinashuitai",
      "lat": 42.0166667,
      "lng": 123.6166667
    },
    {
      "cityName": "Chinchangpu",
      "lat": 41.0475,
      "lng": 121.0308333
    },
    {
      "cityName": "Chincheng",
      "lat": 41.1861111,
      "lng": 121.4066667
    },
    {
      "cityName": "Chinchiachen",
      "lat": 42.7997222,
      "lng": 123.7025
    },
    {
      "cityName": "Chinchiachieh",
      "lat": 41.3008333,
      "lng": 125.3875
    },
    {
      "cityName": "Chin",
      "lat": 41.1652778,
      "lng": 121.3666667
    },
    {
      "cityName": "Chinchouchen",
      "lat": 39.1,
      "lng": 121.7166667
    },
    {
      "cityName": "Chingcheng",
      "lat": 40.7302778,
      "lng": 123.605
    },
    {
      "cityName": "Chingchiaputzu",
      "lat": 41.7069444,
      "lng": 125.1361111
    },
    {
      "cityName": "Chingchuan",
      "lat": 40.55,
      "lng": 124.9
    },
    {
      "cityName": "Chinghocheng",
      "lat": 41.45,
      "lng": 124.2322222
    },
    {
      "cityName": "Chingho",
      "lat": 41.7533333,
      "lng": 121.4136111
    },
    {
      "cityName": "Chingkoutzu",
      "lat": 41.5544444,
      "lng": 125.0947222
    },
    {
      "cityName": "Chinglopao",
      "lat": 41.1466667,
      "lng": 125.1033333
    },
    {
      "cityName": "Chingshuiho",
      "lat": 39.35,
      "lng": 122.2666667
    },
    {
      "cityName": "Chingtuitzu",
      "lat": 39.8347222,
      "lng": 123.2758333
    },
    {
      "cityName": "Chingyüanchen",
      "lat": 42.0988889,
      "lng": 124.9222222
    },
    {
      "cityName": "Chingyünpu",
      "lat": 42.5469444,
      "lng": 123.8513889
    },
    {
      "cityName": "Chingyünssu",
      "lat": 41.4136111,
      "lng": 125.2625
    },
    {
      "cityName": "Chinhsichen",
      "lat": 40.75,
      "lng": 120.8333333
    },
    {
      "cityName": "Chinkou",
      "lat": 41.6166667,
      "lng": 120.55
    },
    {
      "cityName": "Chinkoutzu",
      "lat": 42.6333333,
      "lng": 124
    },
    {
      "cityName": "Chinlingssu",
      "lat": 41.6944444,
      "lng": 120.8236111
    },
    {
      "cityName": "Chinping",
      "lat": 40.3941667,
      "lng": 122.3686111
    },
    {
      "cityName": "Chinshanwan",
      "lat": 40.2166667,
      "lng": 124.3333333
    },
    {
      "cityName": "Chintouyü",
      "lat": 41.4747222,
      "lng": 124.3686111
    },
    {
      "cityName": "Chitaochüantzu",
      "lat": 41.6033333,
      "lng": 120.4188889
    },
    {
      "cityName": "Chitaohotzu",
      "lat": 42.0366667,
      "lng": 125.0244444
    },
    {
      "cityName": "Chitungyü",
      "lat": 40.8122222,
      "lng": 123.1480556
    },
    {
      "cityName": "Chiufuhsien",
      "lat": 39.7333333,
      "lng": 121.7333333
    },
    {
      "cityName": "Chiufushun",
      "lat": 41.8558333,
      "lng": 123.9233333
    },
    {
      "cityName": "Chiuhuaijen",
      "lat": 41.2647222,
      "lng": 125.3666667
    },
    {
      "cityName": "Chiumen",
      "lat": 41.7061111,
      "lng": 125.2177778
    },
    {
      "cityName": "Chiumiao",
      "lat": 42.3827778,
      "lng": 121.6186111
    },
    {
      "cityName": "Chiumuchuang",
      "lat": 40.6166667,
      "lng": 123.9666667
    },
    {
      "cityName": "Chiupingtai",
      "lat": 41.6391667,
      "lng": 124.1186111
    },
    {
      "cityName": "Chiutaokou",
      "lat": 42.1088889,
      "lng": 125.3927778
    },
    {
      "cityName": "Chouchiatun",
      "lat": 38.95,
      "lng": 121.5833333
    },
    {
      "cityName": "Chougoumen",
      "lat": 41.6222222,
      "lng": 119.6761111
    },
    {
      "cityName": "Choulitou",
      "lat": 41.185,
      "lng": 124.9991667
    },
    {
      "cityName": "Chuanghochen",
      "lat": 39.7008333,
      "lng": 122.9911111
    },
    {
      "cityName": "Chuanhsinhu",
      "lat": 41.9886111,
      "lng": 125.0013889
    },
    {
      "cityName": "Chuanli",
      "lat": 41.4294444,
      "lng": 124.9552778
    },
    {
      "cityName": "Chüanshihyeh",
      "lat": 41.0566667,
      "lng": 125.0322222
    },
    {
      "cityName": "Chüantou",
      "lat": 42.8666667,
      "lng": 124.15
    },
    {
      "cityName": "Chuantoucun",
      "lat": 41.2527778,
      "lng": 124.9163889
    },
    {
      "cityName": "Chuantzukou",
      "lat": 42.1083333,
      "lng": 125.0758333
    },
    {
      "cityName": "Chuanwayao",
      "lat": 42.5405556,
      "lng": 124.1508333
    },
    {
      "cityName": "Chüchiatien",
      "lat": 43.2333333,
      "lng": 123.9
    },
    {
      "cityName": "Chuchiatun",
      "lat": 41.6691667,
      "lng": 123.6908333
    },
    {
      "cityName": "Chüliuho",
      "lat": 42.05,
      "lng": 122.9166667
    },
    {
      "cityName": "Chuluko",
      "lat": 41.6166667,
      "lng": 119.8666667
    },
    {
      "cityName": "Chümatsaikou",
      "lat": 41.5683333,
      "lng": 125.3516667
    },
    {
      "cityName": "Chunganpu",
      "lat": 41.6011111,
      "lng": 121.9805556
    },
    {
      "cityName": "Chungchiangtao",
      "lat": 41.7333333,
      "lng": 125.2866667
    },
    {
      "cityName": "Chungchienso",
      "lat": 40.0997222,
      "lng": 119.9541667
    },
    {
      "cityName": "Chunghouso",
      "lat": 40.35,
      "lng": 120.35
    },
    {
      "cityName": "Chunghsingtun",
      "lat": 39.9547222,
      "lng": 124.22
    },
    {
      "cityName": "Chunghsintun",
      "lat": 42.2436111,
      "lng": 124.8866667
    },
    {
      "cityName": "Chungkangkou",
      "lat": 40.8802778,
      "lng": 125.6677778
    },
    {
      "cityName": "Chungyangmuhsia",
      "lat": 41.4902778,
      "lng": 125.3886111
    },
    {
      "cityName": "Chüpaotun",
      "lat": 39.9533333,
      "lng": 124.2391667
    },
    {
      "cityName": "Ciensi",
      "lat": 42.55,
      "lng": 123.3333333
    },
    {
      "cityName": "Cilucun",
      "lat": 43.0069444,
      "lng": 124.14
    },
    {
      "cityName": "Cipaozi",
      "lat": 39.7691667,
      "lng": 122.2925
    },
    {
      "cityName": "Ciyutuo",
      "lat": 41.5030556,
      "lng": 122.8875
    },
    {
      "cityName": "Congjiabaozi",
      "lat": 40.1205556,
      "lng": 122.4252778
    },
    {
      "cityName": "Congjiatun",
      "lat": 39.0116667,
      "lng": 121.8411111
    },
    {
      "cityName": "Congxiangfang",
      "lat": 41.2641667,
      "lng": 120.1777778
    },
    {
      "cityName": "Congyuanhao",
      "lat": 41.4508333,
      "lng": 119.8313889
    },
    {
      "cityName": "Cuijiadian",
      "lat": 39.9961111,
      "lng": 122.7630556
    },
    {
      "cityName": "Cuijiafang",
      "lat": 40.9619444,
      "lng": 124.0677778
    },
    {
      "cityName": "Cuiyan",
      "lat": 41.2058333,
      "lng": 120.9513889
    },
    {
      "cityName": "Cuizhenpu",
      "lat": 42.1833333,
      "lng": 123.9333333
    },
    {
      "cityName": "Daaizikou",
      "lat": 38.9272222,
      "lng": 121.1152778
    },
    {
      "cityName": "Daba",
      "lat": 42.0975,
      "lng": 121.9955556
    },
    {
      "cityName": "Dabailou",
      "lat": 40.9061111,
      "lng": 121.4422222
    },
    {
      "cityName": "Dabali",
      "lat": 41.8358333,
      "lng": 120.6241667
    },
    {
      "cityName": "Daban",
      "lat": 41.9275,
      "lng": 121.8722222
    },
    {
      "cityName": "Dabeicha",
      "lat": 42.0261111,
      "lng": 125.3294444
    },
    {
      "cityName": "Dabiangou",
      "lat": 42.0225,
      "lng": 125.0658333
    },
    {
      "cityName": "Dabodi",
      "lat": 40.1155556,
      "lng": 123.27
    },
    {
      "cityName": "Dacaolingdixia",
      "lat": 40.7891667,
      "lng": 124.0136111
    },
    {
      "cityName": "Dachangzi",
      "lat": 40.9805556,
      "lng": 119.1752778
    },
    {
      "cityName": "Dachehugou",
      "lat": 41.0625,
      "lng": 120.3075
    },
    {
      "cityName": "Dachengzi",
      "lat": 41.1233333,
      "lng": 119.7416667
    },
    {
      "cityName": "Dachuan",
      "lat": 41.4155556,
      "lng": 125.2705556
    },
    {
      "cityName": "Dachuantou",
      "lat": 40.8266667,
      "lng": 124.7919444
    },
    {
      "cityName": "Dacui",
      "lat": 39.5266667,
      "lng": 122.6008333
    },
    {
      "cityName": "Dacuijiatun",
      "lat": 39.3988889,
      "lng": 122.0991667
    },
    {
      "cityName": "Dade",
      "lat": 42.5666667,
      "lng": 122.6
    },
    {
      "cityName": "Dadianzi",
      "lat": 40.2344444,
      "lng": 119.8111111
    },
    {
      "cityName": "Dadi",
      "lat": 39.04,
      "lng": 121.8916667
    },
    {
      "cityName": "Dadingbaomanzuxiang",
      "lat": 41.395,
      "lng": 121.1280556
    },
    {
      "cityName": "Dadonggou",
      "lat": 41.0377778,
      "lng": 124.4316667
    },
    {
      "cityName": "Dafangshen",
      "lat": 40.5086111,
      "lng": 123.3227778
    },
    {
      "cityName": "Dafangzi",
      "lat": 41.6761111,
      "lng": 124.515
    },
    {
      "cityName": "Dafanhe",
      "lat": 42.2166667,
      "lng": 123.7166667
    },
    {
      "cityName": "Dafoyeling",
      "lat": 40.1,
      "lng": 124.2113889
    },
    {
      "cityName": "Dage",
      "lat": 41.5991667,
      "lng": 121.7208333
    },
    {
      "cityName": "Dagou",
      "lat": 41.4808333,
      "lng": 123.4372222
    },
    {
      "cityName": "Dagoukou",
      "lat": 39.7586111,
      "lng": 121.5563889
    },
    {
      "cityName": "Dagouli",
      "lat": 41.3522222,
      "lng": 120.2213889
    },
    {
      "cityName": "Daguantun",
      "lat": 41.85,
      "lng": 123.8833333
    },
    {
      "cityName": "Daguben",
      "lat": 42.2666667,
      "lng": 122.2
    },
    {
      "cityName": "Dagujia",
      "lat": 42.3769444,
      "lng": 124.8419444
    },
    {
      "cityName": "Dagujiazi",
      "lat": 42.3130556,
      "lng": 123.3752778
    },
    {
      "cityName": "Daguling",
      "lat": 40.3236111,
      "lng": 124.615
    },
    {
      "cityName": "Dagushan",
      "lat": 39.0355556,
      "lng": 121.7891667
    },
    {
      "cityName": "Dahaishe",
      "lat": 39.8527778,
      "lng": 121.5583333
    },
    {
      "cityName": "Dahantai",
      "lat": 41.5766667,
      "lng": 123.1347222
    },
    {
      "cityName": "Daheishi",
      "lat": 38.9572222,
      "lng": 121.3
    },
    {
      "cityName": "Dahejiabaozi",
      "lat": 40.4525,
      "lng": 123.3441667
    },
    {
      "cityName": "Dahemu",
      "lat": 41.7280556,
      "lng": 124.6741667
    },
    {
      "cityName": "Dahetaofang",
      "lat": 39.8927778,
      "lng": 123.2283333
    },
    {
      "cityName": "Daheyan",
      "lat": 39.7108333,
      "lng": 121.8441667
    },
    {
      "cityName": "Dahongqi",
      "lat": 41.8833333,
      "lng": 122.5833333
    },
    {
      "cityName": "Dahouhaitun",
      "lat": 39.27,
      "lng": 121.6322222
    },
    {
      "cityName": "Dahuajian",
      "lat": 39.9533333,
      "lng": 124.2347222
    },
    {
      "cityName": "Dahuangqi",
      "lat": 39.9908333,
      "lng": 123.7072222
    },
    {
      "cityName": "Dahuashu",
      "lat": 40.3316667,
      "lng": 124.4511111
    },
    {
      "cityName": "Dahucun",
      "lat": 41.0230556,
      "lng": 125.1258333
    },
    {
      "cityName": "Dahujiabaozi",
      "lat": 41.2177778,
      "lng": 124.4086111
    },
    {
      "cityName": "Dahuofang",
      "lat": 41.9,
      "lng": 124.0833333
    },
    {
      "cityName": "Dahutun",
      "lat": 39.5636111,
      "lng": 122.0513889
    },
    {
      "cityName": "Daifuyingzi",
      "lat": 41.4466667,
      "lng": 120.7230556
    },
    {
      "cityName": "Dailongjiang",
      "lat": 41.2366667,
      "lng": 124.9166667
    },
    {
      "cityName": "Dairen",
      "lat": 38.9122222,
      "lng": 121.6022222
    },
    {
      "cityName": "Dajiangtun",
      "lat": 39.6575,
      "lng": 122.4647222
    },
    {
      "cityName": "Dajinsitun",
      "lat": 40.0369444,
      "lng": 119.8597222
    },
    {
      "cityName": "Dakanchuangou",
      "lat": 40.7641667,
      "lng": 125.025
    },
    {
      "cityName": "Dakanzi",
      "lat": 41.5583333,
      "lng": 124.1830556
    },
    {
      "cityName": "Dakuaidi",
      "lat": 40.3411111,
      "lng": 122.7227778
    },
    {
      "cityName": "Dalaha",
      "lat": 42.1177778,
      "lng": 119.5161111
    },
    {
      "cityName": "Dalaihe",
      "lat": 41.8505556,
      "lng": 124.7466667
    },
    {
      "cityName": "Dalama",
      "lat": 41.9525,
      "lng": 123.0197222
    },
    {
      "cityName": "Dalaoyemiao",
      "lat": 41.0711111,
      "lng": 119.5213889
    },
    {
      "cityName": "Dalashufang",
      "lat": 39.0613889,
      "lng": 121.6147222
    },
    {
      "cityName": "Daleng",
      "lat": 42.5666667,
      "lng": 122.3333333
    },
    {
      "cityName": "Dalianjiatao",
      "lat": 39.3866667,
      "lng": 121.8208333
    },
    {
      "cityName": "Dalianwan",
      "lat": 39.0086111,
      "lng": 121.7158333
    },
    {
      "cityName": "Dalijia",
      "lat": 39.1777778,
      "lng": 122.0477778
    },
    {
      "cityName": "Daling",
      "lat": 41.0369444,
      "lng": 121.1816667
    },
    {
      "cityName": "Dalishu",
      "lat": 40.4291667,
      "lng": 123.9638889
    },
    {
      "cityName": "Daliu",
      "lat": 41.9261111,
      "lng": 124.0119444
    },
    {
      "cityName": "Daliuhegou",
      "lat": 41.7227778,
      "lng": 121.2708333
    },
    {
      "cityName": "Daliujia",
      "lat": 39.3502778,
      "lng": 122.1852778
    },
    {
      "cityName": "Daliujiatun",
      "lat": 39.9761111,
      "lng": 122.8569444
    },
    {
      "cityName": "Daliutun",
      "lat": 42.1833333,
      "lng": 122.7833333
    },
    {
      "cityName": "Daloufang",
      "lat": 40.0061111,
      "lng": 124.0380556
    },
    {
      "cityName": "Dalutun",
      "lat": 39.5025,
      "lng": 122.4861111
    },
    {
      "cityName": "Damachang",
      "lat": 39.7872222,
      "lng": 121.785
    },
    {
      "cityName": "Damatun",
      "lat": 41.0625,
      "lng": 121.6
    },
    {
      "cityName": "Damiao",
      "lat": 41.6858333,
      "lng": 120.2625
    },
    {
      "cityName": "Damiaogou",
      "lat": 40.3716667,
      "lng": 122.7638889
    },
    {
      "cityName": "Damingzhen",
      "lat": 42.5333333,
      "lng": 123.65
    },
    {
      "cityName": "Damintun",
      "lat": 41.8494444,
      "lng": 122.9461111
    },
    {
      "cityName": "Damojiabaozi",
      "lat": 40.3063889,
      "lng": 123.9541667
    },
    {
      "cityName": "Damotun",
      "lat": 40.9408333,
      "lng": 122.6875
    },
    {
      "cityName": "Danahou",
      "lat": 41.4422222,
      "lng": 124.6361111
    },
    {
      "cityName": "Danantou",
      "lat": 39.1641667,
      "lng": 122.3369444
    },
    {
      "cityName": "Danian",
      "lat": 41.2913889,
      "lng": 120.8025
    },
    {
      "cityName": "Danianzigou",
      "lat": 41.1761111,
      "lng": 119.725
    },
    {
      "cityName": "Daningzhangzi",
      "lat": 41.7211111,
      "lng": 120.2097222
    },
    {
      "cityName": "Daniu",
      "lat": 41.4,
      "lng": 122.6
    },
    {
      "cityName": "Daniugou",
      "lat": 40.9805556,
      "lng": 125.3597222
    },
    {
      "cityName": "Daoerdengmengguzuxiang",
      "lat": 40.7577778,
      "lng": 119.115
    },
    {
      "cityName": "Daojianling",
      "lat": 41.1394444,
      "lng": 125.6911111
    },
    {
      "cityName": "Daolantaohai",
      "lat": 42.7666667,
      "lng": 123.3333333
    },
    {
      "cityName": "Daoyi",
      "lat": 41.9225,
      "lng": 123.3986111
    },
    {
      "cityName": "Dapan",
      "lat": 41.6763889,
      "lng": 123.1313889
    },
    {
      "cityName": "Dapengou",
      "lat": 41.1844444,
      "lng": 124.1363889
    },
    {
      "cityName": "Dapingfang",
      "lat": 41.4238889,
      "lng": 120.1752778
    },
    {
      "cityName": "Dapotun",
      "lat": 40.9477778,
      "lng": 119.1286111
    },
    {
      "cityName": "Dapu",
      "lat": 40.5427778,
      "lng": 124.2522222
    },
    {
      "cityName": "Daqigou",
      "lat": 41.3522222,
      "lng": 121.0591667
    },
    {
      "cityName": "Daqing",
      "lat": 41.7238889,
      "lng": 123.2016667
    },
    {
      "cityName": "Daqinggou",
      "lat": 41.1630556,
      "lng": 125.1319444
    },
    {
      "cityName": "Daqiupigoucun",
      "lat": 41.0263889,
      "lng": 125.3152778
    },
    {
      "cityName": "Dasanjia",
      "lat": 41.7933333,
      "lng": 120.6313889
    },
    {
      "cityName": "Dashaling",
      "lat": 39.7833333,
      "lng": 123.2502778
    },
    {
      "cityName": "Dashanzui",
      "lat": 40.2602778,
      "lng": 123.3791667
    },
    {
      "cityName": "Dashibaozi",
      "lat": 41.7680556,
      "lng": 121.7733333
    },
    {
      "cityName": "Dashijianfang",
      "lat": 39.9336111,
      "lng": 123.4575
    },
    {
      "cityName": "Dashiqiao",
      "lat": 40.6341667,
      "lng": 122.5080556
    },
    {
      "cityName": "Dashishizi",
      "lat": 41.9166667,
      "lng": 122.6666667
    },
    {
      "cityName": "Dashuiquan",
      "lat": 41.8361111,
      "lng": 121.6686111
    },
    {
      "cityName": "Dasijiazi",
      "lat": 41.1763889,
      "lng": 120.3361111
    },
    {
      "cityName": "Dasiping",
      "lat": 41.315,
      "lng": 124.7211111
    },
    {
      "cityName": "Dasuhe",
      "lat": 41.9116667,
      "lng": 124.9511111
    },
    {
      "cityName": "Dataizi",
      "lat": 41.2797222,
      "lng": 121.7688889
    },
    {
      "cityName": "Datan",
      "lat": 39.0847222,
      "lng": 123.1961111
    },
    {
      "cityName": "Datang",
      "lat": 41.6097222,
      "lng": 119.5397222
    },
    {
      "cityName": "Datengtun",
      "lat": 39.4616667,
      "lng": 122.3413889
    },
    {
      "cityName": "Datian",
      "lat": 39.5319444,
      "lng": 122.0136111
    },
    {
      "cityName": "Datongbang",
      "lat": 41.2172222,
      "lng": 124.7833333
    },
    {
      "cityName": "Datuchengzi",
      "lat": 39.7336111,
      "lng": 122.455
    },
    {
      "cityName": "Datun",
      "lat": 40.6211111,
      "lng": 119.9766667
    },
    {
      "cityName": "Dawa",
      "lat": 40.7958333,
      "lng": 124.2680556
    },
    {
      "cityName": "Dawanghaizhai",
      "lat": 40.34,
      "lng": 122.1891667
    },
    {
      "cityName": "Dawangjiatun",
      "lat": 39.715,
      "lng": 122.4044444
    },
    {
      "cityName": "Dawangsangou",
      "lat": 41.6994444,
      "lng": 121.5933333
    },
    {
      "cityName": "Dawangtun",
      "lat": 39.8594444,
      "lng": 123.0175
    },
    {
      "cityName": "Dawangzhangzi",
      "lat": 41.1338889,
      "lng": 119.2625
    },
    {
      "cityName": "Daweijia",
      "lat": 39.1983333,
      "lng": 121.695
    },
    {
      "cityName": "Daweituncun",
      "lat": 40.4361111,
      "lng": 123.0719444
    },
    {
      "cityName": "Daweizigou",
      "lat": 40.2533333,
      "lng": 124.4752778
    },
    {
      "cityName": "Dawenzhangzi",
      "lat": 41.0783333,
      "lng": 120.23
    },
    {
      "cityName": "Dawobao",
      "lat": 41.9091667,
      "lng": 125.0766667
    },
    {
      "cityName": "Dawopeng",
      "lat": 42.2638889,
      "lng": 125.2175
    },
    {
      "cityName": "Dawopu",
      "lat": 41.8327778,
      "lng": 119.5330556
    },
    {
      "cityName": "Dawujiazi",
      "lat": 42.1938889,
      "lng": 121.3319444
    },
    {
      "cityName": "Dawulan",
      "lat": 41.92,
      "lng": 121.1219444
    },
    {
      "cityName": "Daxicha",
      "lat": 40.7086111,
      "lng": 125.1891667
    },
    {
      "cityName": "Daxingchaoxianzuxiang",
      "lat": 41.8483333,
      "lng": 123.2713889
    },
    {
      "cityName": "Daxinglonggou",
      "lat": 41.5872222,
      "lng": 120.2497222
    },
    {
      "cityName": "Daxingpu",
      "lat": 40.9666667,
      "lng": 120.9333333
    },
    {
      "cityName": "Daxishan",
      "lat": 39.9452778,
      "lng": 121.7966667
    },
    {
      "cityName": "Daxiying",
      "lat": 42.1158333,
      "lng": 119.6586111
    },
    {
      "cityName": "Daxue",
      "lat": 41.1738889,
      "lng": 121.195
    },
    {
      "cityName": "Dayanbianfudong",
      "lat": 40.5986111,
      "lng": 124.9702778
    },
    {
      "cityName": "Dayandao",
      "lat": 38.9833333,
      "lng": 121.6333333
    },
    {
      "cityName": "Dayang",
      "lat": 41.2216667,
      "lng": 123.8552778
    },
    {
      "cityName": "Daye",
      "lat": 41.2238889,
      "lng": 121.3008333
    },
    {
      "cityName": "Daying",
      "lat": 39.8747222,
      "lng": 123.0827778
    },
    {
      "cityName": "Dayingshoutun",
      "lat": 41.5222222,
      "lng": 123.5266667
    },
    {
      "cityName": "Dayou",
      "lat": 40.9708333,
      "lng": 121.4969444
    },
    {
      "cityName": "Dayugou",
      "lat": 40.8858333,
      "lng": 121.5725
    },
    {
      "cityName": "Dayushupu",
      "lat": 41.5175,
      "lng": 121.4625
    },
    {
      "cityName": "Dazhengjiatun",
      "lat": 39.6166667,
      "lng": 122.5166667
    },
    {
      "cityName": "Dazhengzhen",
      "lat": 39.6352778,
      "lng": 122.8041667
    },
    {
      "cityName": "Dazigong",
      "lat": 41.165,
      "lng": 121.5538889
    },
    {
      "cityName": "Daziying",
      "lat": 39.9461111,
      "lng": 123.5636111
    },
    {
      "cityName": "Dazuizi",
      "lat": 39.7413889,
      "lng": 121.4788889
    },
    {
      "cityName": "Delisi",
      "lat": 39.7669444,
      "lng": 122.0377778
    },
    {
      "cityName": "Dengshahe",
      "lat": 39.2238889,
      "lng": 122.0597222
    },
    {
      "cityName": "Dengta",
      "lat": 41.425,
      "lng": 123.3308333
    },
    {
      "cityName": "Dengtun",
      "lat": 39.4666667,
      "lng": 121.8333333
    },
    {
      "cityName": "Deshengtai",
      "lat": 42.2333333,
      "lng": 123.7333333
    },
    {
      "cityName": "Dexing",
      "lat": 42.8833333,
      "lng": 124.6666667
    },
    {
      "cityName": "Dianchang",
      "lat": 40.9583333,
      "lng": 125.3116667
    },
    {
      "cityName": "Diaobingshan",
      "lat": 42.4666667,
      "lng": 123.55
    },
    {
      "cityName": "Diaopitun",
      "lat": 42.5105556,
      "lng": 124.4416667
    },
    {
      "cityName": "Diaoyu",
      "lat": 42.8333333,
      "lng": 124.6333333
    },
    {
      "cityName": "Diaoyutai",
      "lat": 39.3380556,
      "lng": 121.8097222
    },
    {
      "cityName": "Dingguanzhai",
      "lat": 39.0333333,
      "lng": 121.6833333
    },
    {
      "cityName": "Dingjiafang",
      "lat": 42.3333333,
      "lng": 123.1666667
    },
    {
      "cityName": "Dingtun",
      "lat": 39.7908333,
      "lng": 121.6575
    },
    {
      "cityName": "Dixiongshan",
      "lat": 40.7933333,
      "lng": 124.085
    },
    {
      "cityName": "Dizangsimanzuxiang",
      "lat": 41.4172222,
      "lng": 120.9530556
    },
    {
      "cityName": "Donganmin",
      "lat": 39.9908333,
      "lng": 124.3272222
    },
    {
      "cityName": "Dongantun",
      "lat": 39.9722222,
      "lng": 124.2116667
    },
    {
      "cityName": "Dongchangyu",
      "lat": 40.7494444,
      "lng": 123.3352778
    },
    {
      "cityName": "Dongchilichi",
      "lat": 41.2111111,
      "lng": 119.8533333
    },
    {
      "cityName": "Dongdadao",
      "lat": 41.4344444,
      "lng": 120.0447222
    },
    {
      "cityName": "Dongdajingzi",
      "lat": 40.7908333,
      "lng": 122.0161111
    },
    {
      "cityName": "Dongdalinggou",
      "lat": 40.6991667,
      "lng": 123.0852778
    },
    {
      "cityName": "Dongdatun",
      "lat": 41.24,
      "lng": 120.6422222
    },
    {
      "cityName": "Dongfangshen",
      "lat": 39.5655556,
      "lng": 122.7591667
    },
    {
      "cityName": "Dongfeng",
      "lat": 40.97,
      "lng": 122.2736111
    },
    {
      "cityName": "Donggou",
      "lat": 39.4075,
      "lng": 121.3908333
    },
    {
      "cityName": "Dongguachuan",
      "lat": 39.8972222,
      "lng": 122.8986111
    },
    {
      "cityName": "Dongguanying",
      "lat": 41.9166667,
      "lng": 120.6333333
    },
    {
      "cityName": "Dongguo",
      "lat": 41.1747222,
      "lng": 121.6797222
    },
    {
      "cityName": "Donghua",
      "lat": 41.1466667,
      "lng": 121.4736111
    },
    {
      "cityName": "Donghuangnigang",
      "lat": 41.1136111,
      "lng": 123.5780556
    },
    {
      "cityName": "Donghuangtuliangzi",
      "lat": 41.3694444,
      "lng": 120.4691667
    },
    {
      "cityName": "Donghudian",
      "lat": 41.2416667,
      "lng": 120.3597222
    },
    {
      "cityName": "Dongjiadian",
      "lat": 41.1563889,
      "lng": 120.0883333
    },
    {
      "cityName": "Dongjia",
      "lat": 38.8577778,
      "lng": 121.1033333
    },
    {
      "cityName": "Dongjiagou",
      "lat": 39.08,
      "lng": 121.895
    },
    {
      "cityName": "Dongjiangdao",
      "lat": 41.7058333,
      "lng": 125.32
    },
    {
      "cityName": "Dongjianshan",
      "lat": 39.98,
      "lng": 123.9883333
    },
    {
      "cityName": "Dongjing",
      "lat": 41.9658333,
      "lng": 119.4027778
    },
    {
      "cityName": "Dongjingling",
      "lat": 41.2891667,
      "lng": 123.2558333
    },
    {
      "cityName": "Donglaotaichaoxianzuxiang",
      "lat": 41.3005556,
      "lng": 125.3361111
    },
    {
      "cityName": "Dongliang",
      "lat": 39.305,
      "lng": 122.2747222
    },
    {
      "cityName": "Dongling",
      "lat": 41.8144444,
      "lng": 123.5758333
    },
    {
      "cityName": "Dongliujiazi",
      "lat": 42.3333333,
      "lng": 122.75
    },
    {
      "cityName": "Dongloufang",
      "lat": 39.6608333,
      "lng": 121.93
    },
    {
      "cityName": "Dongmandayingzi",
      "lat": 41.3061111,
      "lng": 120.0188889
    },
    {
      "cityName": "Dongsancha",
      "lat": 41.0130556,
      "lng": 121.6477778
    },
    {
      "cityName": "Dongsandao",
      "lat": 40.7763889,
      "lng": 122.8383333
    },
    {
      "cityName": "Dongshan",
      "lat": 39.0616667,
      "lng": 122.8872222
    },
    {
      "cityName": "Dongshangen",
      "lat": 40.3833333,
      "lng": 119.7666667
    },
    {
      "cityName": "Dongshao",
      "lat": 41.1327778,
      "lng": 119.8402778
    },
    {
      "cityName": "Dongsheng",
      "lat": 40.4808333,
      "lng": 123.2513889
    },
    {
      "cityName": "Dongshihuiyaozi",
      "lat": 40.8213889,
      "lng": 119.5188889
    },
    {
      "cityName": "Dongsi",
      "lat": 40.8991667,
      "lng": 122.62
    },
    {
      "cityName": "Dongsongjiagou",
      "lat": 39.5811111,
      "lng": 121.7294444
    },
    {
      "cityName": "Dongtaipingshan",
      "lat": 40.5805556,
      "lng": 122.3769444
    },
    {
      "cityName": "Dongtaizi",
      "lat": 40.8386111,
      "lng": 118.9122222
    },
    {
      "cityName": "Dongtang",
      "lat": 40.4127778,
      "lng": 124.3041667
    },
    {
      "cityName": "Dongtangtou",
      "lat": 41.9841667,
      "lng": 121.3302778
    },
    {
      "cityName": "Dongwafang",
      "lat": 41.9408333,
      "lng": 121.6802778
    },
    {
      "cityName": "Dongwanglantun",
      "lat": 39.7269444,
      "lng": 122.9236111
    },
    {
      "cityName": "Dongwudaoqiaozi",
      "lat": 41.8808333,
      "lng": 121.6341667
    },
    {
      "cityName": "Dongwujiazi",
      "lat": 41.7691667,
      "lng": 120.2961111
    },
    {
      "cityName": "Dongwulanbai",
      "lat": 41.1425,
      "lng": 119.5244444
    },
    {
      "cityName": "Dongwutun",
      "lat": 39.5066667,
      "lng": 122.0041667
    },
    {
      "cityName": "Dongxinzhuang",
      "lat": 40.3666667,
      "lng": 120.45
    },
    {
      "cityName": "Dongyingfang",
      "lat": 41.2161111,
      "lng": 124.5322222
    },
    {
      "cityName": "Dongyingzi",
      "lat": 40.8833333,
      "lng": 119.0833333
    },
    {
      "cityName": "Dongyinjiatuozi",
      "lat": 39.8669444,
      "lng": 123.7486111
    },
    {
      "cityName": "Dongzhangzi",
      "lat": 41.0336111,
      "lng": 119.2566667
    },
    {
      "cityName": "Dongzhou",
      "lat": 41.8555556,
      "lng": 124.0463889
    },
    {
      "cityName": "Dongzhouzhangzi",
      "lat": 40.5816667,
      "lng": 119.2811111
    },
    {
      "cityName": "Dongzigou",
      "lat": 40.8627778,
      "lng": 119.9852778
    },
    {
      "cityName": "Douhutun",
      "lat": 42.0808333,
      "lng": 124.8388889
    },
    {
      "cityName": "Duanjiayuan",
      "lat": 41.5080556,
      "lng": 121.1369444
    },
    {
      "cityName": "Duducun",
      "lat": 41.5558333,
      "lng": 124.8802778
    },
    {
      "cityName": "Duzhen",
      "lat": 41.5502778,
      "lng": 119.3816667
    },
    {
      "cityName": "Eiko",
      "lat": 40.6680556,
      "lng": 122.2247222
    },
    {
      "cityName": "Ejiabaozi",
      "lat": 40.7341667,
      "lng": 124.2358333
    },
    {
      "cityName": "Erdao",
      "lat": 41.8166667,
      "lng": 122.3166667
    },
    {
      "cityName": "Erdaogou",
      "lat": 40.6797222,
      "lng": 124.2297222
    },
    {
      "cityName": "Erdaohe",
      "lat": 42.0319444,
      "lng": 125.2013889
    },
    {
      "cityName": "Erdaohezi",
      "lat": 40.5211111,
      "lng": 124.3491667
    },
    {
      "cityName": "Erdaoling",
      "lat": 40.3052778,
      "lng": 123.4941667
    },
    {
      "cityName": "Erdaomen",
      "lat": 41.2666667,
      "lng": 119.9197222
    },
    {
      "cityName": "Erdaowanzi",
      "lat": 40.8666667,
      "lng": 120.0833333
    },
    {
      "cityName": "Erdaoyangcha",
      "lat": 41.0844444,
      "lng": 125.5352778
    },
    {
      "cityName": "Erdaoyingzi",
      "lat": 40.8691667,
      "lng": 119.6513889
    },
    {
      "cityName": "Erhhulai",
      "lat": 41.3772222,
      "lng": 125.1172222
    },
    {
      "cityName": "Erhniusokou",
      "lat": 42.7619444,
      "lng": 123.1538889
    },
    {
      "cityName": "Erhpengtientzu",
      "lat": 41.1905556,
      "lng": 125.5155556
    },
    {
      "cityName": "Erhshihchiatzu",
      "lat": 41.2722222,
      "lng": 120.5397222
    },
    {
      "cityName": "Erhshihlipao",
      "lat": 39.2,
      "lng": 121.7666667
    },
    {
      "cityName": "Erhtaokou",
      "lat": 40.0438889,
      "lng": 124.3188889
    },
    {
      "cityName": "Erhtaoyangcha",
      "lat": 40.8897222,
      "lng": 125.4541667
    },
    {
      "cityName": "Erhwakou",
      "lat": 42.2027778,
      "lng": 125.2513889
    },
    {
      "cityName": "Erhwangtzukou",
      "lat": 42.0286111,
      "lng": 125.2711111
    },
    {
      "cityName": "Erjiegou",
      "lat": 40.8,
      "lng": 121.9666667
    },
    {
      "cityName": "Erlongdu",
      "lat": 40.9102778,
      "lng": 125.2261111
    },
    {
      "cityName": "Ertai",
      "lat": 40.1105556,
      "lng": 122.0641667
    },
    {
      "cityName": "Fahaniu",
      "lat": 41.7833333,
      "lng": 123.05
    },
    {
      "cityName": "Fakuchen",
      "lat": 42.5011111,
      "lng": 123.4141667
    },
    {
      "cityName": "Fangchiatun",
      "lat": 42.6205556,
      "lng": 123.2205556
    },
    {
      "cityName": "Fangjiacun",
      "lat": 38.8091667,
      "lng": 121.1588889
    },
    {
      "cityName": "Fangmutun",
      "lat": 42.5833333,
      "lng": 124.6166667
    },
    {
      "cityName": "Fangshanzhen",
      "lat": 41.9166667,
      "lng": 122.05
    },
    {
      "cityName": "Fangshen",
      "lat": 40.1927778,
      "lng": 122.9669444
    },
    {
      "cityName": "Fangshengou",
      "lat": 40.2311111,
      "lng": 122.6627778
    },
    {
      "cityName": "Fangshentun",
      "lat": 39.2333333,
      "lng": 122.7
    },
    {
      "cityName": "Fangyi",
      "lat": 39.8313889,
      "lng": 122.6169444
    },
    {
      "cityName": "Fanjia",
      "lat": 40.315,
      "lng": 120.0011111
    },
    {
      "cityName": "Fanjiashancun",
      "lat": 40.0166667,
      "lng": 123.9666667
    },
    {
      "cityName": "Fanmayu",
      "lat": 40.7705556,
      "lng": 122.8841667
    },
    {
      "cityName": "Fantuo",
      "lat": 41.0758333,
      "lng": 121.4394444
    },
    {
      "cityName": "Fenchengqiang",
      "lat": 40.7583333,
      "lng": 123.1933333
    },
    {
      "cityName": "Fengbeipu",
      "lat": 42.3166667,
      "lng": 123.4
    },
    {
      "cityName": "Fengchengchen",
      "lat": 40.4536111,
      "lng": 124.0716667
    },
    {
      "cityName": "Fengchia",
      "lat": 42.5833333,
      "lng": 122.5
    },
    {
      "cityName": "Fengchiaputzu",
      "lat": 41.3358333,
      "lng": 125.0669444
    },
    {
      "cityName": "Fengjiajie",
      "lat": 41.8241667,
      "lng": 125.2486111
    },
    {
      "cityName": "Fengmilazi",
      "lat": 41.2372222,
      "lng": 124.24
    },
    {
      "cityName": "Fengtaoshukou",
      "lat": 42.0113889,
      "lng": 125.0833333
    },
    {
      "cityName": "Fengtien",
      "lat": 41.7922222,
      "lng": 123.4327778
    },
    {
      "cityName": "Fengzhangzi",
      "lat": 41.1002778,
      "lng": 119.2308333
    },
    {
      "cityName": "Fenshui",
      "lat": 40.6833333,
      "lng": 122.5333333
    },
    {
      "cityName": "Fenshuitian",
      "lat": 41.6558333,
      "lng": 121.8258333
    },
    {
      "cityName": "Fomensi",
      "lat": 38.8133333,
      "lng": 121.4477778
    },
    {
      "cityName": "Fosi",
      "lat": 41.9322222,
      "lng": 121.4463889
    },
    {
      "cityName": "Fouhsinshih",
      "lat": 42.0155556,
      "lng": 121.6588889
    },
    {
      "cityName": "Foyedong",
      "lat": 40.7166667,
      "lng": 119.2333333
    },
    {
      "cityName": "Fuchengyu",
      "lat": 41.355,
      "lng": 124.2119444
    },
    {
      "cityName": "Fuchiatun",
      "lat": 43.3,
      "lng": 123.8333333
    },
    {
      "cityName": "Fuchouwan",
      "lat": 39.3666667,
      "lng": 121.6666667
    },
    {
      "cityName": "Fu",
      "lat": 39.6183333,
      "lng": 122.0080556
    },
    {
      "cityName": "Fuhsingti",
      "lat": 42.425,
      "lng": 121.385
    },
    {
      "cityName": "Fujuchang",
      "lat": 42.6166667,
      "lng": 122.6
    },
    {
      "cityName": "Fulaigou",
      "lat": 41.7644444,
      "lng": 124.6572222
    },
    {
      "cityName": "Funan",
      "lat": 41.7,
      "lng": 123.8833333
    },
    {
      "cityName": "Futun",
      "lat": 41.63,
      "lng": 121.7825
    },
    {
      "cityName": "Fuxingchang",
      "lat": 40.5872222,
      "lng": 123.6666667
    },
    {
      "cityName": "Fuyuan",
      "lat": 42.75,
      "lng": 124.9166667
    },
    {
      "cityName": "Gajihada",
      "lat": 42.18,
      "lng": 119.445
    },
    {
      "cityName": "Ganggang",
      "lat": 42.1002778,
      "lng": 119.7741667
    },
    {
      "cityName": "Ganghu",
      "lat": 41.7272222,
      "lng": 124.9086111
    },
    {
      "cityName": "Gangjiaogou",
      "lat": 41.2083333,
      "lng": 120.7780556
    },
    {
      "cityName": "Gangtun",
      "lat": 40.9166667,
      "lng": 120.6333333
    },
    {
      "cityName": "Gangyaoling",
      "lat": 41.0602778,
      "lng": 120.5477778
    },
    {
      "cityName": "Ganjiagou",
      "lat": 40.7666667,
      "lng": 120.15
    },
    {
      "cityName": "Ganjingzi",
      "lat": 38.9666667,
      "lng": 121.6333333
    },
    {
      "cityName": "Ganquan",
      "lat": 40.9666667,
      "lng": 122.8333333
    },
    {
      "cityName": "Ganwang",
      "lat": 40.8105556,
      "lng": 122.5513889
    },
    {
      "cityName": "Ganzhao",
      "lat": 41.25,
      "lng": 119.85
    },
    {
      "cityName": "Gaofeng",
      "lat": 41.3313889,
      "lng": 121.4697222
    },
    {
      "cityName": "Gaoguan",
      "lat": 41.4713889,
      "lng": 123.9102778
    },
    {
      "cityName": "Gaojiadian",
      "lat": 41.2611111,
      "lng": 123.9711111
    },
    {
      "cityName": "Gaojiagou",
      "lat": 39.6952778,
      "lng": 123.0436111
    },
    {
      "cityName": "Gaojialing",
      "lat": 40.5166667,
      "lng": 120.2666667
    },
    {
      "cityName": "Gaojiashan",
      "lat": 39.6283333,
      "lng": 122.66
    },
    {
      "cityName": "Gaojiaweizi",
      "lat": 40.5313889,
      "lng": 124.9497222
    },
    {
      "cityName": "Gaojiazhangzi",
      "lat": 41.4980556,
      "lng": 120.7769444
    },
    {
      "cityName": "Gaokan",
      "lat": 41.8530556,
      "lng": 123.7011111
    },
    {
      "cityName": "Gaoliban",
      "lat": 41.6458333,
      "lng": 121.9719444
    },
    {
      "cityName": "Gaolifang",
      "lat": 41.1666667,
      "lng": 122.4666667
    },
    {
      "cityName": "Gaoling",
      "lat": 40.1333333,
      "lng": 120
    },
    {
      "cityName": "Gaoqiaozhen",
      "lat": 40.9166667,
      "lng": 121
    },
    {
      "cityName": "Gaoshanzi",
      "lat": 41.55,
      "lng": 122.0666667
    },
    {
      "cityName": "Gaosheng",
      "lat": 41.3333333,
      "lng": 122.1833333
    },
    {
      "cityName": "Gaotaipu",
      "lat": 40.3666667,
      "lng": 120.2166667
    },
    {
      "cityName": "Gaotaishan",
      "lat": 42.0333333,
      "lng": 122.8666667
    },
    {
      "cityName": "Gaotaizi",
      "lat": 41.9322222,
      "lng": 123.145
    },
    {
      "cityName": "Gaotaizimanzuxibozuxiang",
      "lat": 41.6930556,
      "lng": 121.3747222
    },
    {
      "cityName": "Gaotun",
      "lat": 40.4333333,
      "lng": 122.6
    },
    {
      "cityName": "Gaoyang",
      "lat": 39.6197222,
      "lng": 122.7647222
    },
    {
      "cityName": "Gejiamanzuxiang",
      "lat": 40.475,
      "lng": 119.9438889
    },
    {
      "cityName": "Gejiatun",
      "lat": 39.8461111,
      "lng": 121.9566667
    },
    {
      "cityName": "Gendeyingzi",
      "lat": 41.1286111,
      "lng": 120.5602778
    },
    {
      "cityName": "Gengzhuang",
      "lat": 40.9855556,
      "lng": 122.6977778
    },
    {
      "cityName": "Genmiaotun",
      "lat": 41.8647222,
      "lng": 124.9825
    },
    {
      "cityName": "Gezhenbao",
      "lat": 38.9997222,
      "lng": 121.5283333
    },
    {
      "cityName": "Gezhenpu",
      "lat": 39,
      "lng": 121.5833333
    },
    {
      "cityName": "Gezidong",
      "lat": 40.7666667,
      "lng": 120.2166667
    },
    {
      "cityName": "Gongchangling",
      "lat": 41.1166667,
      "lng": 123.45
    },
    {
      "cityName": "Gongjiapu",
      "lat": 40.8966667,
      "lng": 124.4313889
    },
    {
      "cityName": "Gongshanzui",
      "lat": 40.75,
      "lng": 119.7666667
    },
    {
      "cityName": "Gongyingzi",
      "lat": 41.35,
      "lng": 119.8166667
    },
    {
      "cityName": "Gongzhutun",
      "lat": 42.1547222,
      "lng": 123.0163889
    },
    {
      "cityName": "Goubangzi",
      "lat": 41.3636111,
      "lng": 121.7783333
    },
    {
      "cityName": "Goumenzi",
      "lat": 41.5944444,
      "lng": 120.1719444
    },
    {
      "cityName": "Gounaidian",
      "lat": 42.1936111,
      "lng": 124.9036111
    },
    {
      "cityName": "Gouyan",
      "lat": 40.8188889,
      "lng": 122.2480556
    },
    {
      "cityName": "Guaimozichaoxianzu",
      "lat": 41.4880556,
      "lng": 125.4683333
    },
    {
      "cityName": "Guajiasi",
      "lat": 41.2452778,
      "lng": 120.9033333
    },
    {
      "cityName": "Guandahai",
      "lat": 41.1308333,
      "lng": 119.6247222
    },
    {
      "cityName": "Guanfang",
      "lat": 40.1766667,
      "lng": 123.7583333
    },
    {
      "cityName": "Guangdianjie",
      "lat": 40.2733333,
      "lng": 123.75
    },
    {
      "cityName": "Guanglaofang",
      "lat": 40.1013889,
      "lng": 124.0336111
    },
    {
      "cityName": "Guangmingshan",
      "lat": 39.7583333,
      "lng": 122.8027778
    },
    {
      "cityName": "Guangning",
      "lat": 41.5666667,
      "lng": 121.8011111
    },
    {
      "cityName": "Guangzhusi",
      "lat": 39.1877778,
      "lng": 121.8161111
    },
    {
      "cityName": "Guanjiabaozi",
      "lat": 41.2052778,
      "lng": 124.1841667
    },
    {
      "cityName": "Guanjia",
      "lat": 40.4683333,
      "lng": 124.1275
    },
    {
      "cityName": "Guanjialinchang",
      "lat": 41.6538889,
      "lng": 125.1375
    },
    {
      "cityName": "Guankou",
      "lat": 41.8283333,
      "lng": 124.0797222
    },
    {
      "cityName": "Guanliangjiao",
      "lat": 41.0269444,
      "lng": 120.2613889
    },
    {
      "cityName": "Guanli",
      "lat": 39.8191667,
      "lng": 123.1641667
    },
    {
      "cityName": "Guanlipu",
      "lat": 41.6,
      "lng": 123.3
    },
    {
      "cityName": "Guanmenshan",
      "lat": 41.325,
      "lng": 123.5891667
    },
    {
      "cityName": "Guanshan",
      "lat": 42.7666667,
      "lng": 124.2
    },
    {
      "cityName": "Guanshui",
      "lat": 40.8788889,
      "lng": 124.5744444
    },
    {
      "cityName": "Guantun",
      "lat": 40.6861111,
      "lng": 122.5605556
    },
    {
      "cityName": "Guazhongling",
      "lat": 40.8316667,
      "lng": 124.8930556
    },
    {
      "cityName": "Guchengpu",
      "lat": 42.6333333,
      "lng": 123.8666667
    },
    {
      "cityName": "Guchengzi",
      "lat": 40.9686111,
      "lng": 122.6391667
    },
    {
      "cityName": "Gudongshang",
      "lat": 40.8077778,
      "lng": 123.5194444
    },
    {
      "cityName": "Guiyunhua",
      "lat": 39.9166667,
      "lng": 122.5333333
    },
    {
      "cityName": "Guizhou",
      "lat": 40.1,
      "lng": 121.9833333
    },
    {
      "cityName": "Gujiabaozi",
      "lat": 40.3461111,
      "lng": 124.2586111
    },
    {
      "cityName": "Gujiadian",
      "lat": 40.6833333,
      "lng": 123.2669444
    },
    {
      "cityName": "Gujiatun",
      "lat": 39.2297222,
      "lng": 122.5408333
    },
    {
      "cityName": "Gujiazi",
      "lat": 41.6241667,
      "lng": 120.7888889
    },
    {
      "cityName": "Gulouzi",
      "lat": 40.3158333,
      "lng": 124.6613889
    },
    {
      "cityName": "Gunzipao",
      "lat": 40.8188889,
      "lng": 122.4133333
    },
    {
      "cityName": "Guojiabaozi",
      "lat": 40.9197222,
      "lng": 123.2411111
    },
    {
      "cityName": "Guojiadian",
      "lat": 40.9361111,
      "lng": 119.3119444
    },
    {
      "cityName": "Guojiagou",
      "lat": 38.8161111,
      "lng": 121.3358333
    },
    {
      "cityName": "Guojiatun",
      "lat": 40.1405556,
      "lng": 122.7238889
    },
    {
      "cityName": "Guosongchuan",
      "lat": 41.2797222,
      "lng": 125.0072222
    },
    {
      "cityName": "Guozhangzi",
      "lat": 40.8469444,
      "lng": 119.1752778
    },
    {
      "cityName": "Gushan",
      "lat": 39.9161111,
      "lng": 123.6038889
    },
    {
      "cityName": "Gushanzi",
      "lat": 41.7330556,
      "lng": 123.585
    },
    {
      "cityName": "Gushanzimanzu",
      "lat": 40.5822222,
      "lng": 122.9647222
    },
    {
      "cityName": "Gushouyu",
      "lat": 41.0572222,
      "lng": 123.1822222
    },
    {
      "cityName": "Guzhuying",
      "lat": 40.9333333,
      "lng": 120.2666667
    },
    {
      "cityName": "Hadabei",
      "lat": 40.3530556,
      "lng": 123.1530556
    },
    {
      "cityName": "Hada",
      "lat": 41.965,
      "lng": 124.1469444
    },
    {
      "cityName": "Hadan Huxu",
      "lat": 42.2866667,
      "lng": 121.6558333
    },
    {
      "cityName": "Haerhtaochieh",
      "lat": 42.5,
      "lng": 122.05
    },
    {
      "cityName": "Haernao",
      "lat": 41.7516667,
      "lng": 120.4694444
    },
    {
      "cityName": "Haichengchen",
      "lat": 40.8519444,
      "lng": 122.7416667
    },
    {
      "cityName": "Haidaozi",
      "lat": 39.5791667,
      "lng": 121.5938889
    },
    {
      "cityName": "Hailong",
      "lat": 39.9608333,
      "lng": 124.2761111
    },
    {
      "cityName": "Haiqingdao",
      "lat": 38.9966667,
      "lng": 121.8061111
    },
    {
      "cityName": "Haiqingfangzi",
      "lat": 41.7769444,
      "lng": 120.9330556
    },
    {
      "cityName": "Haishang",
      "lat": 39.6163889,
      "lng": 121.5241667
    },
    {
      "cityName": "Haiyang",
      "lat": 41.9736111,
      "lng": 124.7158333
    },
    {
      "cityName": "Haladaokou",
      "lat": 42.3188889,
      "lng": 119.4572222
    },
    {
      "cityName": "Halipao",
      "lat": 39.9222222,
      "lng": 123.2672222
    },
    {
      "cityName": "Hamakou",
      "lat": 39.5516667,
      "lng": 121.7647222
    },
    {
      "cityName": "Hamatang",
      "lat": 40.1858333,
      "lng": 124.3475
    },
    {
      "cityName": "Hanchiatien",
      "lat": 41.9366667,
      "lng": 121.6069444
    },
    {
      "cityName": "Hanghuadian",
      "lat": 40.5763889,
      "lng": 123.4508333
    },
    {
      "cityName": "Hanjiabaozi",
      "lat": 40.7272222,
      "lng": 122.4861111
    },
    {
      "cityName": "Hanjiagou",
      "lat": 40.8066667,
      "lng": 119.7244444
    },
    {
      "cityName": "Hanjialing",
      "lat": 40.7327778,
      "lng": 123.125
    },
    {
      "cityName": "Hanjiangtun",
      "lat": 40.9247222,
      "lng": 122.6130556
    },
    {
      "cityName": "Hanjiatun",
      "lat": 39.9627778,
      "lng": 122.5972222
    },
    {
      "cityName": "Hanling",
      "lat": 41.1758333,
      "lng": 123.5483333
    },
    {
      "cityName": "Haoguantun",
      "lat": 42.6666667,
      "lng": 123.5
    },
    {
      "cityName": "Haojiagou",
      "lat": 39.8972222,
      "lng": 122.1472222
    },
    {
      "cityName": "Har Huxu",
      "lat": 42.1797222,
      "lng": 121.7230556
    },
    {
      "cityName": "Hatanggou",
      "lat": 41.8697222,
      "lng": 119.4727778
    },
    {
      "cityName": "Hatatu",
      "lat": 42.0538889,
      "lng": 119.7611111
    },
    {
      "cityName": "Hedian",
      "lat": 40.7611111,
      "lng": 124.6494444
    },
    {
      "cityName": "Hedongaijiabaozi",
      "lat": 40.1772222,
      "lng": 124.0277778
    },
    {
      "cityName": "Hedong",
      "lat": 40.4511111,
      "lng": 122.8297222
    },
    {
      "cityName": "Hehuashan",
      "lat": 39.8188889,
      "lng": 122.5547222
    },
    {
      "cityName": "Heichengtzu",
      "lat": 42.1666667,
      "lng": 120.9833333
    },
    {
      "cityName": "Heidao",
      "lat": 39.7166667,
      "lng": 123.19
    },
    {
      "cityName": "Heidimiao",
      "lat": 41.9458333,
      "lng": 121.9527778
    },
    {
      "cityName": "Heigou",
      "lat": 41.3888889,
      "lng": 125.3736111
    },
    {
      "cityName": "Heigoumanzuxiang",
      "lat": 40.1011111,
      "lng": 123.62
    },
    {
      "cityName": "Heigoutai",
      "lat": 41.4997222,
      "lng": 123.0241667
    },
    {
      "cityName": "Heilützu",
      "lat": 41.2277778,
      "lng": 125.3358333
    },
    {
      "cityName": "Heiniuyingzi",
      "lat": 41.0888889,
      "lng": 120.2797222
    },
    {
      "cityName": "Heishanke",
      "lat": 40.7283333,
      "lng": 119.9491667
    },
    {
      "cityName": "Heishanko",
      "lat": 40.7166667,
      "lng": 119.9166667
    },
    {
      "cityName": "Heishantou",
      "lat": 39.9958333,
      "lng": 119.8802778
    },
    {
      "cityName": "Heishuichen",
      "lat": 42.0713889,
      "lng": 119.4155556
    },
    {
      "cityName": "Heiyingtai",
      "lat": 40.7461111,
      "lng": 122.2066667
    },
    {
      "cityName": "Hejiabaozi",
      "lat": 40.3577778,
      "lng": 124.0213889
    },
    {
      "cityName": "Hejia",
      "lat": 41.6,
      "lng": 124.7166667
    },
    {
      "cityName": "Hejianshun",
      "lat": 39.9391667,
      "lng": 124.2519444
    },
    {
      "cityName": "Hejiatun",
      "lat": 40.3161111,
      "lng": 122.3433333
    },
    {
      "cityName": "Hekanzi",
      "lat": 40.6416667,
      "lng": 119.2219444
    },
    {
      "cityName": "Hekou",
      "lat": 38.8369444,
      "lng": 121.5094444
    },
    {
      "cityName": "Helan",
      "lat": 40.9833333,
      "lng": 123.4166667
    },
    {
      "cityName": "Hele",
      "lat": 41.7913889,
      "lng": 119.4883333
    },
    {
      "cityName": "Helong",
      "lat": 40.0291667,
      "lng": 123.9769444
    },
    {
      "cityName": "Helongmanzu",
      "lat": 40.0541667,
      "lng": 123.9844444
    },
    {
      "cityName": "Hemubeigou",
      "lat": 41.7516667,
      "lng": 124.7
    },
    {
      "cityName": "Hengdaohe",
      "lat": 40.0225,
      "lng": 122.5961111
    },
    {
      "cityName": "Hengdaohezi",
      "lat": 41.4761111,
      "lng": 124.9666667
    },
    {
      "cityName": "Henghenggoumen",
      "lat": 40.9097222,
      "lng": 123.7944444
    },
    {
      "cityName": "Henghezi",
      "lat": 41.3947222,
      "lng": 120.2830556
    },
    {
      "cityName": "Hengtaoho",
      "lat": 42.0333333,
      "lng": 123.85
    },
    {
      "cityName": "Hepingcun",
      "lat": 41.125,
      "lng": 125.3138889
    },
    {
      "cityName": "Heshangfangzi",
      "lat": 40.5,
      "lng": 119.8
    },
    {
      "cityName": "Heshanggou",
      "lat": 40.9741667,
      "lng": 119.96
    },
    {
      "cityName": "Heshangtun",
      "lat": 39.6033333,
      "lng": 122.335
    },
    {
      "cityName": "Hetanggou",
      "lat": 41.2666667,
      "lng": 119.3833333
    },
    {
      "cityName": "Hezhangzi",
      "lat": 40.8691667,
      "lng": 118.9027778
    },
    {
      "cityName": "Hingcheng",
      "lat": 40.6166667,
      "lng": 120.7166667
    },
    {
      "cityName": "Hingking",
      "lat": 41.7219444,
      "lng": 125.0383333
    },
    {
      "cityName": "Hishika",
      "lat": 39.4058333,
      "lng": 122.3577778
    },
    {
      "cityName": "Hiungyocheng",
      "lat": 40.1752778,
      "lng": 122.1227778
    },
    {
      "cityName": "Hohsi",
      "lat": 41.8461111,
      "lng": 125.1705556
    },
    {
      "cityName": "Holung",
      "lat": 42.5166667,
      "lng": 124.8333333
    },
    {
      "cityName": "Honan",
      "lat": 41.4088889,
      "lng": 125.0283333
    },
    {
      "cityName": "Hongchang",
      "lat": 40,
      "lng": 122.3666667
    },
    {
      "cityName": "Hongguang",
      "lat": 41.4222222,
      "lng": 124.0288889
    },
    {
      "cityName": "Honglingbao",
      "lat": 41.5522222,
      "lng": 123.3069444
    },
    {
      "cityName": "Hongluoxian",
      "lat": 41.0091667,
      "lng": 120.87
    },
    {
      "cityName": "Hongmaozi",
      "lat": 42.1208333,
      "lng": 121.4611111
    },
    {
      "cityName": "Hongmiaozi",
      "lat": 41.5333333,
      "lng": 125.1488889
    },
    {
      "cityName": "Hongqiangzimanzuxiang",
      "lat": 41.5755556,
      "lng": 121.2547222
    },
    {
      "cityName": "Hongqibao",
      "lat": 40.3875,
      "lng": 123.8652778
    },
    {
      "cityName": "Hongqigan",
      "lat": 40.4469444,
      "lng": 119.6105556
    },
    {
      "cityName": "Hongqi",
      "lat": 38.9113889,
      "lng": 121.5541667
    },
    {
      "cityName": "Hongqiling",
      "lat": 40.5413889,
      "lng": 122.8627778
    },
    {
      "cityName": "Hongqiyingzi",
      "lat": 40.3344444,
      "lng": 123.4372222
    },
    {
      "cityName": "Hongsheng",
      "lat": 41.7066667,
      "lng": 125.1425
    },
    {
      "cityName": "Hongshi",
      "lat": 39.0625,
      "lng": 123.1877778
    },
    {
      "cityName": "Hongshila",
      "lat": 41.8308333,
      "lng": 120.8894444
    },
    {
      "cityName": "Hongshilazi",
      "lat": 40.3336111,
      "lng": 124.5375
    },
    {
      "cityName": "Hongtingzi",
      "lat": 41.2411111,
      "lng": 125.6225
    },
    {
      "cityName": "Hongtoushan",
      "lat": 42.0333333,
      "lng": 124.5166667
    },
    {
      "cityName": "Hongtudianzi",
      "lat": 41.155,
      "lng": 124.6058333
    },
    {
      "cityName": "Hongtumiao",
      "lat": 42.2666667,
      "lng": 124.5833333
    },
    {
      "cityName": "Hongyazi",
      "lat": 40.6333333,
      "lng": 120.5
    },
    {
      "cityName": "Houan",
      "lat": 41.6988889,
      "lng": 124.2186111
    },
    {
      "cityName": "Houcang",
      "lat": 41.7858333,
      "lng": 125.0752778
    },
    {
      "cityName": "Houdapinggou",
      "lat": 41.1225,
      "lng": 119.4436111
    },
    {
      "cityName": "Houdi",
      "lat": 40.5202778,
      "lng": 124.1983333
    },
    {
      "cityName": "Houershi",
      "lat": 39.2822222,
      "lng": 122.2547222
    },
    {
      "cityName": "Houguangtoushan",
      "lat": 39.8666667,
      "lng": 124.05
    },
    {
      "cityName": "Houhsinchiu",
      "lat": 42.5833333,
      "lng": 122.7333333
    },
    {
      "cityName": "Houhsiushuihotzu",
      "lat": 42.3666667,
      "lng": 122.9833333
    },
    {
      "cityName": "Houhuangqi",
      "lat": 41.9266667,
      "lng": 123.9294444
    },
    {
      "cityName": "Houhutai",
      "lat": 41.7986111,
      "lng": 123.1336111
    },
    {
      "cityName": "Houjiangjunshi",
      "lat": 39,
      "lng": 121.7833333
    },
    {
      "cityName": "Houkuchengtzu",
      "lat": 41.7755556,
      "lng": 125.3019444
    },
    {
      "cityName": "Houliujia",
      "lat": 40.7738889,
      "lng": 122.3141667
    },
    {
      "cityName": "Houmoujiayuan",
      "lat": 39.8627778,
      "lng": 123.9919444
    },
    {
      "cityName": "Houmuchengyi",
      "lat": 38.9966667,
      "lng": 121.43
    },
    {
      "cityName": "Houniumao",
      "lat": 41.3133333,
      "lng": 125.0922222
    },
    {
      "cityName": "Houpatoutzu",
      "lat": 40.9136111,
      "lng": 125.5772222
    },
    {
      "cityName": "Houqingyangbao",
      "lat": 40.6433333,
      "lng": 123.5188889
    },
    {
      "cityName": "Housanjiaoshan",
      "lat": 40.885,
      "lng": 121.1241667
    },
    {
      "cityName": "Housanjiazi",
      "lat": 42.4666667,
      "lng": 123.8333333
    },
    {
      "cityName": "Houshan",
      "lat": 41.9477778,
      "lng": 124.2944444
    },
    {
      "cityName": "Houshi",
      "lat": 42.2533333,
      "lng": 124.765
    },
    {
      "cityName": "Houtangshihtzu",
      "lat": 42.0744444,
      "lng": 125.3938889
    },
    {
      "cityName": "Houwushihchiatzu",
      "lat": 41.9661111,
      "lng": 123.0588889
    },
    {
      "cityName": "Houxiaohuanggou",
      "lat": 40.7083333,
      "lng": 123.7383333
    },
    {
      "cityName": "Houyang",
      "lat": 39.0538889,
      "lng": 122.8502778
    },
    {
      "cityName": "Houyantun",
      "lat": 39.0166667,
      "lng": 121.6333333
    },
    {
      "cityName": "Houyao",
      "lat": 42.8666667,
      "lng": 123.6166667
    },
    {
      "cityName": "Houyingtzu",
      "lat": 40.3333333,
      "lng": 123.8333333
    },
    {
      "cityName": "Hoyüantun",
      "lat": 42.5691667,
      "lng": 125.0658333
    },
    {
      "cityName": "Hsiachiaho",
      "lat": 41.8666667,
      "lng": 124.4
    },
    {
      "cityName": "Hsiachiapao",
      "lat": 42.2547222,
      "lng": 124.6863889
    },
    {
      "cityName": "Hsiachinkeng",
      "lat": 40.9813889,
      "lng": 125.5080556
    },
    {
      "cityName": "Hsiafangshen",
      "lat": 40.7166667,
      "lng": 122.8
    },
    {
      "cityName": "Hsiafeiti",
      "lat": 42.3,
      "lng": 124.35
    },
    {
      "cityName": "Hsialouho",
      "lat": 40.9097222,
      "lng": 125.4241667
    },
    {
      "cityName": "Hsialuho",
      "lat": 40.8977778,
      "lng": 125.5280556
    },
    {
      "cityName": "Hsiangshuihotzu",
      "lat": 41.6038889,
      "lng": 125.3491667
    },
    {
      "cityName": "Hsiaochaimentsun",
      "lat": 41.4641667,
      "lng": 122.8611111
    },
    {
      "cityName": "Hsiaochengtzu",
      "lat": 42.9,
      "lng": 123.2
    },
    {
      "cityName": "Hsiaochienchangyingtzu",
      "lat": 42.2341667,
      "lng": 119.3730556
    },
    {
      "cityName": "Hsiaochingkou",
      "lat": 40.8119444,
      "lng": 125.5538889
    },
    {
      "cityName": "Hsiaochuankou",
      "lat": 40.8836111,
      "lng": 125.6527778
    },
    {
      "cityName": "Hsiaofangshen",
      "lat": 41.2833333,
      "lng": 122.65
    },
    {
      "cityName": "Hsiaohuachien",
      "lat": 39.9616667,
      "lng": 124.2319444
    },
    {
      "cityName": "Hsiaohungchiputzu",
      "lat": 41.5,
      "lng": 122.5666667
    },
    {
      "cityName": "Hsiaoitzuchüan",
      "lat": 39.9002778,
      "lng": 123.7788889
    },
    {
      "cityName": "Hsiaokusantzu",
      "lat": 40.8611111,
      "lng": 125.6730556
    },
    {
      "cityName": "Hsiaokushan",
      "lat": 39.7816667,
      "lng": 123.0997222
    },
    {
      "cityName": "Hsiaolaoyenkou",
      "lat": 40.7763889,
      "lng": 125.6088889
    },
    {
      "cityName": "Hsiaoliangshan",
      "lat": 42.0666667,
      "lng": 122.6166667
    },
    {
      "cityName": "Hsiaopeiching",
      "lat": 39.845,
      "lng": 123.9575
    },
    {
      "cityName": "Hsiaopeiho",
      "lat": 41.3577778,
      "lng": 122.84
    },
    {
      "cityName": "Hsiaopeikou",
      "lat": 41.4822222,
      "lng": 125.3341667
    },
    {
      "cityName": "Hsiaopienkou",
      "lat": 41.9902778,
      "lng": 125.1219444
    },
    {
      "cityName": "Hsiaopingtao",
      "lat": 38.8333333,
      "lng": 121.5
    },
    {
      "cityName": "Hsiaoshihchen",
      "lat": 41.2894444,
      "lng": 124.1319444
    },
    {
      "cityName": "Hsiaotaotzu",
      "lat": 39.8055556,
      "lng": 123.6188889
    },
    {
      "cityName": "Hsiaotatzu",
      "lat": 42.2666667,
      "lng": 123.1
    },
    {
      "cityName": "Hsiaotung",
      "lat": 42.0333333,
      "lng": 122.3
    },
    {
      "cityName": "Hsiaotungkou",
      "lat": 39.8352778,
      "lng": 124.0669444
    },
    {
      "cityName": "Hsiaotun",
      "lat": 41.2322222,
      "lng": 123.3425
    },
    {
      "cityName": "Hsiaoyanghotzu",
      "lat": 40.0583333,
      "lng": 123.4088889
    },
    {
      "cityName": "Hsiaoyangtzukou",
      "lat": 40.8663889,
      "lng": 125.5136111
    },
    {
      "cityName": "Hsiashihpatai",
      "lat": 42.005,
      "lng": 120.8158333
    },
    {
      "cityName": "Hsicha",
      "lat": 41.5638889,
      "lng": 125.2475
    },
    {
      "cityName": "Hsiehtun",
      "lat": 41.2208333,
      "lng": 121.5388889
    },
    {
      "cityName": "Hsifengchen",
      "lat": 42.7372222,
      "lng": 124.7222222
    },
    {
      "cityName": "Hsifo",
      "lat": 41.4294444,
      "lng": 122.54
    },
    {
      "cityName": "Hsikou",
      "lat": 40.7730556,
      "lng": 125.5005556
    },
    {
      "cityName": "Hsikuanyingtzu",
      "lat": 41.8816667,
      "lng": 120.5561111
    },
    {
      "cityName": "Hsimucheng",
      "lat": 40.6969444,
      "lng": 122.9097222
    },
    {
      "cityName": "Hsinantun",
      "lat": 39.9491667,
      "lng": 124.2311111
    },
    {
      "cityName": "Hsinchengpao",
      "lat": 42.0491667,
      "lng": 123.5163889
    },
    {
      "cityName": "Hsinching",
      "lat": 42.2486111,
      "lng": 119.4666667
    },
    {
      "cityName": "Hsinchuangtzu",
      "lat": 41.0697222,
      "lng": 121.3908333
    },
    {
      "cityName": "Hsingchingerhtaokou",
      "lat": 41.6411111,
      "lng": 125.3177778
    },
    {
      "cityName": "Hsinghsikuan",
      "lat": 40.95,
      "lng": 121.0833333
    },
    {
      "cityName": "Hsinglungkou",
      "lat": 42.0177778,
      "lng": 119.7411111
    },
    {
      "cityName": "Hsinglungpao",
      "lat": 42.5,
      "lng": 122.6333333
    },
    {
      "cityName": "Hsinglungshan",
      "lat": 39.8608333,
      "lng": 123.8091667
    },
    {
      "cityName": "Hsingshutun",
      "lat": 39.27,
      "lng": 122.1516667
    },
    {
      "cityName": "Hsinkaiho",
      "lat": 41.3166667,
      "lng": 122.5
    },
    {
      "cityName": "Hsinkaitun",
      "lat": 39.9977778,
      "lng": 124.3372222
    },
    {
      "cityName": "Hsinkouyai",
      "lat": 39.8908333,
      "lng": 124.1261111
    },
    {
      "cityName": "Hsinlingkou",
      "lat": 41.6252778,
      "lng": 125.1888889
    },
    {
      "cityName": "Hsinlitun",
      "lat": 42.0066667,
      "lng": 122.17
    },
    {
      "cityName": "Hsinminchen",
      "lat": 41.9908333,
      "lng": 122.8252778
    },
    {
      "cityName": "Hsinmintun",
      "lat": 41.6372222,
      "lng": 123.0430556
    },
    {
      "cityName": "Hsintaimen",
      "lat": 40.85,
      "lng": 120.4833333
    },
    {
      "cityName": "Hsintaitzu",
      "lat": 42.1166667,
      "lng": 123.6
    },
    {
      "cityName": "Hsintaotzu",
      "lat": 41.1058333,
      "lng": 122.7111111
    },
    {
      "cityName": "Hsintien",
      "lat": 41.0369444,
      "lng": 120.6072222
    },
    {
      "cityName": "Hsinwopu",
      "lat": 42.0372222,
      "lng": 119.8280556
    },
    {
      "cityName": "Hsisantai",
      "lat": 39.6333333,
      "lng": 121.6166667
    },
    {
      "cityName": "Hsiujen",
      "lat": 40.2927778,
      "lng": 123.2744444
    },
    {
      "cityName": "Hsiushuihotzu",
      "lat": 42.3497222,
      "lng": 123.0183333
    },
    {
      "cityName": "Hsiushuitientzu",
      "lat": 42.1241667,
      "lng": 125.1902778
    },
    {
      "cityName": "Hsüchiatunchan",
      "lat": 40.0358333,
      "lng": 122.0772222
    },
    {
      "cityName": "Hsushihyin",
      "lat": 38.845,
      "lng": 121.2402778
    },
    {
      "cityName": "Huachientzu",
      "lat": 41.4163889,
      "lng": 125.0255556
    },
    {
      "cityName": "Huachienyüfang",
      "lat": 39.9686111,
      "lng": 124.2294444
    },
    {
      "cityName": "Huaerlou",
      "lat": 41.7491667,
      "lng": 121.6383333
    },
    {
      "cityName": "Huaershan",
      "lat": 39.4636111,
      "lng": 121.9741667
    },
    {
      "cityName": "Huaishudonggou",
      "lat": 41.3702778,
      "lng": 120.3752778
    },
    {
      "cityName": "Huajiatun",
      "lat": 39.2791667,
      "lng": 122.025
    },
    {
      "cityName": "Huajiaxuexiao",
      "lat": 39.995,
      "lng": 123.3444444
    },
    {
      "cityName": "Huandong",
      "lat": 41.5,
      "lng": 122.45
    },
    {
      "cityName": "Huangchiachiangtzu",
      "lat": 42.1969444,
      "lng": 119.4216667
    },
    {
      "cityName": "Huangchialutungkou",
      "lat": 41.0513889,
      "lng": 125.0888889
    },
    {
      "cityName": "Huangchikou",
      "lat": 41.7866667,
      "lng": 125.0325
    },
    {
      "cityName": "Huangdi",
      "lat": 40.2333333,
      "lng": 120.25
    },
    {
      "cityName": "Huanggoudianzicun",
      "lat": 41.2,
      "lng": 125.3958333
    },
    {
      "cityName": "Huanggou",
      "lat": 40.2761111,
      "lng": 124.5963889
    },
    {
      "cityName": "Huanggutun",
      "lat": 41.9586111,
      "lng": 120.6313889
    },
    {
      "cityName": "Huangjiabaozi",
      "lat": 40.3936111,
      "lng": 123.0183333
    },
    {
      "cityName": "Huangjiadian",
      "lat": 40.2458333,
      "lng": 123.0361111
    },
    {
      "cityName": "Huangjiagou",
      "lat": 40.6022222,
      "lng": 124.9991667
    },
    {
      "cityName": "Huangjiaquan",
      "lat": 39.6877778,
      "lng": 123.2213889
    },
    {
      "cityName": "Huangjiuguan",
      "lat": 40.8627778,
      "lng": 118.9852778
    },
    {
      "cityName": "Huanglingtzu",
      "lat": 39.75,
      "lng": 123.2025
    },
    {
      "cityName": "Huanglongwei",
      "lat": 39.0355556,
      "lng": 121.3763889
    },
    {
      "cityName": "Huangnichuan",
      "lat": 38.8488889,
      "lng": 121.4438889
    },
    {
      "cityName": "Huangouzi",
      "lat": 43.0166667,
      "lng": 124.25
    },
    {
      "cityName": "Huangqizhai",
      "lat": 42.2,
      "lng": 124.4
    },
    {
      "cityName": "Huangshato",
      "lat": 41.2086111,
      "lng": 122.5047222
    },
    {
      "cityName": "Huangtukan",
      "lat": 39.9386111,
      "lng": 123.67
    },
    {
      "cityName": "Huangtukanzi",
      "lat": 41.2425,
      "lng": 120.4847222
    },
    {
      "cityName": "Huangtuling",
      "lat": 40.4175,
      "lng": 122.7897222
    },
    {
      "cityName": "Huangzhangzi",
      "lat": 40.5211111,
      "lng": 119.59
    },
    {
      "cityName": "Huanxiling",
      "lat": 41.2813889,
      "lng": 123.9016667
    },
    {
      "cityName": "Huashan",
      "lat": 40.7913889,
      "lng": 123.4263889
    },
    {
      "cityName": "Huashiligouliangshang",
      "lat": 41.7138889,
      "lng": 119.6952778
    },
    {
      "cityName": "Huashudianzi",
      "lat": 40.4847222,
      "lng": 124.6886111
    },
    {
      "cityName": "Huashupai",
      "lat": 41.1491667,
      "lng": 124.5352778
    },
    {
      "cityName": "Huatonggouzhen",
      "lat": 40.05,
      "lng": 121.9333333
    },
    {
      "cityName": "Huatzu",
      "lat": 41.3891667,
      "lng": 123.4552778
    },
    {
      "cityName": "Huayuankou",
      "lat": 39.5313889,
      "lng": 122.6944444
    },
    {
      "cityName": "Huazhangzi",
      "lat": 41.6697222,
      "lng": 120.0266667
    },
    {
      "cityName": "Hubaotutun",
      "lat": 41.8808333,
      "lng": 121.3736111
    },
    {
      "cityName": "Huchuangtun",
      "lat": 40.7163889,
      "lng": 122.5402778
    },
    {
      "cityName": "Hugou",
      "lat": 41.0436111,
      "lng": 123.9288889
    },
    {
      "cityName": "Huiji",
      "lat": 41.2936111,
      "lng": 121.2902778
    },
    {
      "cityName": "Huilantun",
      "lat": 41.3122222,
      "lng": 121.4638889
    },
    {
      "cityName": "Huilongshan",
      "lat": 41.1011111,
      "lng": 125.2863889
    },
    {
      "cityName": "Huiyuan",
      "lat": 41.9697222,
      "lng": 123.8761111
    },
    {
      "cityName": "Hujiabaozi",
      "lat": 40.8002778,
      "lng": 123.7508333
    },
    {
      "cityName": "Hujia",
      "lat": 41.2741667,
      "lng": 121.9522222
    },
    {
      "cityName": "Hujiapu",
      "lat": 41.06,
      "lng": 124.1608333
    },
    {
      "cityName": "Hujiawanzi",
      "lat": 42.4083333,
      "lng": 121.6833333
    },
    {
      "cityName": "Hukou",
      "lat": 41.0719444,
      "lng": 125.0605556
    },
    {
      "cityName": "Huludao",
      "lat": 40.7166667,
      "lng": 121
    },
    {
      "cityName": "Hulutaotun",
      "lat": 39.2566667,
      "lng": 121.6119444
    },
    {
      "cityName": "Hunchiangkou",
      "lat": 40.8688889,
      "lng": 125.6819444
    },
    {
      "cityName": "Hungchi",
      "lat": 40.1622222,
      "lng": 123.8827778
    },
    {
      "cityName": "Hungchikou",
      "lat": 41.6791667,
      "lng": 125.0927778
    },
    {
      "cityName": "Hungshih",
      "lat": 41.3166667,
      "lng": 119.55
    },
    {
      "cityName": "Hungshihtsao",
      "lat": 42.7333333,
      "lng": 123.6833333
    },
    {
      "cityName": "Hungtengpei",
      "lat": 41.4291667,
      "lng": 125.0066667
    },
    {
      "cityName": "Hunhe",
      "lat": 41.7244444,
      "lng": 123.3702778
    },
    {
      "cityName": "Huolianzhaihuizumanzu",
      "lat": 41.3661111,
      "lng": 123.7355556
    },
    {
      "cityName": "Huoshihtsuitzu",
      "lat": 41.9091667,
      "lng": 125.2925
    },
    {
      "cityName": "Hushang",
      "lat": 41.0663889,
      "lng": 125.1958333
    },
    {
      "cityName": "Hushan",
      "lat": 40.2275,
      "lng": 124.5238889
    },
    {
      "cityName": "Hushihtai",
      "lat": 41.9322222,
      "lng": 123.5113889
    },
    {
      "cityName": "Hutai",
      "lat": 41.7816667,
      "lng": 123.1444444
    },
    {
      "cityName": "Huzhua",
      "lat": 41.8341667,
      "lng": 121.2552778
    },
    {
      "cityName": "Ichouchen",
      "lat": 41.5336111,
      "lng": 121.2480556
    },
    {
      "cityName": "Imatu",
      "lat": 41.8666667,
      "lng": 121.5
    },
    {
      "cityName": "Inpan",
      "lat": 41.9266667,
      "lng": 124.2097222
    },
    {
      "cityName": "Jaoyangho",
      "lat": 41.8166667,
      "lng": 122.4833333
    },
    {
      "cityName": "Jiabeiyan",
      "lat": 40.3363889,
      "lng": 119.7377778
    },
    {
      "cityName": "Jiahe",
      "lat": 41.7311111,
      "lng": 124.8355556
    },
    {
      "cityName": "Jiahemiao",
      "lat": 39.4519444,
      "lng": 122.2091667
    },
    {
      "cityName": "Jiajiadian",
      "lat": 41.5422222,
      "lng": 120.0811111
    },
    {
      "cityName": "Jiajiaweizi",
      "lat": 40.8591667,
      "lng": 123.3886111
    },
    {
      "cityName": "Jianchanggou",
      "lat": 41.5827778,
      "lng": 119.635
    },
    {
      "cityName": "Jianchangling",
      "lat": 40.3072222,
      "lng": 123.3963889
    },
    {
      "cityName": "Jianggou",
      "lat": 39.9133333,
      "lng": 122.4527778
    },
    {
      "cityName": "Jiangjiabaozi",
      "lat": 40.8302778,
      "lng": 124.3336111
    },
    {
      "cityName": "Jiangjiafang",
      "lat": 40.6408333,
      "lng": 122.3433333
    },
    {
      "cityName": "Jiangjiagou",
      "lat": 39.8722222,
      "lng": 122.4277778
    },
    {
      "cityName": "Jiangjiatun",
      "lat": 39.8197222,
      "lng": 123.3291667
    },
    {
      "cityName": "Jiangmupu",
      "lat": 41.1205556,
      "lng": 121.3844444
    },
    {
      "cityName": "Jiangnan",
      "lat": 41.6511111,
      "lng": 125.3097222
    },
    {
      "cityName": "Jiangtun",
      "lat": 41.7,
      "lng": 122.4166667
    },
    {
      "cityName": "Jiangxi",
      "lat": 38.8419444,
      "lng": 121.1588889
    },
    {
      "cityName": "Jianli",
      "lat": 40.8741667,
      "lng": 122.3319444
    },
    {
      "cityName": "Jianshanzi",
      "lat": 39.97,
      "lng": 123.8577778
    },
    {
      "cityName": "Jiantang",
      "lat": 39.8666667,
      "lng": 122.4
    },
    {
      "cityName": "Jianye",
      "lat": 40.9672222,
      "lng": 121.3427778
    },
    {
      "cityName": "Jianyi",
      "lat": 40.4833333,
      "lng": 122.8666667
    },
    {
      "cityName": "Jiaodingzicun",
      "lat": 40.9033333,
      "lng": 125.0997222
    },
    {
      "cityName": "Jiaojiabaozi",
      "lat": 41.0138889,
      "lng": 125.0613889
    },
    {
      "cityName": "Jiaojiayingzi",
      "lat": 41.8697222,
      "lng": 120.4822222
    },
    {
      "cityName": "Jiaoliudao",
      "lat": 39.4333333,
      "lng": 121.4333333
    },
    {
      "cityName": "Jiaoyangyu",
      "lat": 40.6413889,
      "lng": 123.8797222
    },
    {
      "cityName": "Jiaxinzi",
      "lat": 39.45,
      "lng": 122.4
    },
    {
      "cityName": "Jiefang",
      "lat": 41.995,
      "lng": 123.2077778
    },
    {
      "cityName": "Jieguanting",
      "lat": 40.4886111,
      "lng": 122.8597222
    },
    {
      "cityName": "Jiewenzhai",
      "lat": 40.7,
      "lng": 123
    },
    {
      "cityName": "Jifanggou",
      "lat": 41.8966667,
      "lng": 119.4341667
    },
    {
      "cityName": "Jihhsintun",
      "lat": 42.0558333,
      "lng": 125.1983333
    },
    {
      "cityName": "Jihpentsuchiehti",
      "lat": 42.5330556,
      "lng": 124.0402778
    },
    {
      "cityName": "Jijiabaozi",
      "lat": 40.5766667,
      "lng": 124.2216667
    },
    {
      "cityName": "Jijiaweizi",
      "lat": 40.4177778,
      "lng": 123.6636111
    },
    {
      "cityName": "Jinbaoling",
      "lat": 41.1811111,
      "lng": 120.9333333
    },
    {
      "cityName": "Jingjiayu",
      "lat": 41.6,
      "lng": 123.85
    },
    {
      "cityName": "Jingshang",
      "lat": 41.1152778,
      "lng": 119.3925
    },
    {
      "cityName": "Jingyouzhangzi",
      "lat": 40.7533333,
      "lng": 119.5525
    },
    {
      "cityName": "Jingyu",
      "lat": 41.0155556,
      "lng": 124.7333333
    },
    {
      "cityName": "Jingzhou",
      "lat": 41.3602778,
      "lng": 121.3252778
    },
    {
      "cityName": "Jinjiadian",
      "lat": 39.8277778,
      "lng": 122.3841667
    },
    {
      "cityName": "Jinjiagou",
      "lat": 41.5763889,
      "lng": 121.0575
    },
    {
      "cityName": "Jinjiajie",
      "lat": 38.9666667,
      "lng": 121.5833333
    },
    {
      "cityName": "Jinjiapaifang",
      "lat": 40.6066667,
      "lng": 122.7133333
    },
    {
      "cityName": "Jinjiawopeng",
      "lat": 42.2113889,
      "lng": 124.8477778
    },
    {
      "cityName": "Jinkeng",
      "lat": 41.2961111,
      "lng": 123.9966667
    },
    {
      "cityName": "Jinqiao",
      "lat": 40.6469444,
      "lng": 122.4827778
    },
    {
      "cityName": "Jinshitun",
      "lat": 41.2525,
      "lng": 120.9952778
    },
    {
      "cityName": "Jinwutaizi",
      "lat": 41.8,
      "lng": 122.6833333
    },
    {
      "cityName": "Jinxing",
      "lat": 41.0283333,
      "lng": 120.9483333
    },
    {
      "cityName": "Jinzhangzi",
      "lat": 40.8833333,
      "lng": 119.5
    },
    {
      "cityName": "Jiucaigou",
      "lat": 40.6047222,
      "lng": 123.3636111
    },
    {
      "cityName": "Jiucaitai",
      "lat": 41.0833333,
      "lng": 122.4
    },
    {
      "cityName": "Jiudaoling",
      "lat": 41.5883333,
      "lng": 121.3133333
    },
    {
      "cityName": "Jiufotang",
      "lat": 40.99,
      "lng": 119.6702778
    },
    {
      "cityName": "Jiuhuzui",
      "lat": 40.9855556,
      "lng": 121.8191667
    },
    {
      "cityName": "Jiujuzi",
      "lat": 41.0216667,
      "lng": 124.9125
    },
    {
      "cityName": "Jiuliancheng",
      "lat": 40.1958333,
      "lng": 124.4558333
    },
    {
      "cityName": "Jiulizhuang",
      "lat": 39.15,
      "lng": 121.7413889
    },
    {
      "cityName": "Jiulongdi",
      "lat": 40.1397222,
      "lng": 122.1258333
    },
    {
      "cityName": "Jiumen",
      "lat": 40.75,
      "lng": 120.4833333
    },
    {
      "cityName": "Jiupu",
      "lat": 41.0666667,
      "lng": 122.95
    },
    {
      "cityName": "Jiushenmiao",
      "lat": 41.2302778,
      "lng": 119.7277778
    },
    {
      "cityName": "Jiuzhai",
      "lat": 40.0833333,
      "lng": 122.1333333
    },
    {
      "cityName": "Jiuzhan",
      "lat": 41.8666667,
      "lng": 123.6666667
    },
    {
      "cityName": "Jiyu",
      "lat": 41.2963889,
      "lng": 121.2841667
    },
    {
      "cityName": "Jizhong",
      "lat": 42.3938889,
      "lng": 121.93
    },
    {
      "cityName": "Juichengtun",
      "lat": 39.0930556,
      "lng": 123.1716667
    },
    {
      "cityName": "Juihsiangtun",
      "lat": 39.9411111,
      "lng": 124.2316667
    },
    {
      "cityName": "Juliangtun",
      "lat": 41.5002778,
      "lng": 121.3291667
    },
    {
      "cityName": "Junmin",
      "lat": 40.6,
      "lng": 124.8166667
    },
    {
      "cityName": "Kahsihuolo",
      "lat": 42.1683333,
      "lng": 125.0883333
    },
    {
      "cityName": "Kaiyüancheng",
      "lat": 42.5975,
      "lng": 124.0816667
    },
    {
      "cityName": "Kalachin",
      "lat": 41.7666667,
      "lng": 120.0166667
    },
    {
      "cityName": "Kanchingtzutsun",
      "lat": 42.1025,
      "lng": 125.2147222
    },
    {
      "cityName": "Kangpingchen",
      "lat": 42.7391667,
      "lng": 123.3494444
    },
    {
      "cityName": "Kangtetun",
      "lat": 42.3766667,
      "lng": 125.12
    },
    {
      "cityName": "Kangtun",
      "lat": 41.5663889,
      "lng": 121.6238889
    },
    {
      "cityName": "Kankoutzu",
      "lat": 40.9872222,
      "lng": 125.4369444
    },
    {
      "cityName": "Kanpaho",
      "lat": 41.4302778,
      "lng": 125.2777778
    },
    {
      "cityName": "Kantzuhsia",
      "lat": 39.5613889,
      "lng": 122.6161111
    },
    {
      "cityName": "Kanzhangzi",
      "lat": 41.035,
      "lng": 119.4211111
    },
    {
      "cityName": "Kaochiatien",
      "lat": 42.7,
      "lng": 124.5166667
    },
    {
      "cityName": "Kaokan",
      "lat": 40.9166667,
      "lng": 122.25
    },
    {
      "cityName": "Kaoliangtun",
      "lat": 42.6041667,
      "lng": 125.0322222
    },
    {
      "cityName": "Kaolimutzu",
      "lat": 40.9147222,
      "lng": 125.6188889
    },
    {
      "cityName": "Kaoshan",
      "lat": 39.4,
      "lng": 121.5708333
    },
    {
      "cityName": "Kaoshantun",
      "lat": 42.2747222,
      "lng": 124.2333333
    },
    {
      "cityName": "Kienchang",
      "lat": 41.24,
      "lng": 119.4011111
    },
    {
      "cityName": "Kongjiatun",
      "lat": 40.7038889,
      "lng": 124.0625
    },
    {
      "cityName": "Koumentzu",
      "lat": 40.8166667,
      "lng": 119.3166667
    },
    {
      "cityName": "Kuaimokou",
      "lat": 42.2702778,
      "lng": 125.07
    },
    {
      "cityName": "Kuanbang",
      "lat": 40.5166667,
      "lng": 120.1333333
    },
    {
      "cityName": "Kuandian",
      "lat": 40.7286111,
      "lng": 124.7847222
    },