{
  "name": "Braila",
  "cities": [
    {
      "cityName": "Agaua",
      "lat": 44.833333,
      "lng": 28.066667
    },
    {
      "cityName": "Aigar-Amet",
      "lat": 44.916667,
      "lng": 28.233333
    },
    {
      "cityName": "Albina",
      "lat": 45.183333,
      "lng": 27.866667
    },
    {
      "cityName": "Ardeal",
      "lat": 44.966667,
      "lng": 28.316667
    },
    {
      "cityName": "Ariciu",
      "lat": 45.366667,
      "lng": 27.5
    },
    {
      "cityName": "Arman-Bercu",
      "lat": 44.866667,
      "lng": 28.1
    },
    {
      "cityName": "Atirnati",
      "lat": 44.85,
      "lng": 27.95
    },
    {
      "cityName": "Avântul",
      "lat": 45.283333,
      "lng": 27.55
    },
    {
      "cityName": "Baile Lacul Saral",
      "lat": 45.216667,
      "lng": 27.916667
    },
    {
      "cityName": "Balcescu Nicolae",
      "lat": 45.35,
      "lng": 27.616667
    },
    {
      "cityName": "Baldovinesti",
      "lat": 45.316667,
      "lng": 27.916667
    },
    {
      "cityName": "Bandoiu",
      "lat": 44.866667,
      "lng": 27.933333
    },
    {
      "cityName": "Berestii-de-Jos",
      "lat": 44.833333,
      "lng": 27.75
    },
    {
      "cityName": "Blasova",
      "lat": 45.133333,
      "lng": 28.166667
    },
    {
      "cityName": "Boarca",
      "lat": 45.3,
      "lng": 27.5
    },
    {
      "cityName": "Bordeiul Verde",
      "lat": 45.083333,
      "lng": 27.566667
    },
    {
      "cityName": "Bou",
      "lat": 44.95,
      "lng": 28.116667
    },
    {
      "cityName": "Braila",
      "lat": 45.266667,
      "lng": 27.983333
    },
    {
      "cityName": "Brailita",
      "lat": 45.3,
      "lng": 27.983333
    },
    {
      "cityName": "Caldarusa",
      "lat": 45.116667,
      "lng": 27.6
    },
    {
      "cityName": "Calfa",
      "lat": 44.816667,
      "lng": 28.35
    },
    {
      "cityName": "Canat Calfa",
      "lat": 44.933333,
      "lng": 28.3
    },
    {
      "cityName": "Caramidari",
      "lat": 45,
      "lng": 27.55
    },
    {
      "cityName": "Carcaliu",
      "lat": 45.183333,
      "lng": 28.15
    },
    {
      "cityName": "Cârjelari",
      "lat": 44.95,
      "lng": 28.333333
    },
    {
      "cityName": "Cazasu",
      "lat": 45.283333,
      "lng": 27.9
    },
    {
      "cityName": "Cerna",
      "lat": 45.083333,
      "lng": 28.316667
    },
    {
      "cityName": "Cetatuia",
      "lat": 45.283333,
      "lng": 28.266667
    },
    {
      "cityName": "Chiscani",
      "lat": 45.183333,
      "lng": 27.933333
    },
    {
      "cityName": "Ciobanu",
      "lat": 44.733333,
      "lng": 27.966667
    },
    {
      "cityName": "Cismeaua Noua",
      "lat": 44.8,
      "lng": 28.333333
    },
    {
      "cityName": "Cistia",
      "lat": 44.85,
      "lng": 28.133333
    },
    {
      "cityName": "Cogalniceanu",
      "lat": 45.216667,
      "lng": 27.516667
    },
    {
      "cityName": "Coiumbunar",
      "lat": 44.933333,
      "lng": 28.25
    },
    {
      "cityName": "Cojocaru",
      "lat": 44.95,
      "lng": 27.916667
    },
    {
      "cityName": "Comaneasca",
      "lat": 45.233333,
      "lng": 27.7
    },
    {
      "cityName": "Constantinesti",
      "lat": 45.3,
      "lng": 27.466667
    },
    {
      "cityName": "Constantin Gabrielescu",
      "lat": 45.066667,
      "lng": 27.616667
    },
    {
      "cityName": "Corbeni",
      "lat": 45.316667,
      "lng": 27.483333
    },
    {
      "cityName": "Cornul Malului",
      "lat": 44.9,
      "lng": 27.75
    },
    {
      "cityName": "Custura",
      "lat": 45.3,
      "lng": 27.433333
    },
    {
      "cityName": "Cuza Voda",
      "lat": 44.916667,
      "lng": 27.716667
    },
    {
      "cityName": "Daeni",
      "lat": 44.833333,
      "lng": 28.116667
    },
    {
      "cityName": "Dedulesti",
      "lat": 45.15,
      "lng": 27.4
    },
    {
      "cityName": "Desirati",
      "lat": 45.316667,
      "lng": 27.566667
    },
    {
      "cityName": "Domnita Ileana",
      "lat": 45.366667,
      "lng": 27.516667
    },
    {
      "cityName": "Dorobantu",
      "lat": 44.95,
      "lng": 28.266667
    },
    {
      "cityName": "Dragalina",
      "lat": 44.983333,
      "lng": 28.366667
    },
    {
      "cityName": "Esna",
      "lat": 45.183333,
      "lng": 27.55
    },
    {
      "cityName": "Fagarasul-Nou",
      "lat": 44.866667,
      "lng": 28.266667
    },
    {
      "cityName": "Filiu",
      "lat": 44.983333,
      "lng": 27.516667
    },
    {
      "cityName": "Filiul Târlele",
      "lat": 45.05,
      "lng": 27.483333
    },
    {
      "cityName": "Frecatei",
      "lat": 44.916667,
      "lng": 28.15
    },
    {
      "cityName": "Gara Ianca",
      "lat": 45.133333,
      "lng": 27.516667
    },
    {
      "cityName": "Gârliciu",
      "lat": 44.766667,
      "lng": 28.083333
    },
    {
      "cityName": "Garlutei",
      "lat": 44.833333,
      "lng": 27.816667
    },
    {
      "cityName": "Gavani",
      "lat": 45.283333,
      "lng": 27.633333
    },
    {
      "cityName": "Gemenele",
      "lat": 45.283333,
      "lng": 27.616667
    },
    {
      "cityName": "General Papurgescu",
      "lat": 45.316667,
      "lng": 27.933333
    },
    {
      "cityName": "General Praporgescu",
      "lat": 45.016667,
      "lng": 28.366667
    },
    {
      "cityName": "Georgescu Iustin",
      "lat": 44.933333,
      "lng": 27.533333
    },
    {
      "cityName": "Geormaneasa",
      "lat": 44.883333,
      "lng": 27.766667
    },
    {
      "cityName": "Ghecet",
      "lat": 45.283333,
      "lng": 28.033333
    },
    {
      "cityName": "Giurgeni",
      "lat": 44.766667,
      "lng": 27.883333
    },
    {
      "cityName": "Golasei",
      "lat": 45.05,
      "lng": 27.733333
    },
    {
      "cityName": "Gradistea de Jos",
      "lat": 45.266667,
      "lng": 27.4
    },
    {
      "cityName": "Gradistea de Sus",
      "lat": 45.266667,
      "lng": 27.383333
    },
    {
      "cityName": "Greci",
      "lat": 45.183333,
      "lng": 28.233333
    },
    {
      "cityName": "Gura Armanului",
      "lat": 45.15,
      "lng": 28.2
    },
    {
      "cityName": "Gura Calmatui",
      "lat": 44.816667,
      "lng": 27.8
    },
    {
      "cityName": "Gurgueti",
      "lat": 45.366667,
      "lng": 27.666667
    },
    {
      "cityName": "Hamcearca",
      "lat": 45.116667,
      "lng": 28.366667
    },
    {
      "cityName": "Iacob Deal",
      "lat": 45.1,
      "lng": 28.216667
    },
    {
      "cityName": "Ianca",
      "lat": 45.133333,
      "lng": 27.45
    },
    {
      "cityName": "Iapa",
      "lat": 44.816667,
      "lng": 27.933333
    },
    {
      "cityName": "Iglita",
      "lat": 45.133333,
      "lng": 28.183333
    },
    {
      "cityName": "Insuratei",
      "lat": 44.916667,
      "lng": 27.6
    },
    {
      "cityName": "Islazu",
      "lat": 45.266667,
      "lng": 27.933333
    },
    {
      "cityName": "Jijila",
      "lat": 45.3,
      "lng": 28.15
    },
    {
      "cityName": "Lacul-Rezi",
      "lat": 44.9,
      "lng": 27.666667
    },
    {
      "cityName": "Lacul-Sarat",
      "lat": 45.216667,
      "lng": 27.866667
    },
    {
      "cityName": "Liscoteanca-Caramidari",
      "lat": 45.016667,
      "lng": 27.566667
    },
    {
      "cityName": "Macin",
      "lat": 45.25,
      "lng": 28.15
    },
    {
      "cityName": "Magureni",
      "lat": 44.783333,
      "lng": 27.966667
    },
    {
      "cityName": "Marasul",
      "lat": 44.85,
      "lng": 27.966667
    },
    {
      "cityName": "Martacesti",
      "lat": 45.266667,
      "lng": 27.8
    },
    {
      "cityName": "Morotesti",
      "lat": 45.116667,
      "lng": 27.733333
    },
    {
      "cityName": "Movila Miresei",
      "lat": 45.216667,
      "lng": 27.6
    },
    {
      "cityName": "Muchea",
      "lat": 45.333333,
      "lng": 27.8
    },
    {
      "cityName": "Mucheni",
      "lat": 45.316667,
      "lng": 27.85
    },
    {
      "cityName": "Mucuroaia",
      "lat": 45.066667,
      "lng": 28.133333
    },
    {
      "cityName": "Muntele Victoria",
      "lat": 45.1,
      "lng": 28.183333
    },
    {
      "cityName": "Nazârul",
      "lat": 45.3,
      "lng": 27.85
    },
    {
      "cityName": "Nazîru Nou",
      "lat": 45.3,
      "lng": 27.816667
    },
    {
      "cityName": "Nedelcu Chercea",
      "lat": 45.283333,
      "lng": 27.95
    },
    {
      "cityName": "Nedelcul",
      "lat": 44.8,
      "lng": 27.9
    },
    {
      "cityName": "Nicolescu",
      "lat": 44.816667,
      "lng": 27.833333
    },
    {
      "cityName": "Nifon",
      "lat": 45.15,
      "lng": 28.366667
    },
    {
      "cityName": "Oancea",
      "lat": 45.35,
      "lng": 27.7
    },
    {
      "cityName": "Oprisenesti",
      "lat": 45.15,
      "lng": 27.566667
    },
    {
      "cityName": "Osmanul",
      "lat": 45.116667,
      "lng": 27.816667
    },
    {
      "cityName": "Ostrov",
      "lat": 44.933333,
      "lng": 28.15
    },
    {
      "cityName": "Panesti",
      "lat": 44.983333,
      "lng": 27.583333
    },
    {
      "cityName": "Peceneaga",
      "lat": 45.016667,
      "lng": 28.133333
    },
    {
      "cityName": "Perisorul",
      "lat": 45.116667,
      "lng": 27.483333
    },
    {
      "cityName": "Piatra Rosie",
      "lat": 45.083333,
      "lng": 28.266667
    },
    {
      "cityName": "Pietroiu",
      "lat": 45.316667,
      "lng": 27.866667
    },
    {
      "cityName": "Pitulatii Noi",
      "lat": 45.35,
      "lng": 27.6
    },
    {
      "cityName": "Plopi",
      "lat": 44.766667,
      "lng": 27.983333
    },
    {
      "cityName": "Plopul",
      "lat": 45.166667,
      "lng": 27.5
    },
    {
      "cityName": "Plopu Nou",
      "lat": 45.15,
      "lng": 27.5
    },
    {
      "cityName": "Polizesti",
      "lat": 44.866667,
      "lng": 27.8
    },
    {
      "cityName": "Punctu Piatra Frecatei",
      "lat": 44.9,
      "lng": 28.116667
    },
    {
      "cityName": "Racovita",
      "lat": 45.3,
      "lng": 27.45
    },
    {
      "cityName": "Radu Negru",
      "lat": 45.25,
      "lng": 27.95
    },
    {
      "cityName": "Rahman",
      "lat": 44.816667,
      "lng": 28.266667
    },
    {
      "cityName": "Râmnicelul",
      "lat": 45.283333,
      "lng": 27.533333
    },
    {
      "cityName": "Romanul",
      "lat": 45.283333,
      "lng": 27.733333
    },
    {
      "cityName": "Satnoeni",
      "lat": 45,
      "lng": 27.566667
    },
    {
      "cityName": "Scortarul Nou",
      "lat": 45.316667,
      "lng": 27.6
    },
    {
      "cityName": "Scortarul Vechi",
      "lat": 45.216667,
      "lng": 27.733333
    },
    {
      "cityName": "Sihleanul",
      "lat": 45.35,
      "lng": 27.65
    },
    {
      "cityName": "Silistrarul",
      "lat": 45.166667,
      "lng": 27.8
    },
    {
      "cityName": "Stanca",
      "lat": 44.883333,
      "lng": 27.816667
    },
    {
      "cityName": "Stancuta",
      "lat": 44.9,
      "lng": 27.833333
    },
    {
      "cityName": "Stoenesti",
      "lat": 44.8,
      "lng": 28.033333
    },
    {
      "cityName": "Sutesti",
      "lat": 45.216667,
      "lng": 27.433333
    },
    {
      "cityName": "Tacau",
      "lat": 44.95,
      "lng": 27.933333
    },
    {
      "cityName": "Tepes Voda",
      "lat": 45.166667,
      "lng": 27.616667
    },
    {
      "cityName": "Tibanesti",
      "lat": 44.983333,
      "lng": 27.8
    },
    {
      "cityName": "Tichilesti",
      "lat": 45.116667,
      "lng": 27.9
    },
    {
      "cityName": "Traian",
      "lat": 45.183333,
      "lng": 27.733333
    },
    {
      "cityName": "Tudor Vladimirescu",
      "lat": 45.216667,
      "lng": 27.8
    },
    {
      "cityName": "Tufesti",
      "lat": 45.05,
      "lng": 27.816667
    },
    {
      "cityName": "Turcoaia",
      "lat": 45.116667,
      "lng": 28.183333
    },
    {
      "cityName": "Urleasca",
      "lat": 45.133333,
      "lng": 27.65
    },
    {
      "cityName": "Vadeni",
      "lat": 45.366667,
      "lng": 27.933333
    },
    {
      "cityName": "Valea-Cânepei",
      "lat": 45.083333,
      "lng": 27.816667
    },
    {
      "cityName": "Varsatura",
      "lat": 45.233333,
      "lng": 27.933333
    },
    {
      "cityName": "Vatra Veche",
      "lat": 45.266667,
      "lng": 27.966667
    },
    {
      "cityName": "Vintilesti",
      "lat": 45.066667,
      "lng": 27.566667
    },
    {
      "cityName": "Vizirul",
      "lat": 45.016667,
      "lng": 27.7
    }
  ]
}