{
  "name": "Satu Mare",
  "cities": [
    {
      "cityName": "Acas",
      "lat": 47.533333,
      "lng": 22.783333
    },
    {
      "cityName": "Adrian",
      "lat": 47.9,
      "lng": 23.133333
    },
    {
      "cityName": "Agris",
      "lat": 47.883333,
      "lng": 23.016667
    },
    {
      "cityName": "Aliceni",
      "lat": 47.966667,
      "lng": 23.3
    },
    {
      "cityName": "Aliza",
      "lat": 47.683333,
      "lng": 22.716667
    },
    {
      "cityName": "Alsóhomoród",
      "lat": 47.666667,
      "lng": 23.083333
    },
    {
      "cityName": "Amat",
      "lat": 47.75,
      "lng": 22.916667
    },
    {
      "cityName": "Ambud",
      "lat": 47.766667,
      "lng": 22.95
    },
    {
      "cityName": "Apa",
      "lat": 47.766667,
      "lng": 23.2
    },
    {
      "cityName": "Apateu",
      "lat": 47.766667,
      "lng": 23
    },
    {
      "cityName": "Arded",
      "lat": 47.633333,
      "lng": 22.883333
    },
    {
      "cityName": "Asuagiul-de-Sus",
      "lat": 47.566667,
      "lng": 23.183333
    },
    {
      "cityName": "Atea",
      "lat": 47.866667,
      "lng": 22.783333
    },
    {
      "cityName": "Baba Novac",
      "lat": 47.633333,
      "lng": 22.833333
    },
    {
      "cityName": "Babasesti",
      "lat": 47.766667,
      "lng": 23.1
    },
    {
      "cityName": "Babesti",
      "lat": 47.966667,
      "lng": 23.083333
    },
    {
      "cityName": "Baile Tartului",
      "lat": 48.016667,
      "lng": 23.266667
    },
    {
      "cityName": "Baita",
      "lat": 47.533333,
      "lng": 23.15
    },
    {
      "cityName": "Batarci",
      "lat": 48.033333,
      "lng": 23.166667
    },
    {
      "cityName": "Belthiug",
      "lat": 47.55,
      "lng": 22.85
    },
    {
      "cityName": "Bercu",
      "lat": 47.916667,
      "lng": 22.883333
    },
    {
      "cityName": "Berea",
      "lat": 47.683333,
      "lng": 22.35
    },
    {
      "cityName": "Berindan",
      "lat": 47.783333,
      "lng": 23.016667
    },
    {
      "cityName": "Berveni",
      "lat": 47.75,
      "lng": 22.466667
    },
    {
      "cityName": "Bocicau",
      "lat": 48.1,
      "lng": 23.15
    },
    {
      "cityName": "Boghis",
      "lat": 47.766667,
      "lng": 22.666667
    },
    {
      "cityName": "Boinesti",
      "lat": 47.916667,
      "lng": 23.35
    },
    {
      "cityName": "Bolda",
      "lat": 47.533333,
      "lng": 22.916667
    },
    {
      "cityName": "Botiz",
      "lat": 47.833333,
      "lng": 22.95
    },
    {
      "cityName": "Bükkszoldobágy",
      "lat": 47.6,
      "lng": 23.05
    },
    {
      "cityName": "Calinesti",
      "lat": 47.9,
      "lng": 23.3
    },
    {
      "cityName": "Camarazana",
      "lat": 48,
      "lng": 23.316667
    },
    {
      "cityName": "Camin",
      "lat": 47.733333,
      "lng": 22.483333
    },
    {
      "cityName": "Capleni",
      "lat": 47.716667,
      "lng": 22.5
    },
    {
      "cityName": "Caraseu",
      "lat": 47.733333,
      "lng": 23.1
    },
    {
      "cityName": "Carei",
      "lat": 47.683333,
      "lng": 22.466667
    },
    {
      "cityName": "Cauas",
      "lat": 47.566667,
      "lng": 22.55
    },
    {
      "cityName": "Chilia",
      "lat": 47.633333,
      "lng": 23.083333
    },
    {
      "cityName": "Cidreag",
      "lat": 47.983333,
      "lng": 22.966667
    },
    {
      "cityName": "Cig",
      "lat": 47.533333,
      "lng": 22.633333
    },
    {
      "cityName": "Cionchesti",
      "lat": 47.7,
      "lng": 22.916667
    },
    {
      "cityName": "Ciumesti",
      "lat": 47.65,
      "lng": 22.333333
    },
    {
      "cityName": "Ciuperceni",
      "lat": 47.85,
      "lng": 23.066667
    },
    {
      "cityName": "Colonel Paulian",
      "lat": 47.733333,
      "lng": 22.683333
    },
    {
      "cityName": "Colonia",
      "lat": 47.8,
      "lng": 22.766667
    },
    {
      "cityName": "Comlausa",
      "lat": 48.05,
      "lng": 23.166667
    },
    {
      "cityName": "Corod",
      "lat": 47.766667,
      "lng": 23.016667
    },
    {
      "cityName": "Craidorolt",
      "lat": 47.616667,
      "lng": 22.7
    },
    {
      "cityName": "Cucu",
      "lat": 47.783333,
      "lng": 22.966667
    },
    {
      "cityName": "Cucu-Martinesti",
      "lat": 47.783333,
      "lng": 22.933333
    },
    {
      "cityName": "Culciul-Mare",
      "lat": 47.75,
      "lng": 23.05
    },
    {
      "cityName": "Culciul Mic",
      "lat": 47.766667,
      "lng": 23.033333
    },
    {
      "cityName": "Cuta",
      "lat": 47.533333,
      "lng": 23
    },
    {
      "cityName": "Dacia",
      "lat": 47.733333,
      "lng": 22.716667
    },
    {
      "cityName": "Dara",
      "lat": 47.816667,
      "lng": 22.75
    },
    {
      "cityName": "Dobolt",
      "lat": 47.983333,
      "lng": 23.033333
    },
    {
      "cityName": "Dobra",
      "lat": 47.483333,
      "lng": 22.833333
    },
    {
      "cityName": "Domahida",
      "lat": 47.716667,
      "lng": 22.6
    },
    {
      "cityName": "Dorolt",
      "lat": 47.85,
      "lng": 22.816667
    },
    {
      "cityName": "Draguseni",
      "lat": 47.916667,
      "lng": 23.083333
    },
    {
      "cityName": "Dumbrava",
      "lat": 47.816667,
      "lng": 23.1
    },
    {
      "cityName": "Eriu-Sâncraiu",
      "lat": 47.583333,
      "lng": 22.666667
    },
    {
      "cityName": "Eteni",
      "lat": 47.783333,
      "lng": 23.033333
    },
    {
      "cityName": "Foeni",
      "lat": 47.7,
      "lng": 22.383333
    },
    {
      "cityName": "Gara Ghilvaci",
      "lat": 47.7,
      "lng": 22.683333
    },
    {
      "cityName": "Gerausa",
      "lat": 47.6,
      "lng": 22.933333
    },
    {
      "cityName": "Ghenci",
      "lat": 47.633333,
      "lng": 22.533333
    },
    {
      "cityName": "Gherta Mare",
      "lat": 47.966667,
      "lng": 23.216667
    },
    {
      "cityName": "Gherta Mica",
      "lat": 47.933333,
      "lng": 23.233333
    },
    {
      "cityName": "Ghilvaci",
      "lat": 47.683333,
      "lng": 22.666667
    },
    {
      "cityName": "Ghirisa",
      "lat": 47.6,
      "lng": 22.8
    },
    {
      "cityName": "Ghirolt",
      "lat": 47.6,
      "lng": 22.616667
    },
    {
      "cityName": "Giungi",
      "lat": 47.566667,
      "lng": 22.783333
    },
    {
      "cityName": "Goza Oarului",
      "lat": 47.816667,
      "lng": 22.716667
    },
    {
      "cityName": "Halmeriu",
      "lat": 47.966667,
      "lng": 23.016667
    },
    {
      "cityName": "Halmeu Vii",
      "lat": 47.983333,
      "lng": 23.016667
    },
    {
      "cityName": "Hirip",
      "lat": 47.716667,
      "lng": 23
    },
    {
      "cityName": "Hodisa",
      "lat": 47.583333,
      "lng": 22.983333
    },
    {
      "cityName": "Homorod-de Mijloc",
      "lat": 47.633333,
      "lng": 23.066667
    },
    {
      "cityName": "Homorodu de Sus",
      "lat": 47.616667,
      "lng": 23.05
    },
    {
      "cityName": "Hotoan",
      "lat": 47.55,
      "lng": 22.483333
    },
    {
      "cityName": "Hurez",
      "lat": 47.466667,
      "lng": 22.85
    },
    {
      "cityName": "Ianculesti",
      "lat": 47.633333,
      "lng": 22.416667
    },
    {
      "cityName": "Iojibeni",
      "lat": 47.783333,
      "lng": 23.133333
    },
    {
      "cityName": "Iojib",
      "lat": 47.816667,
      "lng": 23.166667
    },
    {
      "cityName": "Istrau",
      "lat": 47.616667,
      "lng": 22.65
    },
    {
      "cityName": "Lazar",
      "lat": 47.85,
      "lng": 22.866667
    },
    {
      "cityName": "Lechinta",
      "lat": 47.933333,
      "lng": 23.3
    },
    {
      "cityName": "Lipau",
      "lat": 47.716667,
      "lng": 23.133333
    },
    {
      "cityName": "Livada Colonia",
      "lat": 47.866667,
      "lng": 23.116667
    },
    {
      "cityName": "Livada",
      "lat": 47.866667,
      "lng": 23.133333
    },
    {
      "cityName": "Madaras",
      "lat": 47.683333,
      "lng": 22.85
    },
    {
      "cityName": "Marius",
      "lat": 47.666667,
      "lng": 23.183333
    },
    {
      "cityName": "Marna Noua",
      "lat": 47.65,
      "lng": 22.4
    },
    {
      "cityName": "Mecentiu",
      "lat": 47.583333,
      "lng": 22.616667
    },
    {
      "cityName": "Mediesu Aurit",
      "lat": 47.783333,
      "lng": 23.15
    },
    {
      "cityName": "Medisa",
      "lat": 47.6,
      "lng": 23
    },
    {
      "cityName": "Mehtelek",
      "lat": 47.9,
      "lng": 22.9
    },
    {
      "cityName": "Micula Colonia",
      "lat": 47.9,
      "lng": 22.95
    },
    {
      "cityName": "Mihaeni",
      "lat": 47.55,
      "lng": 22.733333
    },
    {
      "cityName": "Moftinul-Mare",
      "lat": 47.666667,
      "lng": 22.666667
    },
    {
      "cityName": "Moftinul Mic",
      "lat": 47.683333,
      "lng": 22.6
    },
    {
      "cityName": "Necopoi",
      "lat": 47.683333,
      "lng": 23.066667
    },
    {
      "cityName": "Noroieni",
      "lat": 47.883333,
      "lng": 22.883333
    },
    {
      "cityName": "Odesti",
      "lat": 47.516667,
      "lng": 23.1
    },
    {
      "cityName": "Odoreul",
      "lat": 47.8,
      "lng": 23
    },
    {
      "cityName": "Orasul Nou",
      "lat": 47.833333,
      "lng": 23.283333
    },
    {
      "cityName": "Orasu Nou Vii",
      "lat": 47.833333,
      "lng": 23.3
    },
    {
      "cityName": "Padurea Urziceni",
      "lat": 47.733333,
      "lng": 22.4
    },
    {
      "cityName": "Paulesti",
      "lat": 47.783333,
      "lng": 22.916667
    },
    {
      "cityName": "Peles",
      "lat": 47.883333,
      "lng": 22.816667
    },
    {
      "cityName": "Pelisor",
      "lat": 47.9,
      "lng": 22.85
    },
    {
      "cityName": "Petea",
      "lat": 47.85,
      "lng": 22.783333
    },
    {
      "cityName": "Petin",
      "lat": 47.766667,
      "lng": 22.966667
    },
    {
      "cityName": "Piscari",
      "lat": 47.65,
      "lng": 22.733333
    },
    {
      "cityName": "Ponivas",
      "lat": 47.666667,
      "lng": 22.35
    },
    {
      "cityName": "Porumbesti",
      "lat": 47.983333,
      "lng": 22.983333
    },
    {
      "cityName": "Potaul",
      "lat": 47.75,
      "lng": 23.116667
    },
    {
      "cityName": "Radulesti",
      "lat": 47.6,
      "lng": 22.583333
    },
    {
      "cityName": "Ratesti",
      "lat": 47.583333,
      "lng": 22.883333
    },
    {
      "cityName": "Remetea Oasului",
      "lat": 47.883333,
      "lng": 23.316667
    },
    {
      "cityName": "Romanesti",
      "lat": 47.783333,
      "lng": 23.116667
    },
    {
      "cityName": "Rosiori",
      "lat": 47.716667,
      "lng": 23.25
    },
    {
      "cityName": "Rusni",
      "lat": 47.7,
      "lng": 22.95
    },
    {
      "cityName": "Sâi",
      "lat": 47.683333,
      "lng": 23.133333
    },
    {
      "cityName": "Saliste",
      "lat": 47.5,
      "lng": 23.116667
    },
    {
      "cityName": "Sandra",
      "lat": 47.566667,
      "lng": 22.916667
    },
    {
      "cityName": "Sanmiclauus",
      "lat": 47.633333,
      "lng": 22.6
    },
    {
      "cityName": "Saratura",
      "lat": 47.633333,
      "lng": 22.95
    },
    {
      "cityName": "Sarlaul",
      "lat": 48.066667,
      "lng": 23.133333
    },
    {
      "cityName": "Satmarel",
      "lat": 47.733333,
      "lng": 22.8
    },
    {
      "cityName": "Satmar",
      "lat": 47.8,
      "lng": 22.883333
    },
    {
      "cityName": "Satul Mic",
      "lat": 47.583333,
      "lng": 22.7
    },
    {
      "cityName": "Secheresa",
      "lat": 47.466667,
      "lng": 22.8
    },
    {
      "cityName": "Socond",
      "lat": 47.566667,
      "lng": 22.95
    },
    {
      "cityName": "Soconzel",
      "lat": 47.516667,
      "lng": 23
    },
    {
      "cityName": "Someseni",
      "lat": 47.75,
      "lng": 23.2
    },
    {
      "cityName": "Stâna",
      "lat": 47.516667,
      "lng": 22.966667
    },
    {
      "cityName": "Tamaseni",
      "lat": 48.016667,
      "lng": 23.15
    },
    {
      "cityName": "Tarsolt",
      "lat": 47.95,
      "lng": 23.35
    },
    {
      "cityName": "Tasnadul Nou",
      "lat": 47.516667,
      "lng": 22.566667
    },
    {
      "cityName": "Tataresti",
      "lat": 47.683333,
      "lng": 23
    },
    {
      "cityName": "Teghea",
      "lat": 47.583333,
      "lng": 22.733333
    },
    {
      "cityName": "Tirac",
      "lat": 47.7,
      "lng": 23.033333
    },
    {
      "cityName": "Tiream",
      "lat": 47.616667,
      "lng": 22.466667
    },
    {
      "cityName": "Turt",
      "lat": 47.983333,
      "lng": 23.216667
    },
    {
      "cityName": "Turulung",
      "lat": 47.933333,
      "lng": 23.083333
    },
    {
      "cityName": "Unimat",
      "lat": 47.516667,
      "lng": 22.75
    },
    {
      "cityName": "Vagas",
      "lat": 48.1,
      "lng": 23.2
    },
    {
      "cityName": "Valea Saca",
      "lat": 48.083333,
      "lng": 23.166667
    },
    {
      "cityName": "Valea Vinului",
      "lat": 47.716667,
      "lng": 23.183333
    },
    {
      "cityName": "Vezendin",
      "lat": 47.583333,
      "lng": 22.433333
    },
    {
      "cityName": "Viile Iojibului",
      "lat": 47.816667,
      "lng": 23.15
    },
    {
      "cityName": "Viile-Satmarului",
      "lat": 47.666667,
      "lng": 22.95
    },
    {
      "cityName": "Vinatoresti",
      "lat": 47.8,
      "lng": 22.983333
    }
  ]
}