{
  "name": "Hunedoara",
  "cities": [
    {
      "cityName": "Abucea",
      "lat": 45.9,
      "lng": 22.533333
    },
    {
      "cityName": "Almasul Mic",
      "lat": 45.816667,
      "lng": 22.9
    },
    {
      "cityName": "Almasul Sec",
      "lat": 45.85,
      "lng": 22.866667
    },
    {
      "cityName": "Alsótamásd",
      "lat": 46.016667,
      "lng": 22.483333
    },
    {
      "cityName": "Alunu",
      "lat": 45.683333,
      "lng": 23.1
    },
    {
      "cityName": "Aranies",
      "lat": 45.8,
      "lng": 22.733333
    },
    {
      "cityName": "Archia",
      "lat": 45.85,
      "lng": 22.9
    },
    {
      "cityName": "Bacea",
      "lat": 45.95,
      "lng": 22.666667
    },
    {
      "cityName": "Bacia",
      "lat": 45.8,
      "lng": 23.016667
    },
    {
      "cityName": "Baia Craiului",
      "lat": 45.683333,
      "lng": 22.816667
    },
    {
      "cityName": "Balacia",
      "lat": 46.183333,
      "lng": 22.5
    },
    {
      "cityName": "Balana",
      "lat": 45.683333,
      "lng": 22.833333
    },
    {
      "cityName": "Balomir",
      "lat": 45.583333,
      "lng": 23
    },
    {
      "cityName": "Bârcea-Mare",
      "lat": 45.833333,
      "lng": 22.966667
    },
    {
      "cityName": "Barcea-Mica",
      "lat": 45.816667,
      "lng": 22.95
    },
    {
      "cityName": "Basarabita",
      "lat": 46.2,
      "lng": 22.55
    },
    {
      "cityName": "Batalar",
      "lat": 45.7,
      "lng": 23.016667
    },
    {
      "cityName": "Batiz",
      "lat": 45.766667,
      "lng": 23
    },
    {
      "cityName": "Berca",
      "lat": 45.65,
      "lng": 23.016667
    },
    {
      "cityName": "Berthelot",
      "lat": 45.616667,
      "lng": 22.883333
    },
    {
      "cityName": "Biscaria",
      "lat": 45.85,
      "lng": 23.033333
    },
    {
      "cityName": "Bobaia",
      "lat": 45.683333,
      "lng": 23.116667
    },
    {
      "cityName": "Boia-Bîrzii",
      "lat": 45.8,
      "lng": 22.816667
    },
    {
      "cityName": "Boita",
      "lat": 45.6,
      "lng": 22.816667
    },
    {
      "cityName": "Boiu de Jos",
      "lat": 46,
      "lng": 22.6
    },
    {
      "cityName": "Boiu de Sus",
      "lat": 46.016667,
      "lng": 22.583333
    },
    {
      "cityName": "Borea",
      "lat": 45.616667,
      "lng": 23.016667
    },
    {
      "cityName": "Bos",
      "lat": 45.75,
      "lng": 22.833333
    },
    {
      "cityName": "Bosorod",
      "lat": 45.683333,
      "lng": 23.083333
    },
    {
      "cityName": "Botana",
      "lat": 45.666667,
      "lng": 22.866667
    },
    {
      "cityName": "Bradatel",
      "lat": 45.983333,
      "lng": 22.533333
    },
    {
      "cityName": "Brâznic",
      "lat": 45.916667,
      "lng": 22.65
    },
    {
      "cityName": "Bretea Streiului",
      "lat": 45.666667,
      "lng": 23
    },
    {
      "cityName": "Bucium",
      "lat": 45.6,
      "lng": 23
    },
    {
      "cityName": "Bucium-Orlea",
      "lat": 45.583333,
      "lng": 22.966667
    },
    {
      "cityName": "Buituri",
      "lat": 45.766667,
      "lng": 22.916667
    },
    {
      "cityName": "Bujoru",
      "lat": 45.866667,
      "lng": 22.616667
    },
    {
      "cityName": "Burjuc",
      "lat": 45.95,
      "lng": 22.483333
    },
    {
      "cityName": "Calan",
      "lat": 45.733333,
      "lng": 22.983333
    },
    {
      "cityName": "Calanul-Mic",
      "lat": 45.75,
      "lng": 23
    },
    {
      "cityName": "Câmpuri de-Sus",
      "lat": 45.95,
      "lng": 22.55
    },
    {
      "cityName": "Câmpuri Surduc",
      "lat": 45.933333,
      "lng": 22.55
    },
    {
      "cityName": "Cârjiti",
      "lat": 45.85,
      "lng": 22.833333
    },
    {
      "cityName": "Carmazinesti",
      "lat": 46.016667,
      "lng": 22.633333
    },
    {
      "cityName": "Cazanesti",
      "lat": 46.15,
      "lng": 22.5
    },
    {
      "cityName": "Cerbia",
      "lat": 46.033333,
      "lng": 22.45
    },
    {
      "cityName": "Cerisor",
      "lat": 45.75,
      "lng": 22.766667
    },
    {
      "cityName": "Certeju de Jos",
      "lat": 46.016667,
      "lng": 22.65
    },
    {
      "cityName": "Cherghes",
      "lat": 45.85,
      "lng": 22.8
    },
    {
      "cityName": "Chitid",
      "lat": 45.7,
      "lng": 23.066667
    },
    {
      "cityName": "Cincis",
      "lat": 45.7,
      "lng": 22.866667
    },
    {
      "cityName": "Ciuleni",
      "lat": 45.683333,
      "lng": 22.783333
    },
    {
      "cityName": "Ciulpaz",
      "lat": 45.783333,
      "lng": 22.783333
    },
    {
      "cityName": "Coaja",
      "lat": 46,
      "lng": 22.65
    },
    {
      "cityName": "Cosesti",
      "lat": 45.9,
      "lng": 22.416667
    },
    {
      "cityName": "Cozia",
      "lat": 45.866667,
      "lng": 22.85
    },
    {
      "cityName": "Craguis",
      "lat": 45.633333,
      "lng": 22.9
    },
    {
      "cityName": "Criseni",
      "lat": 45.733333,
      "lng": 23
    },
    {
      "cityName": "Cuies",
      "lat": 45.95,
      "lng": 22.633333
    },
    {
      "cityName": "Curpenii-Silvasului",
      "lat": 45.65,
      "lng": 22.816667
    },
    {
      "cityName": "Cutin",
      "lat": 45.8,
      "lng": 22.766667
    },
    {
      "cityName": "Dâncul-Mare",
      "lat": 45.75,
      "lng": 23.116667
    },
    {
      "cityName": "Dâncul Mic",
      "lat": 45.766667,
      "lng": 23.133333
    },
    {
      "cityName": "Danulesti",
      "lat": 46.05,
      "lng": 22.583333
    },
    {
      "cityName": "Dobâca",
      "lat": 45.65,
      "lng": 22.75
    },
    {
      "cityName": "Dobra",
      "lat": 45.916667,
      "lng": 22.566667
    },
    {
      "cityName": "Dumbrava",
      "lat": 45.8,
      "lng": 22.783333
    },
    {
      "cityName": "Fagetel",
      "lat": 45.883333,
      "lng": 22.583333
    },
    {
      "cityName": "Farcadin",
      "lat": 45.6,
      "lng": 22.866667
    },
    {
      "cityName": "Fintoaga",
      "lat": 45.916667,
      "lng": 22.433333
    },
    {
      "cityName": "Gânsaga",
      "lat": 45.633333,
      "lng": 23.033333
    },
    {
      "cityName": "Gauricea",
      "lat": 45.616667,
      "lng": 22.866667
    },
    {
      "cityName": "Gelari",
      "lat": 45.716667,
      "lng": 22.783333
    },
    {
      "cityName": "Glodghilesti",
      "lat": 45.966667,
      "lng": 22.466667
    },
    {
      "cityName": "Godinesti",
      "lat": 46.033333,
      "lng": 22.533333
    },
    {
      "cityName": "Goles",
      "lat": 45.683333,
      "lng": 22.75
    },
    {
      "cityName": "Gothatea",
      "lat": 45.95,
      "lng": 22.6
    },
    {
      "cityName": "Govajdia",
      "lat": 45.733333,
      "lng": 22.816667
    },
    {
      "cityName": "Grid",
      "lat": 45.733333,
      "lng": 23.1
    },
    {
      "cityName": "Grind",
      "lat": 45.866667,
      "lng": 22.483333
    },
    {
      "cityName": "Gros",
      "lat": 45.75,
      "lng": 22.9
    },
    {
      "cityName": "Gruiu Lung",
      "lat": 46.2,
      "lng": 22.516667
    },
    {
      "cityName": "Hasdat",
      "lat": 45.733333,
      "lng": 22.933333
    },
    {
      "cityName": "Hateg",
      "lat": 45.616667,
      "lng": 22.95
    },
    {
      "cityName": "Heidendorf",
      "lat": 46.05,
      "lng": 22.45
    },
    {
      "cityName": "Ilia",
      "lat": 45.933333,
      "lng": 22.65
    },
    {
      "cityName": "Jeledinti",
      "lat": 45.8,
      "lng": 23.066667
    },
    {
      "cityName": "Josani",
      "lat": 45.8,
      "lng": 22.866667
    },
    {
      "cityName": "Lapugiu de Jos",
      "lat": 45.883333,
      "lng": 22.483333
    },
    {
      "cityName": "Lapusnic",
      "lat": 45.916667,
      "lng": 22.616667
    },
    {
      "cityName": "Lasau",
      "lat": 45.916667,
      "lng": 22.5
    },
    {
      "cityName": "Maceu",
      "lat": 45.666667,
      "lng": 22.983333
    },
    {
      "cityName": "Magura",
      "lat": 45.783333,
      "lng": 23.066667
    },
    {
      "cityName": "Manerau",
      "lat": 45.783333,
      "lng": 22.883333
    },
    {
      "cityName": "Mihaesti",
      "lat": 45.883333,
      "lng": 22.55
    },
    {
      "cityName": "Moara Ungurului",
      "lat": 45.683333,
      "lng": 22.85
    },
    {
      "cityName": "Nadastia de Jos",
      "lat": 45.716667,
      "lng": 22.966667
    },
    {
      "cityName": "Nadastia de Sus",
      "lat": 45.7,
      "lng": 22.933333
    },
    {
      "cityName": "Nalativad",
      "lat": 45.583333,
      "lng": 22.933333
    },
    {
      "cityName": "Obarsia",
      "lat": 46.133333,
      "lng": 22.433333
    },
    {
      "cityName": "Ocisei",
      "lat": 46.216667,
      "lng": 22.55
    },
    {
      "cityName": "Ocolis",
      "lat": 45.683333,
      "lng": 22.95
    },
    {
      "cityName": "Ocolisul-Mic",
      "lat": 45.7,
      "lng": 23.133333
    },
    {
      "cityName": "Ohaba",
      "lat": 45.866667,
      "lng": 22.45
    },
    {
      "cityName": "Ohaba-Streiului",
      "lat": 45.716667,
      "lng": 23.033333
    },
    {
      "cityName": "Panc",
      "lat": 45.85,
      "lng": 22.516667
    },
    {
      "cityName": "Panc Seliste",
      "lat": 45.866667,
      "lng": 22.516667
    },
    {
      "cityName": "Pestisul-Mare",
      "lat": 45.8,
      "lng": 22.933333
    },
    {
      "cityName": "Pestisul-Mic",
      "lat": 45.8,
      "lng": 22.883333
    },
    {
      "cityName": "Petreni",
      "lat": 45.783333,
      "lng": 23.016667
    },
    {
      "cityName": "Petresti",
      "lat": 46,
      "lng": 22.516667
    },
    {
      "cityName": "Plopi",
      "lat": 45.633333,
      "lng": 23
    },
    {
      "cityName": "Plop",
      "lat": 45.716667,
      "lng": 22.766667
    },
    {
      "cityName": "Pojoga",
      "lat": 45.983333,
      "lng": 22.4
    },
    {
      "cityName": "Popes",
      "lat": 45.816667,
      "lng": 22.85
    },
    {
      "cityName": "Racastia",
      "lat": 45.766667,
      "lng": 22.883333
    },
    {
      "cityName": "Radulesti",
      "lat": 45.883333,
      "lng": 22.633333
    },
    {
      "cityName": "Rapas",
      "lat": 45.816667,
      "lng": 23.066667
    },
    {
      "cityName": "Rea",
      "lat": 45.583333,
      "lng": 22.916667
    },
    {
      "cityName": "Roscani",
      "lat": 45.866667,
      "lng": 22.566667
    },
    {
      "cityName": "Ruda",
      "lat": 45.7,
      "lng": 22.75
    },
    {
      "cityName": "Runcsor",
      "lat": 45.983333,
      "lng": 22.566667
    },
    {
      "cityName": "Rusi",
      "lat": 45.7,
      "lng": 23
    },
    {
      "cityName": "Sacamas",
      "lat": 45.916667,
      "lng": 22.683333
    },
    {
      "cityName": "Sameschdorf",
      "lat": 46,
      "lng": 22.45
    },
    {
      "cityName": "Sâncrai",
      "lat": 45.75,
      "lng": 22.983333
    },
    {
      "cityName": "Santamaria-de Piatra",
      "lat": 45.766667,
      "lng": 23.016667
    },
    {
      "cityName": "Sântandrei",
      "lat": 45.85,
      "lng": 22.966667
    },
    {
      "cityName": "Sântuhalm",
      "lat": 45.85,
      "lng": 22.95
    },
    {
      "cityName": "Sârbi",
      "lat": 45.966667,
      "lng": 22.716667
    },
    {
      "cityName": "Saulesti",
      "lat": 45.866667,
      "lng": 22.983333
    },
    {
      "cityName": "Silvasu de Jos",
      "lat": 45.65,
      "lng": 22.933333
    },
    {
      "cityName": "Silvasu de Sus",
      "lat": 45.65,
      "lng": 22.883333
    },
    {
      "cityName": "Simeria",
      "lat": 45.85,
      "lng": 23.016667
    },
    {
      "cityName": "Simeria Veche",
      "lat": 45.816667,
      "lng": 23.05
    },
    {
      "cityName": "Stancesti-Ohaba",
      "lat": 45.883333,
      "lng": 22.65
    },
    {
      "cityName": "Strei Sacel",
      "lat": 45.75,
      "lng": 23.016667
    },
    {
      "cityName": "Strei-Sângeorgiu",
      "lat": 45.716667,
      "lng": 23.016667
    },
    {
      "cityName": "Strei",
      "lat": 45.716667,
      "lng": 22.983333
    },
    {
      "cityName": "Stretea",
      "lat": 45.933333,
      "lng": 22.583333
    },
    {
      "cityName": "Tâmpa",
      "lat": 45.816667,
      "lng": 23.016667
    },
    {
      "cityName": "Tataresti",
      "lat": 45.95,
      "lng": 22.5
    },
    {
      "cityName": "Teiu",
      "lat": 45.9,
      "lng": 22.5
    },
    {
      "cityName": "Teliuc",
      "lat": 45.716667,
      "lng": 22.883333
    },
    {
      "cityName": "Teliucul Superior",
      "lat": 45.7,
      "lng": 22.883333
    },
    {
      "cityName": "Tisa",
      "lat": 45.95,
      "lng": 22.466667
    },
    {
      "cityName": "Tolia Mica",
      "lat": 45.8,
      "lng": 23.05
    },
    {
      "cityName": "Toltia",
      "lat": 45.8,
      "lng": 23.033333
    },
    {
      "cityName": "Tustea",
      "lat": 45.6,
      "lng": 22.85
    },
    {
      "cityName": "Ulies",
      "lat": 45.966667,
      "lng": 22.616667
    },
    {
      "cityName": "Ulm",
      "lat": 45.783333,
      "lng": 22.75
    },
    {
      "cityName": "Valar",
      "lat": 45.683333,
      "lng": 22.733333
    },
    {
      "cityName": "Vâlcelele-Bune",
      "lat": 45.65,
      "lng": 23.05
    },
    {
      "cityName": "Vâlcelele-Rele",
      "lat": 45.666667,
      "lng": 23.066667
    },
    {
      "cityName": "Valea Lunga",
      "lat": 45.983333,
      "lng": 22.683333
    },
    {
      "cityName": "Valea Nadrului",
      "lat": 45.8,
      "lng": 22.85
    },
    {
      "cityName": "Valeanu",
      "lat": 46.066667,
      "lng": 22.55
    },
    {
      "cityName": "Valea Sângeorgiului",
      "lat": 45.733333,
      "lng": 23.066667
    },
    {
      "cityName": "Valioara",
      "lat": 45.616667,
      "lng": 22.783333
    },
    {
      "cityName": "Vica",
      "lat": 46,
      "lng": 22.566667
    },
    {
      "cityName": "Vorta",
      "lat": 46.016667,
      "lng": 22.683333
    },
    {
      "cityName": "Zlasti",
      "lat": 45.733333,
      "lng": 22.866667
    }
  ]
}