{
  "name": "Ialomita",
  "cities": [
    {
      "cityName": "Albesti",
      "lat": 44.533333,
      "lng": 27.133333
    },
    {
      "cityName": "Amara",
      "lat": 44.616667,
      "lng": 27.316667
    },
    {
      "cityName": "Andrasesti",
      "lat": 44.566667,
      "lng": 27.133333
    },
    {
      "cityName": "Balasesti",
      "lat": 44.616667,
      "lng": 27.55
    },
    {
      "cityName": "Baraganul",
      "lat": 44.8,
      "lng": 27.516667
    },
    {
      "cityName": "Bataluri",
      "lat": 44.516667,
      "lng": 27.15
    },
    {
      "cityName": "Berestii-de-Sus",
      "lat": 44.8,
      "lng": 27.766667
    },
    {
      "cityName": "Bobu",
      "lat": 44.633333,
      "lng": 27.816667
    },
    {
      "cityName": "Bora",
      "lat": 44.55,
      "lng": 27.383333
    },
    {
      "cityName": "Brailita",
      "lat": 44.65,
      "lng": 27.816667
    },
    {
      "cityName": "Brateanu",
      "lat": 44.733333,
      "lng": 27.466667
    },
    {
      "cityName": "Bucsa",
      "lat": 44.716667,
      "lng": 27.55
    },
    {
      "cityName": "Bucu",
      "lat": 44.6,
      "lng": 27.5
    },
    {
      "cityName": "Budesti",
      "lat": 44.533333,
      "lng": 27.183333
    },
    {
      "cityName": "Buliga",
      "lat": 44.366667,
      "lng": 27.8
    },
    {
      "cityName": "Chichinetu",
      "lat": 44.816667,
      "lng": 27.283333
    },
    {
      "cityName": "Chioara",
      "lat": 44.65,
      "lng": 27.833333
    },
    {
      "cityName": "Chioibasesti",
      "lat": 44.783333,
      "lng": 27.266667
    },
    {
      "cityName": "Ciorusca",
      "lat": 44.716667,
      "lng": 27.566667
    },
    {
      "cityName": "Ciulnita",
      "lat": 44.533333,
      "lng": 27.35
    },
    {
      "cityName": "Cocargeaua Noua",
      "lat": 44.433333,
      "lng": 27.65
    },
    {
      "cityName": "Cogalniceanu",
      "lat": 44.683333,
      "lng": 27.733333
    },
    {
      "cityName": "Colonisti",
      "lat": 44.416667,
      "lng": 27.8
    },
    {
      "cityName": "Corcanu",
      "lat": 44.833333,
      "lng": 27.566667
    },
    {
      "cityName": "Cosambesti",
      "lat": 44.566667,
      "lng": 27.433333
    },
    {
      "cityName": "Crunti",
      "lat": 44.65,
      "lng": 27.116667
    },
    {
      "cityName": "Dâlga Mica",
      "lat": 44.533333,
      "lng": 27.1
    },
    {
      "cityName": "Dragalina",
      "lat": 44.433333,
      "lng": 27.316667
    },
    {
      "cityName": "Drajna Noua",
      "lat": 44.45,
      "lng": 27.316667
    },
    {
      "cityName": "Duca",
      "lat": 44.45,
      "lng": 27.55
    },
    {
      "cityName": "Dumitresti",
      "lat": 44.716667,
      "lng": 27.5
    },
    {
      "cityName": "Facaeni",
      "lat": 44.566667,
      "lng": 27.9
    },
    {
      "cityName": "Ferdinand I.",
      "lat": 44.533333,
      "lng": 27.716667
    },
    {
      "cityName": "Fetesti-Gara",
      "lat": 44.4,
      "lng": 27.816667
    },
    {
      "cityName": "Florica",
      "lat": 44.833333,
      "lng": 27.333333
    },
    {
      "cityName": "Fratilesti",
      "lat": 44.616667,
      "lng": 27.6
    },
    {
      "cityName": "Fundata",
      "lat": 44.583333,
      "lng": 27.183333
    },
    {
      "cityName": "Gaita",
      "lat": 44.566667,
      "lng": 27.883333
    },
    {
      "cityName": "Gara Marculesti",
      "lat": 44.433333,
      "lng": 27.5
    },
    {
      "cityName": "Gheorghe Lazar",
      "lat": 44.633333,
      "lng": 27.45
    },
    {
      "cityName": "Ghim Basani",
      "lat": 44.566667,
      "lng": 27.483333
    },
    {
      "cityName": "Ghimpati",
      "lat": 44.55,
      "lng": 27.216667
    },
    {
      "cityName": "Grivita",
      "lat": 44.733333,
      "lng": 27.283333
    },
    {
      "cityName": "Gura Ialomitei",
      "lat": 44.7,
      "lng": 27.766667
    },
    {
      "cityName": "Gura Vaei",
      "lat": 44.566667,
      "lng": 27.566667
    },
    {
      "cityName": "Hagieni",
      "lat": 44.65,
      "lng": 27.783333
    },
    {
      "cityName": "Harosora",
      "lat": 44.683333,
      "lng": 27.933333
    },
    {
      "cityName": "Iazu",
      "lat": 44.733333,
      "lng": 27.416667
    },
    {
      "cityName": "I. Lahovari",
      "lat": 44.433333,
      "lng": 27.483333
    },
    {
      "cityName": "Ion Ghica",
      "lat": 44.516667,
      "lng": 27.3
    },
    {
      "cityName": "Ivanesti",
      "lat": 44.533333,
      "lng": 27.283333
    },
    {
      "cityName": "Lacusteni",
      "lat": 44.6,
      "lng": 27.65
    },
    {
      "cityName": "Lateni",
      "lat": 44.533333,
      "lng": 27.9
    },
    {
      "cityName": "Luciul",
      "lat": 44.75,
      "lng": 27.733333
    },
    {
      "cityName": "Marsilieni",
      "lat": 44.533333,
      "lng": 27.083333
    },
    {
      "cityName": "Mihai-Bravul",
      "lat": 44.783333,
      "lng": 27.733333
    },
    {
      "cityName": "Milosesti",
      "lat": 44.733333,
      "lng": 27.233333
    },
    {
      "cityName": "Misleanul",
      "lat": 44.566667,
      "lng": 27.216667
    },
    {
      "cityName": "Motâlva",
      "lat": 44.633333,
      "lng": 27.283333
    },
    {
      "cityName": "Movila Gildaului",
      "lat": 44.55,
      "lng": 27.7
    },
    {
      "cityName": "Netoti",
      "lat": 44.566667,
      "lng": 27.3
    },
    {
      "cityName": "Nicolesti",
      "lat": 44.75,
      "lng": 27.216667
    },
    {
      "cityName": "Ograda",
      "lat": 44.616667,
      "lng": 27.583333
    },
    {
      "cityName": "Orboesti",
      "lat": 44.566667,
      "lng": 27.1
    },
    {
      "cityName": "Piua-Petrei",
      "lat": 44.7,
      "lng": 27.866667
    },
    {
      "cityName": "Platonesti",
      "lat": 44.6,
      "lng": 27.716667
    },
    {
      "cityName": "Poiana",
      "lat": 44.55,
      "lng": 27.266667
    },
    {
      "cityName": "Pribegi",
      "lat": 44.55,
      "lng": 27.283333
    },
    {
      "cityName": "Rosiori",
      "lat": 44.8,
      "lng": 27.383333
    },
    {
      "cityName": "Satu Înainte",
      "lat": 44.8,
      "lng": 27.5
    },
    {
      "cityName": "Sfântu-Vasile",
      "lat": 44.65,
      "lng": 27.8
    },
    {
      "cityName": "Slobozia Noua",
      "lat": 44.6,
      "lng": 27.383333
    },
    {
      "cityName": "Slobozia",
      "lat": 44.566667,
      "lng": 27.366667
    },
    {
      "cityName": "Smirna",
      "lat": 44.716667,
      "lng": 27.35
    },
    {
      "cityName": "Socoalele",
      "lat": 44.466667,
      "lng": 27.15
    },
    {
      "cityName": "Strachina",
      "lat": 44.633333,
      "lng": 27.633333
    },
    {
      "cityName": "Suditi",
      "lat": 44.583333,
      "lng": 27.6
    },
    {
      "cityName": "Tandarei-Gara",
      "lat": 44.65,
      "lng": 27.65
    },
    {
      "cityName": "Tandarei",
      "lat": 44.65,
      "lng": 27.666667
    },
    {
      "cityName": "Tatarul",
      "lat": 44.85,
      "lng": 27.433333
    },
    {
      "cityName": "Tovarasia",
      "lat": 44.7,
      "lng": 27.633333
    },
    {
      "cityName": "Traian",
      "lat": 44.766667,
      "lng": 27.333333
    },
    {
      "cityName": "Vadul-Oii",
      "lat": 44.733333,
      "lng": 27.866667
    },
    {
      "cityName": "Victoria",
      "lat": 44.816667,
      "lng": 27.616667
    },
    {
      "cityName": "Vladeni",
      "lat": 44.616667,
      "lng": 27.883333
    }
  ]
}