{
  "name": "HaZafon",
  "cities": [
    {
      "cityName": "Aavroun",
      "lat": 33.0477778,
      "lng": 35.1788889
    },
    {
      "cityName": "Abu Senan",
      "lat": 32.9580556,
      "lng": 35.1713889
    },
    {
      "cityName": "Accho",
      "lat": 32.9236111,
      "lng": 35.0727778
    },
    {
      "cityName": "Adamit",
      "lat": 33.0833333,
      "lng": 35.2166667
    },
    {
      "cityName": "Addirim",
      "lat": 32.5513889,
      "lng": 35.2722222
    },
    {
      "cityName": "Afeq",
      "lat": 32.8388889,
      "lng": 35.1247222
    },
    {
      "cityName": "Affula",
      "lat": 32.6111111,
      "lng": 35.2916667
    },
    {
      "cityName": "Afikim",
      "lat": 32.6786111,
      "lng": 35.5769444
    },
    {
      "cityName": "`Afula `Elit",
      "lat": 32.6333333,
      "lng": 35.3333333
    },
    {
      "cityName": "Ahihud",
      "lat": 32.9077778,
      "lng": 35.1711111
    },
    {
      "cityName": "Ahuzzat Naftali",
      "lat": 32.7958333,
      "lng": 35.4722222
    },
    {
      "cityName": "`Ailabun",
      "lat": 32.8347222,
      "lng": 35.3966667
    },
    {
      "cityName": "`Ain Birya",
      "lat": 32.9819444,
      "lng": 35.4986111
    },
    {
      "cityName": "`Ain Katab",
      "lat": 32.7886111,
      "lng": 35.5066667
    },
    {
      "cityName": "Ain Yaaqoub",
      "lat": 33,
      "lng": 35.2333333
    },
    {
      "cityName": "Aiyelet Hashahar",
      "lat": 33.0211111,
      "lng": 35.5755556
    },
    {
      "cityName": "`Akbara",
      "lat": 32.9416667,
      "lng": 35.4986111
    },
    {
      "cityName": "Al Bassa",
      "lat": 33.0708333,
      "lng": 35.1361111
    },
    {
      "cityName": "Al Bi`na",
      "lat": 32.9347222,
      "lng": 35.2708333
    },
    {
      "cityName": "Al Buqei`a",
      "lat": 32.9791667,
      "lng": 35.3361111
    },
    {
      "cityName": "Al Judeida",
      "lat": 32.9255556,
      "lng": 35.155
    },
    {
      "cityName": "Al Kabiri",
      "lat": 33.0213889,
      "lng": 35.1477778
    },
    {
      "cityName": "Al Khalisa",
      "lat": 33.2080556,
      "lng": 35.5686111
    },
    {
      "cityName": "Allone Abba",
      "lat": 32.7294444,
      "lng": 35.1705556
    },
    {
      "cityName": "Allonim",
      "lat": 32.72,
      "lng": 35.1419444
    },
    {
      "cityName": "`Alma",
      "lat": 33.05,
      "lng": 35.5002778
    },
    {
      "cityName": "Almagor",
      "lat": 32.9102778,
      "lng": 35.5977778
    },
    {
      "cityName": "Al Manara",
      "lat": 33.1958333,
      "lng": 35.5430556
    },
    {
      "cityName": "Al Manawat",
      "lat": 33.0333333,
      "lng": 35.15
    },
    {
      "cityName": "Al Mazra`a",
      "lat": 32.9858333,
      "lng": 35.0988889
    },
    {
      "cityName": "Al `Ulmaniya",
      "lat": 33.0833333,
      "lng": 35.5833333
    },
    {
      "cityName": "Alummot",
      "lat": 32.7,
      "lng": 35.55
    },
    {
      "cityName": "Ami`ad",
      "lat": 32.9247222,
      "lng": 35.5388889
    },
    {
      "cityName": "`Amir",
      "lat": 33.1772222,
      "lng": 35.6191667
    },
    {
      "cityName": "Amirim",
      "lat": 32.9375,
      "lng": 35.45
    },
    {
      "cityName": "`Amqa",
      "lat": 32.9822222,
      "lng": 35.1661111
    },
    {
      "cityName": "An Nawaqir",
      "lat": 33.1,
      "lng": 35.2166667
    },
    {
      "cityName": "`Araba",
      "lat": 32.8486111,
      "lng": 35.3358333
    },
    {
      "cityName": "Arbel",
      "lat": 32.8125,
      "lng": 35.4861111
    },
    {
      "cityName": "Arki",
      "lat": 32.9525,
      "lng": 35.2111111
    },
    {
      "cityName": "Ar Rama",
      "lat": 32.9363889,
      "lng": 35.3672222
    },
    {
      "cityName": "Ar Reina",
      "lat": 32.7236111,
      "lng": 35.3125
    },
    {
      "cityName": "Ashdoth Ya`aqov",
      "lat": 32.65,
      "lng": 35.5666667
    },
    {
      "cityName": "Ashdot-Ya'acov",
      "lat": 32.6583333,
      "lng": 35.5808333
    },
    {
      "cityName": "Ashdot Ya`aqov Alef",
      "lat": 32.6666667,
      "lng": 35.5666667
    },
    {
      "cityName": "Asher",
      "lat": 32.9605556,
      "lng": 35.0938889
    },
    {
      "cityName": "Ashmura",
      "lat": 33.05,
      "lng": 35.65
    },
    {
      "cityName": "Ash Shajara",
      "lat": 32.7583333,
      "lng": 35.4097222
    },
    {
      "cityName": "Avital",
      "lat": 32.5583333,
      "lng": 35.3083333
    },
    {
      "cityName": "Avivim",
      "lat": 33.0833333,
      "lng": 35.4666667
    },
    {
      "cityName": "Avtalyon",
      "lat": 32.8333333,
      "lng": 35.35
    },
    {
      "cityName": "Avuka",
      "lat": 32.4666667,
      "lng": 35.5333333
    },
    {
      "cityName": "`Ayanot",
      "lat": 32.6775,
      "lng": 35.2025
    },
    {
      "cityName": "Ayn Al-Asad",
      "lat": 32.9333333,
      "lng": 35.4
    },
    {
      "cityName": "`Ayn Mahil",
      "lat": 32.7277778,
      "lng": 35.3555556
    },
    {
      "cityName": "`Azir",
      "lat": 32.7944444,
      "lng": 35.3319444
    },
    {
      "cityName": "Balfouria",
      "lat": 32.6333333,
      "lng": 35.2958333
    },
    {
      "cityName": "Bar`am",
      "lat": 33.0586111,
      "lng": 35.4338889
    },
    {
      "cityName": "Baraq",
      "lat": 32.5430556,
      "lng": 35.2666667
    },
    {
      "cityName": "Bayt Jann",
      "lat": 32.9652778,
      "lng": 35.3794444
    },
    {
      "cityName": "Bayt Jinn",
      "lat": 32.7102778,
      "lng": 35.4925
    },
    {
      "cityName": "Beisan",
      "lat": 32.5,
      "lng": 35.5
    },
    {
      "cityName": "Beit Alfa",
      "lat": 32.5166667,
      "lng": 35.425
    },
    {
      "cityName": "Beitanya",
      "lat": 32.7,
      "lng": 35.5666667
    },
    {
      "cityName": "Beit Ha`Emeq",
      "lat": 32.9711111,
      "lng": 35.145
    },
    {
      "cityName": "Beit Hakerem",
      "lat": 32.9194444,
      "lng": 35.2672222
    },
    {
      "cityName": "Beit Hashitah",
      "lat": 32.5541667,
      "lng": 35.4375
    },
    {
      "cityName": "Beit Hillel",
      "lat": 33.2044444,
      "lng": 35.6055556
    },
    {
      "cityName": "Beit Lahm",
      "lat": 32.7338889,
      "lng": 35.1886111
    },
    {
      "cityName": "Beit Ma'on",
      "lat": 32.7833333,
      "lng": 35.5
    },
    {
      "cityName": "Beit Qeshet",
      "lat": 32.7194444,
      "lng": 35.3986111
    },
    {
      "cityName": "Beit She`arim",
      "lat": 32.6955556,
      "lng": 35.18
    },
    {
      "cityName": "Beit Yosef",
      "lat": 32.3833333,
      "lng": 35.55
    },
    {
      "cityName": "Beit Zera`",
      "lat": 32.6833333,
      "lng": 35.5666667
    },
    {
      "cityName": "Beka`",
      "lat": 32.6666667,
      "lng": 35.55
    },
    {
      "cityName": "Ben Aami",
      "lat": 33,
      "lng": 35.1166667
    },
    {
      "cityName": "Bene Berit",
      "lat": 32.5861111,
      "lng": 35.4388889
    },
    {
      "cityName": "Bene Zefat",
      "lat": 33.0033333,
      "lng": 35.5980556
    },
    {
      "cityName": "Berit Ahim",
      "lat": 32.9488889,
      "lng": 35.0766667
    },
    {
      "cityName": "Bet Rimmon",
      "lat": 32.7819444,
      "lng": 35.3277778
    },
    {
      "cityName": "Bir`am",
      "lat": 33.05,
      "lng": 35.4166667
    },
    {
      "cityName": "Bir el Maksur",
      "lat": 32.75,
      "lng": 35.2333333
    },
    {
      "cityName": "Bu`aynah",
      "lat": 32.8052778,
      "lng": 35.3636111
    },
    {
      "cityName": "Bustan",
      "lat": 32.9458333,
      "lng": 35.0863889
    },
    {
      "cityName": "Carmiel",
      "lat": 32.9172222,
      "lng": 35.3041667
    },
    {
      "cityName": "Chelomi",
      "lat": 33.0666667,
      "lng": 35.1
    },
    {
      "cityName": "Choumra",
      "lat": 33.0830556,
      "lng": 35.2844444
    },
    {
      "cityName": "Dabburiya",
      "lat": 32.6958333,
      "lng": 35.3722222
    },
    {
      "cityName": "Dafna",
      "lat": 33.2294444,
      "lng": 35.6375
    },
    {
      "cityName": "Dahi",
      "lat": 32.6166667,
      "lng": 35.35
    },
    {
      "cityName": "Dalia",
      "lat": 32.5902778,
      "lng": 35.0755556
    },
    {
      "cityName": "Daliyat Ar-Ruhah",
      "lat": 32.6,
      "lng": 35.0666667
    },
    {
      "cityName": "Dalton",
      "lat": 33.0130556,
      "lng": 35.4994444
    },
    {
      "cityName": "Damun",
      "lat": 32.8969444,
      "lng": 35.1752778
    },
    {
      "cityName": "Dan",
      "lat": 33.2380556,
      "lng": 35.6527778
    },
    {
      "cityName": "Dannun",
      "lat": 32.99,
      "lng": 35.145
    },
    {
      "cityName": "Daverat",
      "lat": 32.65,
      "lng": 35.35
    },
    {
      "cityName": "Dayr Al-`Asad",
      "lat": 32.9333333,
      "lng": 35.2666667
    },
    {
      "cityName": "Dayr al-Qasi",
      "lat": 33.0341667,
      "lng": 35.3241667
    },
    {
      "cityName": "Dayr Hannah",
      "lat": 32.8625,
      "lng": 35.3666667
    },
    {
      "cityName": "Dayshum",
      "lat": 33.0805556,
      "lng": 35.5169444
    },
    {
      "cityName": "Deganiya Alef",
      "lat": 32.7,
      "lng": 35.5833333
    },
    {
      "cityName": "Devora",
      "lat": 32.5555556,
      "lng": 35.2625
    },
    {
      "cityName": "Dobeh",
      "lat": 32.9958333,
      "lng": 35.1347222
    },
    {
      "cityName": "Dovev",
      "lat": 33.0530556,
      "lng": 35.4083333
    },
    {
      "cityName": "Eden Farm",
      "lat": 32.4722222,
      "lng": 35.4861111
    },
    {
      "cityName": "Eilon",
      "lat": 33.0622222,
      "lng": 35.2197222
    },
    {
      "cityName": "`Ein al Mansi",
      "lat": 32.5930556,
      "lng": 35.1802778
    },
    {
      "cityName": "`Ein Dor",
      "lat": 32.6583333,
      "lng": 35.4166667
    },
    {
      "cityName": "`Ein Gev",
      "lat": 32.7811111,
      "lng": 35.6388889
    },
    {
      "cityName": "`Ein Ha`emeq",
      "lat": 32.6316667,
      "lng": 35.0841667
    },
    {
      "cityName": "`Ein Hamifrats",
      "lat": 32.9036111,
      "lng": 35.0961111
    },
    {
      "cityName": "`Ein Hanatsiv",
      "lat": 32.4675,
      "lng": 35.5016667
    },
    {
      "cityName": "`Ein Harod",
      "lat": 32.55,
      "lng": 35.3833333
    },
    {
      "cityName": "`Ein Hashofet",
      "lat": 32.5947222,
      "lng": 35.0991667
    },
    {
      "cityName": "`Ein Na`amin",
      "lat": 32.8327778,
      "lng": 35.1025
    },
    {
      "cityName": "`Ein Sara",
      "lat": 32.9875,
      "lng": 35.0925
    },
    {
      "cityName": "`Ein Zeitim",
      "lat": 32.9944444,
      "lng": 35.4847222
    },
    {
      "cityName": "El Fule",
      "lat": 32.6,
      "lng": 35.3166667
    },
    {
      "cityName": "El Houmeima",
      "lat": 33,
      "lng": 35.1
    },
    {
      "cityName": "Elifelet",
      "lat": 32.9458333,
      "lng": 35.5466667
    },
    {
      "cityName": "El Ja`une",
      "lat": 32.9666667,
      "lng": 35.5333333
    },
    {
      "cityName": "El Makr",
      "lat": 32.9347222,
      "lng": 35.1372222
    },
    {
      "cityName": "El Mansura",
      "lat": 32.8869444,
      "lng": 35.4069444
    },
    {
      "cityName": "El Mezra`a",
      "lat": 32.6583333,
      "lng": 35.3
    },
    {
      "cityName": "El Mutille",
      "lat": 33.2861111,
      "lng": 35.5747222
    },
    {
      "cityName": "El Ras el Ahmar",
      "lat": 33.0388889,
      "lng": 35.4680556
    },
    {
      "cityName": "Elyaqim",
      "lat": 32.6297222,
      "lng": 35.0647222
    },
    {
      "cityName": "`En Harod Ihud",
      "lat": 32.5666667,
      "lng": 35.3833333
    },
    {
      "cityName": "En Nasira",
      "lat": 32.7036111,
      "lng": 35.2955556
    },
    {
      "cityName": "En Nuqeib",
      "lat": 32.7833333,
      "lng": 35.6333333
    },
    {
      "cityName": "Eshhar",
      "lat": 32.8861111,
      "lng": 35.3013889
    },
    {
      "cityName": "Esh Sheikh Daud",
      "lat": 32.9944444,
      "lng": 35.1497222
    },
    {
      "cityName": "Et Taiyba",
      "lat": 32.6,
      "lng": 35.45
    },
    {
      "cityName": "Even Menahem",
      "lat": 33.0744444,
      "lng": 35.2958333
    },
    {
      "cityName": "Even Yitshaq",
      "lat": 32.5544444,
      "lng": 35.0780556
    },
    {
      "cityName": "Evlayim",
      "lat": 32.8205556,
      "lng": 35.1891667
    },
    {
      "cityName": "`Evron",
      "lat": 32.9952778,
      "lng": 35.0991667
    },
    {
      "cityName": "Faradia",
      "lat": 32.9333333,
      "lng": 35.4333333
    },
    {
      "cityName": "Far`am",
      "lat": 32.9833333,
      "lng": 35.5333333
    },
    {
      "cityName": "Farwana Alef",
      "lat": 32.45,
      "lng": 35.4972222
    },
    {
      "cityName": "Farwanah C",
      "lat": 32.4416667,
      "lng": 35.4875
    },
    {
      "cityName": "Fassuta",
      "lat": 33.0497222,
      "lng": 35.3088889
    },
    {
      "cityName": "Fulah",
      "lat": 32.6083333,
      "lng": 35.3083333
    },
    {
      "cityName": "Gadish",
      "lat": 32.5586111,
      "lng": 35.2458333
    },
    {
      "cityName": "Gadot",
      "lat": 33.0166667,
      "lng": 35.6166667
    },
    {
      "cityName": "Gath Hepher",
      "lat": 32.7416667,
      "lng": 35.325
    },
    {
      "cityName": "Ga`ton",
      "lat": 33.0055556,
      "lng": 35.2141667
    },
    {
      "cityName": "Gazit",
      "lat": 32.6388889,
      "lng": 35.45
    },
    {
      "cityName": "Genossar",
      "lat": 32.8491667,
      "lng": 35.5188889
    },
    {
      "cityName": "Gesher",
      "lat": 32.62,
      "lng": 35.5511111
    },
    {
      "cityName": "Gesher Haziv",
      "lat": 33.0377778,
      "lng": 35.1122222
    },
    {
      "cityName": "Geva`",
      "lat": 32.5694444,
      "lng": 35.3736111
    },
    {
      "cityName": "Gevat",
      "lat": 32.6738889,
      "lng": 35.2080556
    },
    {
      "cityName": "Ghorein",
      "lat": 33.05,
      "lng": 35.2333333
    },
    {
      "cityName": "Gid`ona",
      "lat": 32.5472222,
      "lng": 35.3583333
    },
    {
      "cityName": "Gil`am",
      "lat": 32.8194444,
      "lng": 35.1436111
    },
    {
      "cityName": "Ginegar",
      "lat": 32.6630556,
      "lng": 35.2583333
    },
    {
      "cityName": "Giscala",
      "lat": 33.0247222,
      "lng": 35.4444444
    },
    {
      "cityName": "Giv`at `Oz",
      "lat": 32.5572222,
      "lng": 35.1966667
    },
    {
      "cityName": "Gonen",
      "lat": 33.1227778,
      "lng": 35.6438889
    },
    {
      "cityName": "Habonim",
      "lat": 32.9666667,
      "lng": 35.6
    },
    {
      "cityName": "Hagar`in Habavli",
      "lat": 32.59,
      "lng": 35.5527778
    },
    {
      "cityName": "HaGosherim",
      "lat": 33.22,
      "lng": 35.6225
    },
    {
      "cityName": "Haluz",
      "lat": 32.9541667,
      "lng": 35.3083333
    },
    {
      "cityName": "Hamadiyah",
      "lat": 32.5183333,
      "lng": 35.5183333
    },
    {
      "cityName": "Hammat",
      "lat": 32.7666667,
      "lng": 35.55
    },
    {
      "cityName": "Hanita",
      "lat": 33.0833333,
      "lng": 35.1666667
    },
    {
      "cityName": "HaOn",
      "lat": 32.7241667,
      "lng": 35.6216667
    },
    {
      "cityName": "Hararit",
      "lat": 32.8458333,
      "lng": 35.3666667
    },
    {
      "cityName": "Harashim",
      "lat": 32.9569444,
      "lng": 35.3291667
    },
    {
      "cityName": "Hashomer Farm",
      "lat": 32.7583333,
      "lng": 35.4069444
    },
    {
      "cityName": "HaSolelim",
      "lat": 32.7505556,
      "lng": 35.2355556
    },
    {
      "cityName": "Hatzor",
      "lat": 32.9791667,
      "lng": 35.5433333
    },
    {
      "cityName": "Havat-Shemuel",
      "lat": 32.5666667,
      "lng": 35.55
    },
    {
      "cityName": "HaYogev",
      "lat": 32.6088889,
      "lng": 35.1994444
    },
    {
      "cityName": "Hazon",
      "lat": 32.9083333,
      "lng": 35.3944444
    },
    {
      "cityName": "HaZorea`",
      "lat": 32.6447222,
      "lng": 35.1208333
    },
    {
      "cityName": "HaZore`im",
      "lat": 32.75,
      "lng": 35.5
    },
    {
      "cityName": "Heftsi Bah",
      "lat": 32.5166667,
      "lng": 35.4208333
    },
    {
      "cityName": "Heila",
      "lat": 32.7916667,
      "lng": 35.4763889
    },
    {
      "cityName": "Hemdat Yamim",
      "lat": 32.95,
      "lng": 35.4236111
    },
    {
      "cityName": "Hever",
      "lat": 32.55,
      "lng": 35.2638889
    },
    {
      "cityName": "Hittin",
      "lat": 32.8,
      "lng": 35.5
    },
    {
      "cityName": "Hosen",
      "lat": 33,
      "lng": 35.2972222
    },
    {
      "cityName": "Hosha`ya",
      "lat": 32.7569444,
      "lng": 35.2986111
    },
    {
      "cityName": "Hourfeich",
      "lat": 33.015,
      "lng": 35.3494444
    },
    {
      "cityName": "Hulatah",
      "lat": 33.0511111,
      "lng": 35.6091667
    },
    {
      "cityName": "Hunin",
      "lat": 33.2144444,
      "lng": 35.5438889
    },
    {
      "cityName": "Huqoq",
      "lat": 32.8805556,
      "lng": 35.4972222
    },
    {
      "cityName": "Iksal",
      "lat": 32.6786111,
      "lng": 35.3222222
    },
    {
      "cityName": "`Illut",
      "lat": 32.7163889,
      "lng": 35.2594444
    },
    {
      "cityName": "Intisar",
      "lat": 32.9916667,
      "lng": 35.3097222
    },
    {
      "cityName": "`Ir Hamifrats",
      "lat": 32.8377778,
      "lng": 35.1066667
    },
    {
      "cityName": "Jadah",
      "lat": 32.7005556,
      "lng": 35.1797222
    },
    {
      "cityName": "Jarah",
      "lat": 32.6,
      "lng": 35.1
    },
    {
      "cityName": "Jat",
      "lat": 32.9722222,
      "lng": 35.2327778
    },
    {
      "cityName": "Jezreel",
      "lat": 32.5625,
      "lng": 35.3222222
    },
    {
      "cityName": "Julis",
      "lat": 32.9430556,
      "lng": 35.1869444
    },
    {
      "cityName": "Kabul",
      "lat": 32.8666667,
      "lng": 35.2130556
    },
    {
      "cityName": "Kafar Kama",
      "lat": 32.7166667,
      "lng": 35.4416667
    },
    {
      "cityName": "Kafar Manda",
      "lat": 32.8072222,
      "lng": 35.2602778
    },
    {
      "cityName": "Kafr Jil`ad",
      "lat": 33.2416667,
      "lng": 35.5733333
    },
    {
      "cityName": "Kafr Kanna",
      "lat": 32.75,
      "lng": 35.3416667
    },
    {
      "cityName": "Kafr Masr",
      "lat": 32.6472222,
      "lng": 35.4208333
    },
    {
      "cityName": "Kafr Sumay`a",
      "lat": 32.9819444,
      "lng": 35.3069444
    },
    {
      "cityName": "Kafr Yasif",
      "lat": 32.9536111,
      "lng": 35.1652778
    },
    {
      "cityName": "Kallanit",
      "lat": 32.875,
      "lng": 35.4527778
    },
    {
      "cityName": "Kammon",
      "lat": 32.9083333,
      "lng": 35.3569444
    },
    {
      "cityName": "Kare Deshe",
      "lat": 32.8666667,
      "lng": 35.55
    },
    {
      "cityName": "Karei-Naaman",
      "lat": 32.8833333,
      "lng": 35.1
    },
    {
      "cityName": "Kaukab Abu el Hija",
      "lat": 32.8333333,
      "lng": 35.25
    },
    {
      "cityName": "Kefar Avoda",
      "lat": 32.7166667,
      "lng": 35.55
    },
    {
      "cityName": "Kefar Barukh",
      "lat": 32.6444444,
      "lng": 35.1936111
    },
    {
      "cityName": "Kefar Blum",
      "lat": 33.1711111,
      "lng": 35.6086111
    },
    {
      "cityName": "Kefar Gideion",
      "lat": 32.6416667,
      "lng": 35.2916667
    },
    {
      "cityName": "Kefar HaHoresh",
      "lat": 32.7041667,
      "lng": 35.2722222
    },
    {
      "cityName": "Kefar Hananya",
      "lat": 32.9125,
      "lng": 35.4236111
    },
    {
      "cityName": "Kefar Hittim Bet",
      "lat": 32.8130556,
      "lng": 35.4613889
    },
    {
      "cityName": "Kefar Kisch",
      "lat": 32.6680556,
      "lng": 35.45
    },
    {
      "cityName": "Kefar Masariq",
      "lat": 32.8883333,
      "lng": 35.0969444
    },
    {
      "cityName": "Kefar Rosh HaNiqra",
      "lat": 33.0833333,
      "lng": 35.1
    },
    {
      "cityName": "Kefar Ruppin",
      "lat": 32.4572222,
      "lng": 35.5552778
    },
    {
      "cityName": "Kefar Shamai",
      "lat": 32.9583333,
      "lng": 35.4583333
    },
    {
      "cityName": "Kefar Sold",
      "lat": 33.1936111,
      "lng": 35.6569444
    },
    {
      "cityName": "Kefar Tabor",
      "lat": 32.6888889,
      "lng": 35.4208333
    },
    {
      "cityName": "Kefar Weradim",
      "lat": 32.9930556,
      "lng": 35.275
    },
    {
      "cityName": "Kefar Yamma",
      "lat": 32.7125,
      "lng": 35.5
    },
    {
      "cityName": "Kefar Yehezkel",
      "lat": 32.5708333,
      "lng": 35.3625
    },
    {
      "cityName": "Kefar Yehoshua`",
      "lat": 32.6805556,
      "lng": 35.1516667
    },
    {
      "cityName": "Kefar Yeladim",
      "lat": 32.6222222,
      "lng": 35.325
    },
    {
      "cityName": "Kefar-Yuval",
      "lat": 33.2477778,
      "lng": 35.5955556
    },
    {
      "cityName": "Kfar Rosen",
      "lat": 33.1,
      "lng": 35.3
    },
    {
      "cityName": "Khirbet Zubeid",
      "lat": 33.0575,
      "lng": 35.6075
    },
    {
      "cityName": "Kineret",
      "lat": 32.7108333,
      "lng": 35.5655556
    },
    {
      "cityName": "Kiriyat Sara",
      "lat": 32.9833333,
      "lng": 35.5
    },
    {
      "cityName": "Kiryat-Natsrat",
      "lat": 32.7097222,
      "lng": 35.3291667
    },
    {
      "cityName": "Kisrah",
      "lat": 32.9652778,
      "lng": 35.3027778
    },
    {
      "cityName": "Lahavot HaBashan",
      "lat": 33.1402778,
      "lng": 35.6452778
    },
    {
      "cityName": "Lappidot",
      "lat": 32.9638889,
      "lng": 35.2625
    },
    {
      "cityName": "Lavi",
      "lat": 32.7872222,
      "lng": 35.4416667
    },
    {
      "cityName": "Liman",
      "lat": 33.0594444,
      "lng": 35.1147222
    },
    {
      "cityName": "Lotem",
      "lat": 32.8861111,
      "lng": 35.3597222
    },
    {
      "cityName": "Ma`abarat Tirah",
      "lat": 32.7666667,
      "lng": 34.9666667
    },
    {
      "cityName": "Ma`ale Gilboa`",
      "lat": 32.4805556,
      "lng": 35.4180556
    },
    {
      "cityName": "Maaliya",
      "lat": 33.0280556,
      "lng": 35.2583333
    },
    {
      "cityName": "Ma`alot",
      "lat": 33.0147222,
      "lng": 35.2825
    },
    {
      "cityName": "Ma`asub",
      "lat": 33.0638889,
      "lng": 35.1569444
    },
    {
      "cityName": "Ma`ayan Barukh",
      "lat": 33.2397222,
      "lng": 35.6080556
    },
    {
      "cityName": "Magen Sha'ul",
      "lat": 32.5208333,
      "lng": 35.3027778
    },
    {
      "cityName": "Magidal",
      "lat": 32.6713889,
      "lng": 35.2405556
    },
    {
      "cityName": "Mahanayim",
      "lat": 32.9833333,
      "lng": 35.5666667
    },
    {
      "cityName": "Malakiyah",
      "lat": 33.1,
      "lng": 35.5166667
    },
    {
      "cityName": "Mallaha",
      "lat": 32.7333333,
      "lng": 35.5666667
    },
    {
      "cityName": "Mansi",
      "lat": 32.5922222,
      "lng": 35.1569444
    },
    {
      "cityName": "Ma`oz Haiyim",
      "lat": 32.4833333,
      "lng": 35.55
    },
    {
      "cityName": "Masadah",
      "lat": 32.6833333,
      "lng": 35.6
    },
    {
      "cityName": "Massad",
      "lat": 32.8416667,
      "lng": 35.4305556
    },
    {
      "cityName": "Mayrun",
      "lat": 32.9888889,
      "lng": 35.4402778
    },
    {
      "cityName": "Mazzevet Zikkaron",
      "lat": 33.0166667,
      "lng": 35.15
    },
    {
      "cityName": "Megiddo",
      "lat": 32.5747222,
      "lng": 35.1755556
    },
    {
      "cityName": "Mele'a",
      "lat": 32.5633333,
      "lng": 35.2386111
    },
    {
      "cityName": "Me`ona `Ironit",
      "lat": 33.0166667,
      "lng": 35.2666667
    },
    {
      "cityName": "Meshek Hapo'alot",
      "lat": 32.6,
      "lng": 35.2666667
    },
    {
      "cityName": "Mesillot",
      "lat": 32.4958333,
      "lng": 35.475
    },
    {
      "cityName": "Metav",
      "lat": 32.55,
      "lng": 35.3
    },
    {
      "cityName": "Migdal",
      "lat": 32.8333333,
      "lng": 35.5
    },
    {
      "cityName": "Migdal Tefen",
      "lat": 32.9805556,
      "lng": 35.2666667
    },
    {
      "cityName": "Mikhmannim",
      "lat": 32.9083333,
      "lng": 35.3347222
    },
    {
      "cityName": "Misgav `Am",
      "lat": 33.25,
      "lng": 35.55
    },
    {
      "cityName": "Misgav",
      "lat": 32.8611111,
      "lng": 35.2569444
    },
    {
      "cityName": "Mishmar Ha`Emeq",
      "lat": 32.6119444,
      "lng": 35.1447222
    },
    {
      "cityName": "Mishmar Hasheloshah",
      "lat": 32.7166667,
      "lng": 35.5
    },
    {
      "cityName": "Mitspe Hagalil",
      "lat": 32.7486111,
      "lng": 35.4222222
    },
    {
      "cityName": "Mitspé-Yodfat",
      "lat": 32.8361111,
      "lng": 35.2694444
    },
    {
      "cityName": "Mizra`",
      "lat": 32.6555556,
      "lng": 35.2875
    },
    {
      "cityName": "Moran",
      "lat": 32.9208333,
      "lng": 35.3944444
    },
    {
      "cityName": "Mqeible",
      "lat": 32.5166667,
      "lng": 35.2944444
    },
    {
      "cityName": "Mu`awiyah",
      "lat": 32.5288889,
      "lng": 35.1002778
    },
    {
      "cityName": "Nahaf",
      "lat": 32.9333333,
      "lng": 35.3166667
    },
    {
      "cityName": "Nahalal",
      "lat": 32.69,
      "lng": 35.1966667
    },
    {
      "cityName": "Nahala'ot",
      "lat": 32.6333333,
      "lng": 35.1269444
    },
    {
      "cityName": "Nahal-Malkichoua",
      "lat": 32.4333333,
      "lng": 35.4
    },
    {
      "cityName": "Nahariyah",
      "lat": 33.0058333,
      "lng": 35.0947222
    },
    {
      "cityName": "Na`im",
      "lat": 32.6333333,
      "lng": 35.35
    },
    {
      "cityName": "Na`urah",
      "lat": 32.6138889,
      "lng": 35.3891667
    },
    {
      "cityName": "Neot Mordekhai",
      "lat": 33.1586111,
      "lng": 35.5952778
    },
    {
      "cityName": "Nes Amim",
      "lat": 32.9666667,
      "lng": 35.1166667
    },
    {
      "cityName": "Nevé-Amiel",
      "lat": 32.6986111,
      "lng": 35.1422222
    },
    {
      "cityName": "Neve Eitan",
      "lat": 32.4833333,
      "lng": 35.5333333
    },
    {
      "cityName": "Neveh Oved",
      "lat": 32.7333333,
      "lng": 35.5333333
    },
    {
      "cityName": "Nir David",
      "lat": 32.5027778,
      "lng": 35.4569444
    },
    {
      "cityName": "Nir On",
      "lat": 33.0763889,
      "lng": 35.4544444
    },
    {
      "cityName": "Nir Yafe",
      "lat": 32.5688889,
      "lng": 35.2463889
    },
    {
      "cityName": "Notera",
      "lat": 33.1,
      "lng": 35.6333333
    },
    {
      "cityName": "Nuris",
      "lat": 32.5458333,
      "lng": 35.3555556
    },
    {
      "cityName": "Omen",
      "lat": 32.5666667,
      "lng": 35.25
    },
    {
      "cityName": "`Omer",
      "lat": 32.7,
      "lng": 35.4388889
    },
    {
      "cityName": "Parod Bet",
      "lat": 32.9416667,
      "lng": 35.4347222
    },
    {
      "cityName": "Parvona B",
      "lat": 32.45,
      "lng": 35.4708333
    },
    {
      "cityName": "Peqi`in Hadasha",
      "lat": 32.9833333,
      "lng": 35.3236111
    },
    {
      "cityName": "Perazon",
      "lat": 32.5513889,
      "lng": 35.3097222
    },
    {
      "cityName": "Poriah",
      "lat": 32.7333333,
      "lng": 35.55
    },
    {
      "cityName": "Qaddarim",
      "lat": 32.9083333,
      "lng": 35.4583333
    },
    {
      "cityName": "Qiryat Haroshet",
      "lat": 32.6911111,
      "lng": 35.1091667
    },
    {
      "cityName": "Qoranit",
      "lat": 32.8430556,
      "lng": 35.2527778
    },
    {
      "cityName": "Ramah",
      "lat": 32.7236111,
      "lng": 35.4666667
    },
    {
      "cityName": "Ramat Hadassah",
      "lat": 32.7277778,
      "lng": 35.1422222
    },
    {
      "cityName": "Ramat HaShenayim",
      "lat": 32.6333333,
      "lng": 35.1
    },
    {
      "cityName": "Ramat HaShofet",
      "lat": 32.6119444,
      "lng": 35.0955556
    },
    {
      "cityName": "Ramat Zevi",
      "lat": 32.5861111,
      "lng": 35.4152778
    },
    {
      "cityName": "Ram On",
      "lat": 32.5319444,
      "lng": 35.2569444
    },
    {
      "cityName": "Ramot Menasheh",
      "lat": 32.5952778,
      "lng": 35.0552778
    },
    {
      "cityName": "Ramot Naftali",
      "lat": 33.1002778,
      "lng": 35.5530556
    },
    {
      "cityName": "Raqqefet",
      "lat": 32.8583333,
      "lng": 35.2597222
    },
    {
      "cityName": "Regbah",
      "lat": 32.9794444,
      "lng": 35.0994444
    },
    {
      "cityName": "Reihaniye",
      "lat": 33.05,
      "lng": 35.4833333
    },
    {
      "cityName": "Reshafim",
      "lat": 32.4833333,
      "lng": 35.4777778
    },
    {
      "cityName": "Rimmon",
      "lat": 32.785,
      "lng": 35.3097222
    },
    {
      "cityName": "Rumat Heib",
      "lat": 32.7791667,
      "lng": 35.3069444
    },
    {
      "cityName": "Sa`ar",
      "lat": 33.0275,
      "lng": 35.1094444
    },
    {
      "cityName": "Saassaa",
      "lat": 33.0283333,
      "lng": 35.3947222
    },
    {
      "cityName": "Sabalane",
      "lat": 33.0166667,
      "lng": 35.3333333
    },
    {
      "cityName": "Safad",
      "lat": 32.9666667,
      "lng": 35.4944444
    },
    {
      "cityName": "Saffuri",
      "lat": 32.7394444,
      "lng": 35.2758333
    },
    {
      "cityName": "Safsaf",
      "lat": 33.0166667,
      "lng": 35.4333333
    },
    {
      "cityName": "Sahrin",
      "lat": 32.8622222,
      "lng": 35.2933333
    },
    {
      "cityName": "Sajur",
      "lat": 32.9458333,
      "lng": 35.3430556
    },
    {
      "cityName": "Sallama",
      "lat": 32.8972222,
      "lng": 35.3708333
    },
    {
      "cityName": "Sandala",
      "lat": 32.525,
      "lng": 35.325
    },
    {
      "cityName": "Sarid",
      "lat": 32.6641667,
      "lng": 35.225
    },
    {
      "cityName": "Sde Eliahu",
      "lat": 32.4333333,
      "lng": 35.5166667
    },
    {
      "cityName": "Sdeh Yaakov",
      "lat": 32.69,
      "lng": 35.1386111
    },
    {
      "cityName": "Sde Nehemya",
      "lat": 33.1863889,
      "lng": 35.6211111
    },
    {
      "cityName": "Sede Eli`ezer",
      "lat": 33.0452778,
      "lng": 35.5638889
    },
    {
      "cityName": "Sedeh Nahum",
      "lat": 32.525,
      "lng": 35.4791667
    },
    {
      "cityName": "Segev",
      "lat": 32.8641667,
      "lng": 35.2555556
    },
    {
      "cityName": "Semadar",
      "lat": 32.7208333,
      "lng": 35.4972222
    },
    {
      "cityName": "Sha`ab",
      "lat": 32.8877778,
      "lng": 35.2402778
    },
    {
      "cityName": "Shafa `Amr",
      "lat": 32.8030556,
      "lng": 35.1694444
    },
    {
      "cityName": "Shamerat",
      "lat": 32.9513889,
      "lng": 35.0955556
    },
    {
      "cityName": "Shamir",
      "lat": 33.1638889,
      "lng": 35.6591667
    },
    {
      "cityName": "Shavei Tsiyon",
      "lat": 32.9819444,
      "lng": 35.0836111
    },
    {
      "cityName": "She'ar Yashuv",
      "lat": 33.2166667,
      "lng": 35.65
    },
    {
      "cityName": "Shekhanya",
      "lat": 32.8458333,
      "lng": 35.2502778
    },
    {
      "cityName": "Sheluhot",
      "lat": 32.4722222,
      "lng": 35.4833333
    },
    {
      "cityName": "Shetula",
      "lat": 33.0833333,
      "lng": 35.2833333
    },
    {
      "cityName": "Shezor",
      "lat": 32.9375,
      "lng": 35.3527778
    },
    {
      "cityName": "Shibli",
      "lat": 32.6958333,
      "lng": 35.3972222
    },
    {
      "cityName": "Shimron",
      "lat": 32.6994444,
      "lng": 35.2086111
    },
    {
      "cityName": "Shunem",
      "lat": 32.6083333,
      "lng": 35.3333333
    },
    {
      "cityName": "Suhmata",
      "lat": 33.005,
      "lng": 35.3166667
    },
    {
      "cityName": "Tabariya",
      "lat": 32.7955556,
      "lng": 35.5286111
    },
    {
      "cityName": "Talha",
      "lat": 33.2333333,
      "lng": 35.5833333
    },
    {
      "cityName": "Tamra",
      "lat": 32.8486111,
      "lng": 35.2047222
    },
    {
      "cityName": "Tefahot",
      "lat": 32.8722222,
      "lng": 35.4166667
    },
    {
      "cityName": "Tel Yosef",
      "lat": 32.5583333,
      "lng": 35.4
    },
    {
      "cityName": "Timrat",
      "lat": 32.7036111,
      "lng": 35.2266667
    },
    {
      "cityName": "Tir`an",
      "lat": 32.7738889,
      "lng": 35.3694444
    },
    {
      "cityName": "Tirathtzbi",
      "lat": 32.4216667,
      "lng": 35.5244444
    },
    {
      "cityName": "Tubah",
      "lat": 32.97,
      "lng": 35.6002778
    },
    {
      "cityName": "Tuval",
      "lat": 32.9305556,
      "lng": 35.2513889
    },
    {
      "cityName": "Um el Ghanem",
      "lat": 32.6666667,
      "lng": 35.3833333
    },
    {
      "cityName": "Ya`arah",
      "lat": 33.0686111,
      "lng": 35.1911111
    },
    {
      "cityName": "Ya`el",
      "lat": 32.5541667,
      "lng": 35.3097222
    },
    {
      "cityName": "Yafa an-Nasirah",
      "lat": 32.6916667,
      "lng": 35.275
    },
    {
      "cityName": "Yanoah",
      "lat": 32.9847222,
      "lng": 35.2513889
    },
    {
      "cityName": "Yardena",
      "lat": 32.5608333,
      "lng": 35.5633333
    },
    {
      "cityName": "Yas`ur",
      "lat": 32.8994444,
      "lng": 35.1697222
    },
    {
      "cityName": "Yehi`am",
      "lat": 32.9966667,
      "lng": 35.2238889
    },
    {
      "cityName": "Yemin Orde",
      "lat": 32.7,
      "lng": 34.9833333
    },
    {
      "cityName": "Yif`at",
      "lat": 32.6775,
      "lng": 35.2233333
    },
    {
      "cityName": "Yiftah",
      "lat": 33.1286111,
      "lng": 35.5519444
    },
    {
      "cityName": "Yoqn`am",
      "lat": 32.6541667,
      "lng": 35.1138889
    },
    {
      "cityName": "Yoqne`am `Illit",
      "lat": 32.6666667,
      "lng": 35.1333333
    },
    {
      "cityName": "Yuvallim",
      "lat": 32.8833333,
      "lng": 35.2736111
    },
    {
      "cityName": "Zeviyya",
      "lat": 32.8916667,
      "lng": 35.3333333
    },
    {
      "cityName": "Zurit",
      "lat": 32.9041667,
      "lng": 35.2555556
    }
  ]
}