{
  "name": "Luxembourg",
  "cities": [
    {
      "cityName": "Aarlen",
      "lat": 49.683333,
      "lng": 5.816667
    },
    {
      "cityName": "Abbaye d'Orval",
      "lat": 49.65,
      "lng": 5.35
    },
    {
      "cityName": "À Chinecha",
      "lat": 49.983333,
      "lng": 5.816667
    },
    {
      "cityName": "Achouffe",
      "lat": 50.15,
      "lng": 5.75
    },
    {
      "cityName": "Acremont",
      "lat": 49.9,
      "lng": 5.216667
    },
    {
      "cityName": "À Faihay",
      "lat": 50.216667,
      "lng": 5.5
    },
    {
      "cityName": "Aisne",
      "lat": 50.35,
      "lng": 5.55
    },
    {
      "cityName": "Aix-sur-Cloix",
      "lat": 49.583333,
      "lng": 5.783333
    },
    {
      "cityName": "A la Chaïre",
      "lat": 50.083333,
      "lng": 5.85
    },
    {
      "cityName": "A-la-Fange-Botté",
      "lat": 50.166667,
      "lng": 5.433333
    },
    {
      "cityName": "A l' Assaint",
      "lat": 50.3,
      "lng": 5.866667
    },
    {
      "cityName": "A la Vieille Rochette",
      "lat": 49.933333,
      "lng": 5.25
    },
    {
      "cityName": "Al Bèyoûle",
      "lat": 50.166667,
      "lng": 5.333333
    },
    {
      "cityName": "Al Gloriette",
      "lat": 50.183333,
      "lng": 5.433333
    },
    {
      "cityName": "Alhez",
      "lat": 50.033333,
      "lng": 5.816667
    },
    {
      "cityName": "Alhoumont",
      "lat": 50.116667,
      "lng": 5.816667
    },
    {
      "cityName": "Al' Linguette",
      "lat": 50.05,
      "lng": 5.333333
    },
    {
      "cityName": "Almache",
      "lat": 49.866667,
      "lng": 5.1
    },
    {
      "cityName": "Al' Saute",
      "lat": 50.033333,
      "lng": 5.366667
    },
    {
      "cityName": "A Marfontaine",
      "lat": 49.866667,
      "lng": 5.5
    },
    {
      "cityName": "À Massehottée",
      "lat": 50.25,
      "lng": 5.75
    },
    {
      "cityName": "Amberloup",
      "lat": 50.033333,
      "lng": 5.533333
    },
    {
      "cityName": "Amonines",
      "lat": 50.266667,
      "lng": 5.566667
    },
    {
      "cityName": "Anlier",
      "lat": 49.783333,
      "lng": 5.616667
    },
    {
      "cityName": "Anloy",
      "lat": 49.95,
      "lng": 5.216667
    },
    {
      "cityName": "Ansart",
      "lat": 49.7,
      "lng": 5.533333
    },
    {
      "cityName": "Antiémont",
      "lat": 50.183333,
      "lng": 5.3
    },
    {
      "cityName": "Arbrefontaine",
      "lat": 50.3,
      "lng": 5.833333
    },
    {
      "cityName": "Ardencourt",
      "lat": 50.033333,
      "lng": 5.8
    },
    {
      "cityName": "A Rechauvaux",
      "lat": 49.6,
      "lng": 5.75
    },
    {
      "cityName": "Arville",
      "lat": 50.033333,
      "lng": 5.316667
    },
    {
      "cityName": "Assenois",
      "lat": 49.8,
      "lng": 5.466667
    },
    {
      "cityName": "Asy",
      "lat": 49.716667,
      "lng": 5.266667
    },
    {
      "cityName": "Athus",
      "lat": 49.566667,
      "lng": 5.833333
    },
    {
      "cityName": "Attert",
      "lat": 49.766667,
      "lng": 5.783333
    },
    {
      "cityName": "Aubange",
      "lat": 49.583333,
      "lng": 5.8
    },
    {
      "cityName": "Au Beulet",
      "lat": 49.983333,
      "lng": 5.833333
    },
    {
      "cityName": "Auby",
      "lat": 49.816667,
      "lng": 5.166667
    },
    {
      "cityName": "Au Caillou",
      "lat": 50.083333,
      "lng": 5.666667
    },
    {
      "cityName": "Au Chabet",
      "lat": 49.95,
      "lng": 5.583333
    },
    {
      "cityName": "Au Cheny du Mont",
      "lat": 50.05,
      "lng": 5.3
    },
    {
      "cityName": "Au Cheval Dot",
      "lat": 50.066667,
      "lng": 5.283333
    },
    {
      "cityName": "Au Coucou",
      "lat": 50.1,
      "lng": 5.3
    },
    {
      "cityName": "Au dela de l'Eau",
      "lat": 50.166667,
      "lng": 5.416667
    },
    {
      "cityName": "Auf Beescht",
      "lat": 49.883333,
      "lng": 5.766667
    },
    {
      "cityName": "Auf Berg",
      "lat": 49.883333,
      "lng": 5.75
    },
    {
      "cityName": "Auf der Wolsch",
      "lat": 49.85,
      "lng": 5.733333
    },
    {
      "cityName": "Au Ferrage",
      "lat": 49.916667,
      "lng": 5.333333
    },
    {
      "cityName": "Au Gris Han",
      "lat": 50.1,
      "lng": 5.5
    },
    {
      "cityName": "Au Gros Chêné",
      "lat": 50.216667,
      "lng": 5.45
    },
    {
      "cityName": "Au Hestré",
      "lat": 50.233333,
      "lng": 5.783333
    },
    {
      "cityName": "Au Menhir",
      "lat": 50.066667,
      "lng": 5.1
    },
    {
      "cityName": "Au Relay",
      "lat": 50.233333,
      "lng": 5.8
    },
    {
      "cityName": "Autelbas",
      "lat": 49.65,
      "lng": 5.866667
    },
    {
      "cityName": "Autelhaut",
      "lat": 49.65,
      "lng": 5.85
    },
    {
      "cityName": "Au Tomboi",
      "lat": 49.933333,
      "lng": 5.266667
    },
    {
      "cityName": "Au Voyez",
      "lat": 50.116667,
      "lng": 5.6
    },
    {
      "cityName": "Aux Aibricuets",
      "lat": 50.183333,
      "lng": 5.416667
    },
    {
      "cityName": "Aux Alloises",
      "lat": 49.883333,
      "lng": 5.616667
    },
    {
      "cityName": "Aux Deux Hêtres",
      "lat": 50.066667,
      "lng": 5.85
    },
    {
      "cityName": "Aux Fagnes",
      "lat": 50.083333,
      "lng": 5.05
    },
    {
      "cityName": "Aux Fourchons",
      "lat": 49.916667,
      "lng": 5.7
    },
    {
      "cityName": "Aux Rouges Fosses",
      "lat": 50,
      "lng": 5.383333
    },
    {
      "cityName": "Aux Sept Chemins",
      "lat": 49.966667,
      "lng": 5.783333
    },
    {
      "cityName": "Aux Tachenires",
      "lat": 49.966667,
      "lng": 5.316667
    },
    {
      "cityName": "Aux Zazefagnes",
      "lat": 50.316667,
      "lng": 5.866667
    },
    {
      "cityName": "Awenne",
      "lat": 50.083333,
      "lng": 5.3
    },
    {
      "cityName": "Aye",
      "lat": 50.233333,
      "lng": 5.3
    },
    {
      "cityName": "Azette",
      "lat": 50.033333,
      "lng": 5.783333
    },
    {
      "cityName": "Baclain",
      "lat": 50.2,
      "lng": 5.866667
    },
    {
      "cityName": "Baconfoy",
      "lat": 50.083333,
      "lng": 5.533333
    },
    {
      "cityName": "Baconveau",
      "lat": 49.566667,
      "lng": 5.6
    },
    {
      "cityName": "Baddebroek",
      "lat": 51.116667,
      "lng": 4.416667
    },
    {
      "cityName": "Bagimont",
      "lat": 49.816667,
      "lng": 4.866667
    },
    {
      "cityName": "Baltert",
      "lat": 49.75,
      "lng": 5.8
    },
    {
      "cityName": "Ban de Laviot",
      "lat": 49.833333,
      "lng": 5
    },
    {
      "cityName": "Banès-Sârts",
      "lat": 50.016667,
      "lng": 5.116667
    },
    {
      "cityName": "Baneu",
      "lat": 50.066667,
      "lng": 5.833333
    },
    {
      "cityName": "Baranzy",
      "lat": 49.566667,
      "lng": 5.683333
    },
    {
      "cityName": "Baraque Dumont",
      "lat": 50.166667,
      "lng": 5.95
    },
    {
      "cityName": "Baraque Dupont",
      "lat": 50.15,
      "lng": 5.933333
    },
    {
      "cityName": "Baraque Grember",
      "lat": 50.15,
      "lng": 5.95
    },
    {
      "cityName": "Barrière de Champlon",
      "lat": 50.383333,
      "lng": 5.083333
    },
    {
      "cityName": "Barvaux",
      "lat": 50.35,
      "lng": 5.483333
    },
    {
      "cityName": "Barzin",
      "lat": 50.066667,
      "lng": 5.083333
    },
    {
      "cityName": "Basseilles",
      "lat": 50.083333,
      "lng": 5.466667
    },
    {
      "cityName": "Basse Wanchie",
      "lat": 49.8,
      "lng": 5.333333
    },
    {
      "cityName": "Bastenaken",
      "lat": 50,
      "lng": 5.716667
    },
    {
      "cityName": "Battincourt",
      "lat": 49.583333,
      "lng": 5.766667
    },
    {
      "cityName": "Beaulieu",
      "lat": 50.116667,
      "lng": 5.566667
    },
    {
      "cityName": "Beau Plateau",
      "lat": 50,
      "lng": 5.533333
    },
    {
      "cityName": "Beauregard",
      "lat": 49.566667,
      "lng": 5.5
    },
    {
      "cityName": "Beausaint",
      "lat": 50.166667,
      "lng": 5.55
    },
    {
      "cityName": "Beausaint lez La Roche",
      "lat": 50.183333,
      "lng": 5.566667
    },
    {
      "cityName": "Bebange",
      "lat": 49.616667,
      "lng": 5.783333
    },
    {
      "cityName": "Bech",
      "lat": 50.263889,
      "lng": 5.919167
    },
    {
      "cityName": "Beffe",
      "lat": 50.25,
      "lng": 5.516667
    },
    {
      "cityName": "Behême",
      "lat": 49.783333,
      "lng": 5.6
    },
    {
      "cityName": "Beho",
      "lat": 50.220556,
      "lng": 5.998056
    },
    {
      "cityName": "Beleschecken",
      "lat": 49.583333,
      "lng": 5.866667
    },
    {
      "cityName": "Belhez",
      "lat": 50.216667,
      "lng": 5.716667
    },
    {
      "cityName": "Bellain",
      "lat": 50.166667,
      "lng": 5.966667
    },
    {
      "cityName": "Belle Eau",
      "lat": 49.95,
      "lng": 5.616667
    },
    {
      "cityName": "Bellefontaine",
      "lat": 49.666667,
      "lng": 5.5
    },
    {
      "cityName": "Belle Haie",
      "lat": 50.266667,
      "lng": 5.7
    },
    {
      "cityName": "Belles Plumes",
      "lat": 50.066667,
      "lng": 5.15
    },
    {
      "cityName": "Belleva",
      "lat": 50.2,
      "lng": 5.65
    },
    {
      "cityName": "Bellevaux",
      "lat": 49.833333,
      "lng": 5.116667
    },
    {
      "cityName": "Belle Vue",
      "lat": 49.583333,
      "lng": 5.516667
    },
    {
      "cityName": "Bellevue",
      "lat": 49.716667,
      "lng": 5.8
    },
    {
      "cityName": "Belloi",
      "lat": 49.866667,
      "lng": 5.533333
    },
    {
      "cityName": "Belmont",
      "lat": 49.583333,
      "lng": 5.566667
    },
    {
      "cityName": "Bénauvanne",
      "lat": 49.8,
      "lng": 5.183333
    },
    {
      "cityName": "Bende",
      "lat": 50.416667,
      "lng": 5.416667
    },
    {
      "cityName": "Beneck",
      "lat": 49.633333,
      "lng": 5.75
    },
    {
      "cityName": "Benonchamp",
      "lat": 50,
      "lng": 5.816667
    },
    {
      "cityName": "Béoli",
      "lat": 50.05,
      "lng": 5.366667
    },
    {
      "cityName": "Bercheux",
      "lat": 49.9,
      "lng": 5.533333
    },
    {
      "cityName": "Bérisménil",
      "lat": 50.183333,
      "lng": 5.666667
    },
    {
      "cityName": "Bernimont",
      "lat": 49.816667,
      "lng": 5.483333
    },
    {
      "cityName": "Bernistap",
      "lat": 50.116667,
      "lng": 5.866667
    },
    {
      "cityName": "Bertrix",
      "lat": 49.85,
      "lng": 5.25
    },
    {
      "cityName": "Beth",
      "lat": 49.95,
      "lng": 5.116667
    },
    {
      "cityName": "Béthomont",
      "lat": 50.083333,
      "lng": 5.65
    },
    {
      "cityName": "Betlange",
      "lat": 49.916667,
      "lng": 5.766667
    },
    {
      "cityName": "Bien du Censier",
      "lat": 50.316667,
      "lng": 5.666667
    },
    {
      "cityName": "Bietrin Creux",
      "lat": 50.4,
      "lng": 5.433333
    },
    {
      "cityName": "Bihain",
      "lat": 50.233333,
      "lng": 5.816667
    },
    {
      "cityName": "Biourge",
      "lat": 49.833333,
      "lng": 5.316667
    },
    {
      "cityName": "Birel",
      "lat": 49.666667,
      "lng": 5.833333
    },
    {
      "cityName": "Biron",
      "lat": 50.3,
      "lng": 5.466667
    },
    {
      "cityName": "Bizorry",
      "lat": 50.016667,
      "lng": 5.766667
    },
    {
      "cityName": "Blanche-Fontaine",
      "lat": 50.305278,
      "lng": 5.981389
    },
    {
      "cityName": "Blancheoreille",
      "lat": 49.883333,
      "lng": 5.233333
    },
    {
      "cityName": "Blanc-Sart",
      "lat": 49.75,
      "lng": 5.166667
    },
    {
      "cityName": "Bleid",
      "lat": 49.566667,
      "lng": 5.633333
    },
    {
      "cityName": "Bodaimont",
      "lat": 50.133333,
      "lng": 5.666667
    },
    {
      "cityName": "Bodange",
      "lat": 49.85,
      "lng": 5.7
    },
    {
      "cityName": "Boeur",
      "lat": 50.083333,
      "lng": 5.833333
    },
    {
      "cityName": "Boisbolle",
      "lat": 49.9,
      "lng": 5.183333
    },
    {
      "cityName": "Bojaban",
      "lat": 49.8,
      "lng": 5
    },
    {
      "cityName": "Bomal",
      "lat": 50.383333,
      "lng": 5.533333
    },
    {
      "cityName": "Bonance",
      "lat": 49.916667,
      "lng": 5.383333
    },
    {
      "cityName": "Bonne Fame",
      "lat": 49.9,
      "lng": 5.05
    },
    {
      "cityName": "Bonne Fontaine",
      "lat": 50.15,
      "lng": 5.516667
    },
    {
      "cityName": "Bonnert",
      "lat": 49.716667,
      "lng": 5.816667
    },
    {
      "cityName": "Bonnerue",
      "lat": 50.016667,
      "lng": 5.483333
    },
    {
      "cityName": "Borlon",
      "lat": 50.383333,
      "lng": 5.4
    },
    {
      "cityName": "Borzée",
      "lat": 50.183333,
      "lng": 5.633333
    },
    {
      "cityName": "Botassart",
      "lat": 49.816667,
      "lng": 5.05
    },
    {
      "cityName": "Boucandrie",
      "lat": 49.766667,
      "lng": 5.05
    },
    {
      "cityName": "Boucats",
      "lat": 50.016667,
      "lng": 5.166667
    },
    {
      "cityName": "Bouchaimont",
      "lat": 50.316667,
      "lng": 5.5
    },
    {
      "cityName": "Bougnimont",
      "lat": 49.95,
      "lng": 5.466667
    },
    {
      "cityName": "Bouillon",
      "lat": 49.8,
      "lng": 5.066667
    },
    {
      "cityName": "Bourcy",
      "lat": 50.066667,
      "lng": 5.8
    },
    {
      "cityName": "Bourdon",
      "lat": 50.25,
      "lng": 5.383333
    },
    {
      "cityName": "Bourjeusel",
      "lat": 50.133333,
      "lng": 5.833333
    },
    {
      "cityName": "Bournoufaie",
      "lat": 50.233333,
      "lng": 5.633333
    },
    {
      "cityName": "Boverie",
      "lat": 50.2,
      "lng": 5.55
    },
    {
      "cityName": "Bovigny",
      "lat": 50.224167,
      "lng": 5.916944
    },
    {
      "cityName": "Bracht",
      "lat": 50.208889,
      "lng": 6.144444
    },
    {
      "cityName": "Bras",
      "lat": 49.966667,
      "lng": 5.4
    },
    {
      "cityName": "Bras-Haut",
      "lat": 49.983333,
      "lng": 5.383333
    },
    {
      "cityName": "Bresse",
      "lat": 49.7,
      "lng": 5.733333
    },
    {
      "cityName": "Breuvanne",
      "lat": 49.7,
      "lng": 5.5
    },
    {
      "cityName": "Briahan",
      "lat": 49.816667,
      "lng": 5.083333
    },
    {
      "cityName": "Briscol",
      "lat": 50.3,
      "lng": 5.583333
    },
    {
      "cityName": "Brisy",
      "lat": 50.166667,
      "lng": 5.85
    },
    {
      "cityName": "Brochamp aux Plates Aires",
      "lat": 50.1,
      "lng": 5.133333
    },
    {
      "cityName": "Brumayer",
      "lat": 50.283333,
      "lng": 5.666667
    },
    {
      "cityName": "Buchelbusch",
      "lat": 49.716667,
      "lng": 5.833333
    },
    {
      "cityName": "Bufa",
      "lat": 49.916667,
      "lng": 5.25
    },
    {
      "cityName": "Buisson",
      "lat": 50.15,
      "lng": 5.6
    },
    {
      "cityName": "Buret",
      "lat": 50.1,
      "lng": 5.866667
    },
    {
      "cityName": "Burhaimont",
      "lat": 49.866667,
      "lng": 5.25
    },
    {
      "cityName": "Burnon",
      "lat": 49.883333,
      "lng": 5.666667
    },
    {
      "cityName": "Burtonville",
      "lat": 50.284444,
      "lng": 5.964167
    },
    {
      "cityName": "Buvange",
      "lat": 49.633333,
      "lng": 5.8
    },
    {
      "cityName": "Buzenel",
      "lat": 49.65,
      "lng": 5.6
    },
    {
      "cityName": "Carlsbourg",
      "lat": 49.9,
      "lng": 5.083333
    },
    {
      "cityName": "Cawette",
      "lat": 49.6,
      "lng": 5.5
    },
    {
      "cityName": "Celli",
      "lat": 50.066667,
      "lng": 5.516667
    },
    {
      "cityName": "Cens",
      "lat": 50.1,
      "lng": 5.583333
    },
    {
      "cityName": "Cetturu",
      "lat": 50.133333,
      "lng": 5.85
    },
    {
      "cityName": "Chabreheid",
      "lat": 50.233333,
      "lng": 5.716667
    },
    {
      "cityName": "Chabry",
      "lat": 50.083333,
      "lng": 5.583333
    },
    {
      "cityName": "Chamon",
      "lat": 50.283333,
      "lng": 5.633333
    },
    {
      "cityName": "Champagne",
      "lat": 50.3,
      "lng": 5.45
    },
    {
      "cityName": "Champ Blandais",
      "lat": 49.916667,
      "lng": 5.583333
    },
    {
      "cityName": "Champ de Tir",
      "lat": 49.65,
      "lng": 5.733333
    },
    {
      "cityName": "Champlon",
      "lat": 50.116667,
      "lng": 5.5
    },
    {
      "cityName": "Champlon Famenne",
      "lat": 50.216667,
      "lng": 5.366667
    },
    {
      "cityName": "Champs",
      "lat": 50.033333,
      "lng": 5.666667
    },
    {
      "cityName": "Champs de la Fontaine",
      "lat": 50.216667,
      "lng": 5.2
    },
    {
      "cityName": "Chanly",
      "lat": 50.083333,
      "lng": 5.15
    },
    {
      "cityName": "Chantemelle",
      "lat": 49.65,
      "lng": 5.65
    },
    {
      "cityName": "Chantier",
      "lat": 50.1,
      "lng": 5.883333
    },
    {
      "cityName": "Chapelle Saint-Donat",
      "lat": 49.733333,
      "lng": 5.25
    },
    {
      "cityName": "Chapelle Sainte-Anne",
      "lat": 49.7,
      "lng": 5.316667
    },
    {
      "cityName": "Charneux",
      "lat": 50.183333,
      "lng": 5.383333
    },
    {
      "cityName": "Chassepierre",
      "lat": 49.7,
      "lng": 5.266667
    },
    {
      "cityName": "Château le Duc",
      "lat": 49.833333,
      "lng": 5.066667
    },
    {
      "cityName": "Châteaumont",
      "lat": 49.816667,
      "lng": 5.033333
    },
    {
      "cityName": "Château Renaud",
      "lat": 49.633333,
      "lng": 5.55
    },
    {
      "cityName": "Châtillon",
      "lat": 49.633333,
      "lng": 5.7
    },
    {
      "cityName": "Chaumont",
      "lat": 49.916667,
      "lng": 5.666667
    },
    {
      "cityName": "Chaurnaille",
      "lat": 50.15,
      "lng": 5.833333
    },
    {
      "cityName": "Chavanne",
      "lat": 50.183333,
      "lng": 5.35
    },
    {
      "cityName": "Chêne à Han",
      "lat": 50.333333,
      "lng": 5.4
    },
    {
      "cityName": "Chêne al Pierre",
      "lat": 50.333333,
      "lng": 5.666667
    },
    {
      "cityName": "Chêne",
      "lat": 49.866667,
      "lng": 5.566667
    },
    {
      "cityName": "Chênet",
      "lat": 49.95,
      "lng": 5.516667
    },
    {
      "cityName": "Chenne Lisse",
      "lat": 50.016667,
      "lng": 5.066667
    },
    {
      "cityName": "Chenogne",
      "lat": 50,
      "lng": 5.616667
    },
    {
      "cityName": "Chenois",
      "lat": 49.566667,
      "lng": 5.55
    },
    {
      "cityName": "Chéoux",
      "lat": 50.216667,
      "lng": 5.466667
    },
    {
      "cityName": "Cherain",
      "lat": 50.183333,
      "lng": 5.866667
    },
    {
      "cityName": "Cheslé",
      "lat": 50.166667,
      "lng": 5.65
    },
    {
      "cityName": "Chession",
      "lat": 50.15,
      "lng": 5.866667
    },
    {
      "cityName": "Chevaudos",
      "lat": 49.8,
      "lng": 5.483333
    },
    {
      "cityName": "Chevroumont",
      "lat": 50.166667,
      "lng": 5.733333
    },
    {
      "cityName": "Chifontaine",
      "lat": 50.033333,
      "lng": 5.833333
    },
    {
      "cityName": "Chîmonti",
      "lat": 50.200833,
      "lng": 5.935833
    },
    {
      "cityName": "Chiny",
      "lat": 49.733333,
      "lng": 5.333333
    },
    {
      "cityName": "Chiversoux",
      "lat": 49.966667,
      "lng": 5.716667
    },
    {
      "cityName": "Choassnaye",
      "lat": 50.233333,
      "lng": 5.583333
    },
    {
      "cityName": "Chorlet",
      "lat": 49.9,
      "lng": 5.15
    },
    {
      "cityName": "Choviompré",
      "lat": 50.1,
      "lng": 5.7
    },
    {
      "cityName": "Cielle",
      "lat": 50.2,
      "lng": 5.566667
    },
    {
      "cityName": "Cierreux",
      "lat": 50.244167,
      "lng": 5.929722
    },
    {
      "cityName": "Cinse-Jean-Gerot",
      "lat": 49.966667,
      "lng": 5.133333
    },
    {
      "cityName": "Clairefontaine",
      "lat": 49.666667,
      "lng": 5.866667
    },
    {
      "cityName": "Clermont",
      "lat": 50.166667,
      "lng": 5.916667
    },
    {
      "cityName": "Clochimont",
      "lat": 49.95,
      "lng": 5.666667
    },
    {
      "cityName": "Cobru",
      "lat": 50.066667,
      "lng": 5.75
    },
    {
      "cityName": "Cochleval",
      "lat": 50.016667,
      "lng": 5.633333
    },
    {
      "cityName": "Coeuvins",
      "lat": 49.7,
      "lng": 5.633333
    },
    {
      "cityName": "Coignelet",
      "lat": 50.316667,
      "lng": 5.683333
    },
    {
      "cityName": "Coin du Haut",
      "lat": 49.816667,
      "lng": 5.6
    },
    {
      "cityName": "Collas",
      "lat": 50.216667,
      "lng": 5.733333
    },
    {
      "cityName": "Colrin",
      "lat": 50,
      "lng": 5.366667
    },
    {
      "cityName": "Commanster",
      "lat": 50.253333,
      "lng": 6.000833
    },
    {
      "cityName": "Compogne",
      "lat": 50.083333,
      "lng": 5.716667
    },
    {
      "cityName": "Comté",
      "lat": 50.266667,
      "lng": 5.883333
    },
    {
      "cityName": "Concession",
      "lat": 50.229444,
      "lng": 5.965
    },
    {
      "cityName": "Consy",
      "lat": 50.116667,
      "lng": 5.7
    },
    {
      "cityName": "Contranheid",
      "lat": 49.966667,
      "lng": 5.333333
    },
    {
      "cityName": "Copen",
      "lat": 49.966667,
      "lng": 5.583333
    },
    {
      "cityName": "Coquaimont",
      "lat": 50.383333,
      "lng": 5.466667
    },
    {
      "cityName": "Coquenwet",
      "lat": 49.8,
      "lng": 5.666667
    },
    {
      "cityName": "Côré",
      "lat": 49.9,
      "lng": 5.516667
    },
    {
      "cityName": "Corne du Bois des Pendus",
      "lat": 49.8,
      "lng": 5.733333
    },
    {
      "cityName": "Coro",
      "lat": 50.016667,
      "lng": 5.25
    },
    {
      "cityName": "Côte Champion",
      "lat": 49.8,
      "lng": 5.233333
    },
    {
      "cityName": "Côte de Wilbauroche",
      "lat": 49.8,
      "lng": 5.25
    },
    {
      "cityName": "Côte Lambot",
      "lat": 49.8,
      "lng": 5.2
    },
    {
      "cityName": "Courtil",
      "lat": 50.213889,
      "lng": 5.9125
    },
    {
      "cityName": "Coutelle",
      "lat": 50.016667,
      "lng": 5.233333
    },
    {
      "cityName": "Couvreux",
      "lat": 49.55,
      "lng": 5.466667
    },
    {
      "cityName": "Cowan",
      "lat": 50.116667,
      "lng": 5.8
    },
    {
      "cityName": "Croisement de la Flèche",
      "lat": 49.866667,
      "lng": 5.233333
    },
    {
      "cityName": "Croix Fanzel",
      "lat": 50.316667,
      "lng": 5.533333
    },
    {
      "cityName": "Crupchy",
      "lat": 49.966667,
      "lng": 5.383333
    },
    {
      "cityName": "Cul du Four",
      "lat": 50.05,
      "lng": 5.4
    },
    {
      "cityName": "Curfox",
      "lat": 49.816667,
      "lng": 5.066667
    },
    {
      "cityName": "Dampicourt",
      "lat": 49.55,
      "lng": 5.5
    },
    {
      "cityName": "Daviha",
      "lat": 49.733333,
      "lng": 5.266667
    },
    {
      "cityName": "Deiffelt",
      "lat": 50.196389,
      "lng": 6.009444
    },
    {
      "cityName": "Derrière Champmont",
      "lat": 49.983333,
      "lng": 5.216667
    },
    {
      "cityName": "Derrière Hoûmont",
      "lat": 49.95,
      "lng": 5.183333
    },
    {
      "cityName": "Derrière la Haie",
      "lat": 50.066667,
      "lng": 5.3
    },
    {
      "cityName": "Derrière le Chêne",
      "lat": 50.3,
      "lng": 5.683333
    },
    {
      "cityName": "Derrière les Hazelles",
      "lat": 49.65,
      "lng": 5.7
    },
    {
      "cityName": "Dessus la Corne",
      "lat": 50,
      "lng": 5.283333
    },
    {
      "cityName": "Deux Rys",
      "lat": 50.333333,
      "lng": 5.6
    },
    {
      "cityName": "Devantave",
      "lat": 50.233333,
      "lng": 5.566667
    },
    {
      "cityName": "Devant-Hedrée",
      "lat": 50.183333,
      "lng": 5.366667
    },
    {
      "cityName": "Devant la Heid",
      "lat": 49.95,
      "lng": 5.283333
    },
    {
      "cityName": "Devant le Tienne des Monsais",
      "lat": 50.066667,
      "lng": 5.116667
    },
    {
      "cityName": "Devant Luchy",
      "lat": 49.9,
      "lng": 5.333333
    },
    {
      "cityName": "De Wate",
      "lat": 50.233333,
      "lng": 5.616667
    },
    {
      "cityName": "Differt",
      "lat": 49.616667,
      "lng": 5.816667
    },
    {
      "cityName": "Dinez",
      "lat": 50.166667,
      "lng": 5.766667
    },
    {
      "cityName": "Dochamps",
      "lat": 50.233333,
      "lng": 5.533333
    },
    {
      "cityName": "Dohan",
      "lat": 49.8,
      "lng": 5.15
    },
    {
      "cityName": "Dolmen",
      "lat": 50.333333,
      "lng": 5.516667
    },
    {
      "cityName": "Durbui",
      "lat": 50.35,
      "lng": 5.466667
    },
    {
      "cityName": "Ebly",
      "lat": 49.85,
      "lng": 5.533333
    },
    {
      "cityName": "Emcômont",
      "lat": 50.316667,
      "lng": 5.816667
    },
    {
      "cityName": "Ennal",
      "lat": 50.328056,
      "lng": 5.926389
    },
    {
      "cityName": "Épioux",
      "lat": 49.766667,
      "lng": 5.283333
    },
    {
      "cityName": "Érezée",
      "lat": 50.3,
      "lng": 5.55
    },
    {
      "cityName": "Erneuville",
      "lat": 50.116667,
      "lng": 5.55
    },
    {
      "cityName": "Erpigny",
      "lat": 50.283333,
      "lng": 5.566667
    },
    {
      "cityName": "Étalle",
      "lat": 49.683333,
      "lng": 5.6
    },
    {
      "cityName": "Éthe",
      "lat": 49.583333,
      "lng": 5.583333
    },
    {
      "cityName": "Eveux",
      "lat": 50.316667,
      "lng": 5.566667
    },
    {
      "cityName": "Fagne",
      "lat": 50.366667,
      "lng": 5.666667
    },
    {
      "cityName": "Fagnolle",
      "lat": 50.133333,
      "lng": 5.7
    },
    {
      "cityName": "Falhy",
      "lat": 50.216667,
      "lng": 5.65
    },
    {
      "cityName": "Falîjè",
      "lat": 49.85,
      "lng": 5.066667
    },
    {
      "cityName": "Falise",
      "lat": 50.033333,
      "lng": 5.283333
    },
    {
      "cityName": "Famenne",
      "lat": 50.233333,
      "lng": 5.333333
    },
    {
      "cityName": "Fange de la Doneuse",
      "lat": 50.05,
      "lng": 5.383333
    },
    {
      "cityName": "Fange Louis",
      "lat": 49.933333,
      "lng": 5.3
    },
    {
      "cityName": "Farneur",
      "lat": 50.183333,
      "lng": 5.55
    },
    {
      "cityName": "Fasol",
      "lat": 50.25,
      "lng": 5.433333
    },
    {
      "cityName": "Fau Mayau",
      "lat": 49.983333,
      "lng": 5.183333
    },
    {
      "cityName": "Fauvillers",
      "lat": 49.85,
      "lng": 5.666667
    },
    {
      "cityName": "Fays-Famenne",
      "lat": 50.05,
      "lng": 5.066667
    },
    {
      "cityName": "Fays",
      "lat": 50.066667,
      "lng": 5.666667
    },
    {
      "cityName": "Fays-les-Veneurs",
      "lat": 49.866667,
      "lng": 5.166667
    },
    {
      "cityName": "Filly",
      "lat": 50.15,
      "lng": 5.7
    },
    {
      "cityName": "Fineuse",
      "lat": 49.866667,
      "lng": 5.383333
    },
    {
      "cityName": "Fisenne",
      "lat": 50.283333,
      "lng": 5.533333
    },
    {
      "cityName": "Flamierce",
      "lat": 50.033333,
      "lng": 5.6
    },
    {
      "cityName": "Flamisoul",
      "lat": 50.033333,
      "lng": 5.633333
    },
    {
      "cityName": "Flatry",
      "lat": 50.283333,
      "lng": 5.583333
    },
    {
      "cityName": "Flohimont",
      "lat": 49.916667,
      "lng": 5.4
    },
    {
      "cityName": "Florenville",
      "lat": 49.7,
      "lng": 5.3
    },
    {
      "cityName": "Florka",
      "lat": 50.083333,
      "lng": 5.7
    },
    {
      "cityName": "Fodai",
      "lat": 49.866667,
      "lng": 5.333333
    },
    {
      "cityName": "Fond de Bende",
      "lat": 50.416667,
      "lng": 5.433333
    },
    {
      "cityName": "Fond-de-Chêne",
      "lat": 49.983333,
      "lng": 5.166667
    },
    {
      "cityName": "Fond de la Justice",
      "lat": 50.283333,
      "lng": 5.683333
    },
    {
      "cityName": "Fond de la Mathiote",
      "lat": 49.75,
      "lng": 5.366667
    },
    {
      "cityName": "Fond de Nazieux Fa",
      "lat": 50.266667,
      "lng": 5.716667
    },
    {
      "cityName": "Fond des Malades",
      "lat": 50.266667,
      "lng": 5.533333
    },
    {
      "cityName": "Fond des Vaux",
      "lat": 50.1,
      "lng": 5.116667
    },
    {
      "cityName": "Fond du Père Pie",
      "lat": 49.75,
      "lng": 5.383333
    },
    {
      "cityName": "Fond Guérin",
      "lat": 50,
      "lng": 5.233333
    },
    {
      "cityName": "Fond Saint-Roch",
      "lat": 50.016667,
      "lng": 5.383333
    },
    {
      "cityName": "Fontaine de Burton",
      "lat": 49.983333,
      "lng": 5.616667
    },
    {
      "cityName": "Fontenaille",
      "lat": 50.15,
      "lng": 5.783333
    },
    {
      "cityName": "Fonteni",
      "lat": 50.166667,
      "lng": 5.683333
    },
    {
      "cityName": "Fontenoile",
      "lat": 49.716667,
      "lng": 5.233333
    },
    {
      "cityName": "Foquelet",
      "lat": 50,
      "lng": 5.65
    },
    {
      "cityName": "Forges Roussel",
      "lat": 49.733333,
      "lng": 5.3
    },
    {
      "cityName": "Forrières",
      "lat": 50.133333,
      "lng": 5.283333
    },
    {
      "cityName": "Forrières-Saint-Martin",
      "lat": 50.116667,
      "lng": 5.266667
    },
    {
      "cityName": "Fosset",
      "lat": 50.033333,
      "lng": 5.566667
    },
    {
      "cityName": "Fouches",
      "lat": 49.7,
      "lng": 5.716667
    },
    {
      "cityName": "Foulie",
      "lat": 49.7,
      "lng": 5.666667
    },
    {
      "cityName": "Fourche",
      "lat": 50.233333,
      "lng": 5.316667
    },
    {
      "cityName": "Fourneau Saint-Michel",
      "lat": 50.083333,
      "lng": 5.333333
    },
    {
      "cityName": "Foy",
      "lat": 50.05,
      "lng": 5.75
    },
    {
      "cityName": "Frambeyi",
      "lat": 49.966667,
      "lng": 5.116667
    },
    {
      "cityName": "Framont",
      "lat": 49.916667,
      "lng": 5.166667
    },
    {
      "cityName": "Frassem",
      "lat": 49.7,
      "lng": 5.833333
    },
    {
      "cityName": "Fratin",
      "lat": 49.666667,
      "lng": 5.583333
    },
    {
      "cityName": "Freineux",
      "lat": 50.25,
      "lng": 5.65
    },
    {
      "cityName": "Frêne",
      "lat": 49.933333,
      "lng": 5.116667
    },
    {
      "cityName": "Frenet",
      "lat": 50.05,
      "lng": 5.633333
    },
    {
      "cityName": "Frenoi",
      "lat": 49.7,
      "lng": 5.45
    },
    {
      "cityName": "Fresch Hazel",
      "lat": 50.05,
      "lng": 5.083333
    },
    {
      "cityName": "Freux",
      "lat": 49.966667,
      "lng": 5.45
    },
    {
      "cityName": "Freux Ménil",
      "lat": 49.983333,
      "lng": 5.45
    },
    {
      "cityName": "Freylange",
      "lat": 49.7,
      "lng": 5.766667
    },
    {
      "cityName": "Froid Lieu",
      "lat": 50.083333,
      "lng": 5.066667
    },
    {
      "cityName": "Gaichel",
      "lat": 49.7,
      "lng": 5.866667
    },
    {
      "cityName": "Geisbour",
      "lat": 50.216667,
      "lng": 5.983333
    },
    {
      "cityName": "Gembes",
      "lat": 50,
      "lng": 5.066667
    },
    {
      "cityName": "Gênes",
      "lat": 50.183333,
      "lng": 5.483333
    },
    {
      "cityName": "Gennehaye",
      "lat": 50.2,
      "lng": 5.5
    },
    {
      "cityName": "Gennevaux",
      "lat": 49.566667,
      "lng": 5.7
    },
    {
      "cityName": "Gérard Fontaine",
      "lat": 49.8,
      "lng": 5.05
    },
    {
      "cityName": "Géripont",
      "lat": 49.85,
      "lng": 5.2
    },
    {
      "cityName": "Germe au Champ",
      "lat": 49.766667,
      "lng": 5.083333
    },
    {
      "cityName": "Gérouville",
      "lat": 49.616667,
      "lng": 5.433333
    },
    {
      "cityName": "Gévimont",
      "lat": 49.583333,
      "lng": 5.6
    },
    {
      "cityName": "Gives",
      "lat": 50.066667,
      "lng": 5.633333
    },
    {
      "cityName": "Givroulle",
      "lat": 50.066667,
      "lng": 5.616667
    },
    {
      "cityName": "Glaireuse",
      "lat": 49.966667,
      "lng": 5.25
    },
    {
      "cityName": "Glaumont",
      "lat": 49.866667,
      "lng": 5.216667
    },
    {
      "cityName": "Godaroquet",
      "lat": 50.283333,
      "lng": 5.616667
    },
    {
      "cityName": "Godinval",
      "lat": 49.916667,
      "lng": 5.633333
    },
    {
      "cityName": "Gofontaine",
      "lat": 49.95,
      "lng": 5.4
    },
    {
      "cityName": "Goronne",
      "lat": 50.283333,
      "lng": 5.866667
    },
    {
      "cityName": "Gouvy",
      "lat": 50.185,
      "lng": 5.941111
    },
    {
      "cityName": "Grand Bru",
      "lat": 50.366667,
      "lng": 5.616667
    },
    {
      "cityName": "Grandcourt",
      "lat": 49.533333,
      "lng": 5.6
    },
    {
      "cityName": "Grande Eneille",
      "lat": 50.316667,
      "lng": 5.383333
    },
    {
      "cityName": "Grande Fonderie",
      "lat": 50.3,
      "lng": 5.666667
    },
    {
      "cityName": "Grande Fontaine",
      "lat": 50.016667,
      "lng": 5.7
    },
    {
      "cityName": "Grande Hoursine",
      "lat": 50.316667,
      "lng": 5.616667
    },
    {
      "cityName": "Grande Mormont",
      "lat": 50.15,
      "lng": 5.716667
    },
    {
      "cityName": "Grande Rosière",
      "lat": 49.916667,
      "lng": 5.566667
    },
    {
      "cityName": "Grande Strument",
      "lat": 50.166667,
      "lng": 5.566667
    },
    {
      "cityName": "Grande-Taille",
      "lat": 50.033333,
      "lng": 5.266667
    },
    {
      "cityName": "Grand Gotta",
      "lat": 50.283333,
      "lng": 5.7
    },
    {
      "cityName": "Grand-Halleux",
      "lat": 50.325833,
      "lng": 5.907222
    },
    {
      "cityName": "Grandhan",
      "lat": 50.333333,
      "lng": 5.416667
    },
    {
      "cityName": "Grand Hez",
      "lat": 49.716667,
      "lng": 5.133333
    },
    {
      "cityName": "Grandmenil",
      "lat": 50.283333,
      "lng": 5.65
    },
    {
      "cityName": "Grandrue",
      "lat": 49.933333,
      "lng": 5.666667
    },
    {
      "cityName": "Grany",
      "lat": 50,
      "lng": 5.05
    },
    {
      "cityName": "Grapfontaine",
      "lat": 49.816667,
      "lng": 5.4
    },
    {
      "cityName": "Gremelange",
      "lat": 49.85,
      "lng": 5.75
    },
    {
      "cityName": "Grendel",
      "lat": 49.766667,
      "lng": 5.8
    },
    {
      "cityName": "Griben",
      "lat": 50.185278,
      "lng": 6.007778
    },
    {
      "cityName": "Gribomont",
      "lat": 49.816667,
      "lng": 5.316667
    },
    {
      "cityName": "Grifaumont",
      "lat": 49.7,
      "lng": 5.383333
    },
    {
      "cityName": "Grimbiémont",
      "lat": 50.2,
      "lng": 5.433333
    },
    {
      "cityName": "Grimonty",
      "lat": 49.8,
      "lng": 5.083333
    },
    {
      "cityName": "Grinchamps",
      "lat": 50.133333,
      "lng": 5.516667
    },
    {
      "cityName": "Grinvay",
      "lat": 50.133333,
      "lng": 5.716667
    },
    {
      "cityName": "Gros-Fays",
      "lat": 50.1,
      "lng": 5.333333
    },
    {
      "cityName": "Grosse Haie",
      "lat": 50.016667,
      "lng": 5.3
    },
    {
      "cityName": "Grune",
      "lat": 50.15,
      "lng": 5.383333
    },
    {
      "cityName": "Grupont",
      "lat": 50.083333,
      "lng": 5.283333
    },
    {
      "cityName": "Guéflenière",
      "lat": 49.883333,
      "lng": 5.4
    },
    {
      "cityName": "Guelff",
      "lat": 49.616667,
      "lng": 5.766667
    },
    {
      "cityName": "Guerlange",
      "lat": 49.583333,
      "lng": 5.85
    },
    {
      "cityName": "Guirsch",
      "lat": 49.733333,
      "lng": 5.85
    },
    {
      "cityName": "Habaru",
      "lat": 49.8,
      "lng": 5.5
    },
    {
      "cityName": "Habay",
      "lat": 49.733333,
      "lng": 5.616667
    },
    {
      "cityName": "Habay-la-Neuve",
      "lat": 49.733333,
      "lng": 5.65
    },
    {
      "cityName": "Habinée",
      "lat": 50.2,
      "lng": 5.666667
    },
    {
      "cityName": "Hache",
      "lat": 50.316667,
      "lng": 5.65
    },
    {
      "cityName": "Hachy",
      "lat": 49.7,
      "lng": 5.683333
    },
    {
      "cityName": "Haie de Pourceau",
      "lat": 50.35,
      "lng": 5.566667
    },
    {
      "cityName": "Haie du Capitaine",
      "lat": 50.116667,
      "lng": 5.333333
    },
    {
      "cityName": "Haie du Pouhon",
      "lat": 50.266667,
      "lng": 5.616667
    },
    {
      "cityName": "Halanzy",
      "lat": 49.566667,
      "lng": 5.75
    },
    {
      "cityName": "Halconreux",
      "lat": 50.195278,
      "lng": 5.924444
    },
    {
      "cityName": "Halet",
      "lat": 49.916667,
      "lng": 5.35
    },
    {
      "cityName": "Hallet",
      "lat": 50.116667,
      "lng": 5.766667
    },
    {
      "cityName": "Halleux",
      "lat": 50.166667,
      "lng": 5.5
    },
    {
      "cityName": "Halma",
      "lat": 50.083333,
      "lng": 5.133333
    },
    {
      "cityName": "Halonreux",
      "lat": 50.183333,
      "lng": 5.833333
    },
    {
      "cityName": "Hamipré",
      "lat": 49.833333,
      "lng": 5.45
    },
    {
      "cityName": "Hamoul",
      "lat": 50.25,
      "lng": 5.5
    },
    {
      "cityName": "Hampteau",
      "lat": 50.25,
      "lng": 5.466667
    },
    {
      "cityName": "Hamrinne",
      "lat": 50.133333,
      "lng": 5.5
    },
    {
      "cityName": "Handeuwez",
      "lat": 50.2,
      "lng": 5.466667
    },
    {
      "cityName": "Han-du-Han",
      "lat": 49.8,
      "lng": 5.116667
    },
    {
      "cityName": "Han",
      "lat": 49.683333,
      "lng": 5.533333
    },
    {
      "cityName": "Hanieveau",
      "lat": 49.8,
      "lng": 5.45
    },
    {
      "cityName": "Hardigny",
      "lat": 50.083333,
      "lng": 5.8
    },
    {
      "cityName": "Hardinfosse",
      "lat": 50.133333,
      "lng": 5.566667
    },
    {
      "cityName": "Harfontaine",
      "lat": 49.816667,
      "lng": 5.383333
    },
    {
      "cityName": "Hargimont",
      "lat": 50.183333,
      "lng": 5.316667
    },
    {
      "cityName": "Harinsart",
      "lat": 49.716667,
      "lng": 5.533333
    },
    {
      "cityName": "Harivaux",
      "lat": 49.933333,
      "lng": 5.483333
    },
    {
      "cityName": "Harmansart",
      "lat": 49.816667,
      "lng": 4.933333
    },
    {
      "cityName": "Harnoncourt",
      "lat": 49.533333,
      "lng": 5.5
    },
    {
      "cityName": "Harre",
      "lat": 50.35,
      "lng": 5.65
    },
    {
      "cityName": "Hassonville",
      "lat": 50.216667,
      "lng": 5.3
    },
    {
      "cityName": "Hatoufa",
      "lat": 50.333333,
      "lng": 5.683333
    },
    {
      "cityName": "Hatrival",
      "lat": 50,
      "lng": 5.35
    },
    {
      "cityName": "Haule",
      "lat": 49.85,
      "lng": 5.05
    },
    {
      "cityName": "Haut-Fays",
      "lat": 50,
      "lng": 5.016667
    },
    {
      "cityName": "Haut Mont",
      "lat": 49.95,
      "lng": 5.1
    },
    {
      "cityName": "Haut Sart",
      "lat": 50.083333,
      "lng": 5.75
    },
    {
      "cityName": "Havissart",
      "lat": 50.25,
      "lng": 5.6
    },
    {
      "cityName": "Hazy",
      "lat": 50.133333,
      "lng": 5.766667
    },
    {
      "cityName": "Hebronval",
      "lat": 50.25,
      "lng": 5.816667
    },
    {
      "cityName": "Heckbous",
      "lat": 49.716667,
      "lng": 5.866667
    },
    {
      "cityName": "Hé de Lonay",
      "lat": 50.2,
      "lng": 5.683333
    },
    {
      "cityName": "Heidela",
      "lat": 50.416667,
      "lng": 5.5
    },
    {
      "cityName": "Heinsch",
      "lat": 49.7,
      "lng": 5.75
    },
    {
      "cityName": "Heinsterterpaad",
      "lat": 49.75,
      "lng": 5.733333
    },
    {
      "cityName": "Heinstert",
      "lat": 49.766667,
      "lng": 5.733333
    },
    {
      "cityName": "Hemroule",
      "lat": 50.016667,
      "lng": 5.683333
    },
    {
      "cityName": "Herbaimont",
      "lat": 50.05,
      "lng": 5.55
    },
    {
      "cityName": "Herbet",
      "lat": 50.383333,
      "lng": 5.5
    },
    {
      "cityName": "Herbeumont",
      "lat": 49.783333,
      "lng": 5.233333
    },
    {
      "cityName": "Herlinval",
      "lat": 50.116667,
      "lng": 5.633333
    },
    {
      "cityName": "Herloz",
      "lat": 50.316667,
      "lng": 5.783333
    },
    {
      "cityName": "Hermanne",
      "lat": 50.416667,
      "lng": 5.483333
    },
    {
      "cityName": "Hérou",
      "lat": 50.15,
      "lng": 5.65
    },
    {
      "cityName": "Herrenberg",
      "lat": 49.866667,
      "lng": 5.716667
    },
    {
      "cityName": "Herrival",
      "lat": 50.1,
      "lng": 5.85
    },
    {
      "cityName": "Hestroi",
      "lat": 49.9,
      "lng": 5.466667
    },
    {
      "cityName": "Hestrulle",
      "lat": 49.933333,
      "lng": 5.516667
    },
    {
      "cityName": "Himans",
      "lat": 49.7,
      "lng": 5.283333
    },
    {
      "cityName": "Hinter dem Ewemt",
      "lat": 49.633333,
      "lng": 5.9
    },
    {
      "cityName": "Hives",
      "lat": 50.15,
      "lng": 5.583333
    },
    {
      "cityName": "Hochîchamp",
      "lat": 49.85,
      "lng": 5.483333
    },
    {
      "cityName": "Hoffland",
      "lat": 50.225833,
      "lng": 6.011111
    },
    {
      "cityName": "Hohwattig",
      "lat": 49.883333,
      "lng": 5.716667
    },
    {
      "cityName": "Hollange",
      "lat": 49.9,
      "lng": 5.683333
    },
    {
      "cityName": "Hollogne",
      "lat": 50.216667,
      "lng": 5.35
    },
    {
      "cityName": "Hompré",
      "lat": 49.95,
      "lng": 5.683333
    },
    {
      "cityName": "Hondelange",
      "lat": 49.633333,
      "lng": 5.833333
    },
    {
      "cityName": "Honscheid",
      "lat": 49.816667,
      "lng": 5.733333
    },
    {
      "cityName": "Honvelez",
      "lat": 50.235278,
      "lng": 5.916667
    },
    {
      "cityName": "Honville",
      "lat": 49.916667,
      "lng": 5.733333
    },
    {
      "cityName": "Horlé",
      "lat": 49.916667,
      "lng": 5.133333
    },
    {
      "cityName": "Hosseuse",
      "lat": 49.816667,
      "lng": 5.416667
    },
    {
      "cityName": "Hottée du Diable",
      "lat": 49.783333,
      "lng": 5.033333
    },
    {
      "cityName": "Hotton",
      "lat": 50.266667,
      "lng": 5.45
    },
    {
      "cityName": "Houdemont",
      "lat": 49.716667,
      "lng": 5.583333
    },
    {
      "cityName": "Houdrigny",
      "lat": 49.583333,
      "lng": 5.5
    },
    {
      "cityName": "Houffalize",
      "lat": 50.133333,
      "lng": 5.783333
    },
    {
      "cityName": "Houmart",
      "lat": 50.4,
      "lng": 5.483333
    },
    {
      "cityName": "Houmont",
      "lat": 50,
      "lng": 5.583333
    },
    {
      "cityName": "Hourt",
      "lat": 50.316111,
      "lng": 5.910278
    },
    {
      "cityName": "Hout-si-Plout",
      "lat": 50.3,
      "lng": 5.716667
    },
    {
      "cityName": "Hubermont",
      "lat": 50.016667,
      "lng": 5.583333
    },
    {
      "cityName": "Hultai",
      "lat": 49.8,
      "lng": 5.166667
    },
    {
      "cityName": "Humain",
      "lat": 50.2,
      "lng": 5.25
    },
    {
      "cityName": "Huombois",
      "lat": 49.633333,
      "lng": 5.566667
    },
    {
      "cityName": "Huquenie",
      "lat": 49.866667,
      "lng": 5.35
    },
    {
      "cityName": "Ins ès Mwinnis",
      "lat": 50.116667,
      "lng": 5.35
    },
    {
      "cityName": "Ins ès Prés",
      "lat": 50.133333,
      "lng": 5.333333
    },
    {
      "cityName": "Isle le Pré",
      "lat": 50,
      "lng": 5.7
    },
    {
      "cityName": "Izier",
      "lat": 50.383333,
      "lng": 5.583333
    },
    {
      "cityName": "Jaffen",
      "lat": 50.216667,
      "lng": 5.966667
    },
    {
      "cityName": "Jamodenne",
      "lat": 50.216667,
      "lng": 5.283333
    },
    {
      "cityName": "Jamoigne",
      "lat": 49.7,
      "lng": 5.416667
    },
    {
      "cityName": "Jehonville",
      "lat": 49.9,
      "lng": 5.2
    },
    {
      "cityName": "Jenneville",
      "lat": 50,
      "lng": 5.483333
    },
    {
      "cityName": "Jodenville",
      "lat": 49.966667,
      "lng": 5.616667
    },
    {
      "cityName": "Jupille",
      "lat": 50.216667,
      "lng": 5.533333
    },
    {
      "cityName": "Juseret",
      "lat": 49.883333,
      "lng": 5.55
    },
    {
      "cityName": "Juzaine",
      "lat": 50.366667,
      "lng": 5.533333
    },
    {
      "cityName": "Knep",
      "lat": 49.6,
      "lng": 5.783333
    },
    {
      "cityName": "Kurtzenbourflass",
      "lat": 49.75,
      "lng": 5.7
    },
    {
      "cityName": "La Belle au Bois",
      "lat": 49.916667,
      "lng": 5.5
    },
    {
      "cityName": "La Cachette",
      "lat": 49.8,
      "lng": 4.883333
    },
    {
      "cityName": "La Cambuse",
      "lat": 49.5,
      "lng": 5.466667
    },
    {
      "cityName": "Laclaireau",
      "lat": 49.6,
      "lng": 5.6
    },
    {
      "cityName": "La Converserie",
      "lat": 50.1,
      "lng": 5.45
    },
    {
      "cityName": "La Cornette",
      "lat": 49.816667,
      "lng": 5.15
    },
    {
      "cityName": "La Côte",
      "lat": 49.866667,
      "lng": 5.05
    },
    {
      "cityName": "La Cragnière",
      "lat": 49.633333,
      "lng": 5.483333
    },
    {
      "cityName": "La Crosse",
      "lat": 49.866667,
      "lng": 5.4
    },
    {
      "cityName": "Lacuisine",
      "lat": 49.716667,
      "lng": 5.316667
    },
    {
      "cityName": "La Damezelle",
      "lat": 49.95,
      "lng": 5.55
    },
    {
      "cityName": "La Dûte",
      "lat": 49.916667,
      "lng": 5.266667
    },
    {
      "cityName": "La Falisse",
      "lat": 50.05,
      "lng": 5.533333
    },
    {
      "cityName": "La Fange des Seeps",
      "lat": 49.75,
      "lng": 5.416667
    },
    {
      "cityName": "La Fays",
      "lat": 49.55,
      "lng": 5.75
    },
    {
      "cityName": "La Folie",
      "lat": 49.8,
      "lng": 5.75
    },
    {
      "cityName": "La Forge",
      "lat": 50.333333,
      "lng": 5.583333
    },
    {
      "cityName": "La Fosse",
      "lat": 50.266667,
      "lng": 5.633333
    },
    {
      "cityName": "La Foulerie",
      "lat": 49.733333,
      "lng": 5.35
    },
    {
      "cityName": "La Garde de Dieu",
      "lat": 49.633333,
      "lng": 5.416667
    },
    {
      "cityName": "La Gernelle",
      "lat": 49.783333,
      "lng": 5.05
    },
    {
      "cityName": "L'Aghmina",
      "lat": 50.216667,
      "lng": 5.8
    },
    {
      "cityName": "La Gotal",
      "lat": 50.333333,
      "lng": 5.7
    },
    {
      "cityName": "La Gotte",
      "lat": 50,
      "lng": 5.416667
    },
    {
      "cityName": "La Grosse Haie",
      "lat": 50.266667,
      "lng": 5.666667
    },
    {
      "cityName": "La Hache",
      "lat": 49.95,
      "lng": 5.566667
    },
    {
      "cityName": "Lahage",
      "lat": 49.65,
      "lng": 5.5
    },
    {
      "cityName": "La Haie",
      "lat": 50.25,
      "lng": 5.966667
    },
    {
      "cityName": "La Hailheule",
      "lat": 49.7,
      "lng": 5.4
    },
    {
      "cityName": "La Haute Cour",
      "lat": 50.2,
      "lng": 5.616667
    },
    {
      "cityName": "La Hazelle",
      "lat": 50,
      "lng": 5.1
    },
    {
      "cityName": "Lahé du Pouhon",
      "lat": 50.383333,
      "lng": 5.616667
    },
    {
      "cityName": "Laherie",
      "lat": 49.866667,
      "lng": 5.483333
    },
    {
      "cityName": "Lahez",
      "lat": 50.033333,
      "lng": 5.75
    },
    {
      "cityName": "Laiche",
      "lat": 49.716667,
      "lng": 5.283333
    },
    {
      "cityName": "Laid Buisson",
      "lat": 49.8,
      "lng": 5.416667
    },
    {
      "cityName": "Laide Fontaine",
      "lat": 50.05,
      "lng": 5.316667
    },
    {
      "cityName": "Laid Loiseau",
      "lat": 50.333333,
      "lng": 5.616667
    },
    {
      "cityName": "Laid Thier",
      "lat": 50.133333,
      "lng": 5.683333
    },
    {
      "cityName": "La Justice",
      "lat": 49.933333,
      "lng": 5.133333
    },
    {
      "cityName": "La Loge",
      "lat": 50,
      "lng": 5.333333
    },
    {
      "cityName": "La Maladrie",
      "lat": 49.866667,
      "lng": 5.45
    },
    {
      "cityName": "La Maljoyeuse",
      "lat": 49.816667,
      "lng": 5.266667
    },
    {
      "cityName": "Lambermont",
      "lat": 49.7,
      "lng": 5.183333
    },
    {
      "cityName": "La Mine",
      "lat": 50.033333,
      "lng": 5.85
    },
    {
      "cityName": "La Mohy",
      "lat": 49.9,
      "lng": 5.066667
    },
    {
      "cityName": "Lamormenil",
      "lat": 50.25,
      "lng": 5.633333
    },
    {
      "cityName": "Lamorteau",
      "lat": 49.533333,
      "lng": 5.483333
    },
    {
      "cityName": "La Mouline",
      "lat": 49.9,
      "lng": 5.383333
    },
    {
      "cityName": "La Neuve Forge",
      "lat": 49.616667,
      "lng": 5.616667
    },
    {
      "cityName": "La Neuville",
      "lat": 49.716667,
      "lng": 5.366667
    },
    {
      "cityName": "Laneuville",
      "lat": 49.933333,
      "lng": 5.5
    },
    {
      "cityName": "Langlir",
      "lat": 50.233333,
      "lng": 5.85
    },
    {
      "cityName": "La Nouvresse Haie",
      "lat": 49.933333,
      "lng": 5.233333
    },
    {
      "cityName": "L'Aoye",
      "lat": 50.016667,
      "lng": 5.416667
    },
    {
      "cityName": "La Pèlète",
      "lat": 49.866667,
      "lng": 5.3
    },
    {
      "cityName": "La Penne",
      "lat": 50.116667,
      "lng": 5.666667
    },
    {
      "cityName": "L'Ardoisiere",
      "lat": 49.95,
      "lng": 5.7
    },
    {
      "cityName": "La Rigonel",
      "lat": 49.833333,
      "lng": 5.033333
    },
    {
      "cityName": "La Roche-en-Ardenne",
      "lat": 50.183333,
      "lng": 5.583333
    },
    {
      "cityName": "La Rochette",
      "lat": 49.6,
      "lng": 5.616667
    },
    {
      "cityName": "La Ronchette",
      "lat": 49.85,
      "lng": 5.166667
    },
    {
      "cityName": "La Rosière",
      "lat": 49.666667,
      "lng": 5.483333
    },
    {
      "cityName": "La Soïsse",
      "lat": 49.783333,
      "lng": 5.016667
    },
    {
      "cityName": "Laspèche",
      "lat": 49.85,
      "lng": 5.016667
    },
    {
      "cityName": "La Spège",
      "lat": 49.916667,
      "lng": 5.3
    },
    {
      "cityName": "Lassain",
      "lat": 50.216667,
      "lng": 5.866667
    },
    {
      "cityName": "La Taie",
      "lat": 49.883333,
      "lng": 5.183333
    },
    {
      "cityName": "Latour",
      "lat": 49.566667,
      "lng": 5.566667
    },
    {
      "cityName": "La Tuerie",
      "lat": 49.583333,
      "lng": 5.65
    },
    {
      "cityName": "La Tuilerie",
      "lat": 49.55,
      "lng": 5.533333
    },
    {
      "cityName": "Launoy",
      "lat": 49.883333,
      "lng": 5.15
    },
    {
      "cityName": "Lavacherie",
      "lat": 50.05,
      "lng": 5.516667
    },
    {
      "cityName": "Lavaselle",
      "lat": 49.983333,
      "lng": 5.6
    },
    {
      "cityName": "La Vieille Taille",
      "lat": 50.033333,
      "lng": 5.2
    },
    {
      "cityName": "Laviot",
      "lat": 49.833333,
      "lng": 4.983333
    },
    {
      "cityName": "Le Beau Ban",
      "lat": 49.683333,
      "lng": 5.283333
    },
    {
      "cityName": "Lebeuleux",
      "lat": 50.183333,
      "lng": 5.916667
    },
    {
      "cityName": "Le Bosquet",
      "lat": 49.883333,
      "lng": 5.166667
    },
    {
      "cityName": "Le Chay",
      "lat": 49.9,
      "lng": 5.716667
    },
    {
      "cityName": "Le Combry",
      "lat": 49.85,
      "lng": 5.233333
    },
    {
      "cityName": "Le Faubourg",
      "lat": 49.666667,
      "lng": 5.683333
    },
    {
      "cityName": "Le Fond",
      "lat": 50.233333,
      "lng": 5.733333
    },
    {
      "cityName": "Le Foy",
      "lat": 50.166667,
      "lng": 5.35
    },
    {
      "cityName": "Le Fréty",
      "lat": 49.783333,
      "lng": 5.383333
    },
    {
      "cityName": "Léglise",
      "lat": 49.8,
      "lng": 5.533333
    },
    {
      "cityName": "Legnai Thière",
      "lat": 50.333333,
      "lng": 5.866667
    },
    {
      "cityName": "Le Grand Mininpré",
      "lat": 49.833333,
      "lng": 5.283333
    },
    {
      "cityName": "Le Grand Vivier",
      "lat": 50.05,
      "lng": 5.05
    },
    {
      "cityName": "Le Hally",
      "lat": 50.15,
      "lng": 5.416667
    },
    {
      "cityName": "Leharjostet",
      "lat": 50.183333,
      "lng": 5.4
    },
    {
      "cityName": "Le Hochet",
      "lat": 49.966667,
      "lng": 5.15
    },
    {
      "cityName": "Le Maqua",
      "lat": 50.116667,
      "lng": 5.583333
    },
    {
      "cityName": "Le Merdier",
      "lat": 50.083333,
      "lng": 5.083333
    },
    {
      "cityName": "Lenclos",
      "lat": 49.683333,
      "lng": 5.616667
    },
    {
      "cityName": "Le Noir Étang",
      "lat": 49.65,
      "lng": 5.366667
    },
    {
      "cityName": "Le Parque",
      "lat": 49.883333,
      "lng": 5.683333
    },
    {
      "cityName": "Le Pommerut",
      "lat": 49.633333,
      "lng": 5.433333
    },
    {
      "cityName": "Le Pré des Forges",
      "lat": 50.066667,
      "lng": 5.25
    },
    {
      "cityName": "Le Pré Piret",
      "lat": 49.783333,
      "lng": 5.15
    },
    {
      "cityName": "Le Prieuré",
      "lat": 49.716667,
      "lng": 5.183333
    },
    {
      "cityName": "L'Ermite",
      "lat": 49.8,
      "lng": 5.283333
    },
    {
      "cityName": "Le Rote",
      "lat": 50.366667,
      "lng": 5.516667
    },
    {
      "cityName": "Le Rovreux",
      "lat": 50.25,
      "lng": 5.95
    },
    {
      "cityName": "Les 4 Bornes",
      "lat": 49.833333,
      "lng": 4.9
    },
    {
      "cityName": "Les Agences",
      "lat": 49.75,
      "lng": 5.616667
    },
    {
      "cityName": "Le Sart",
      "lat": 49.816667,
      "lng": 5.433333
    },
    {
      "cityName": "Les Assences",
      "lat": 49.783333,
      "lng": 5.166667
    },
    {
      "cityName": "Les Baraques",
      "lat": 50.016667,
      "lng": 5.216667
    },
    {
      "cityName": "Les Bochets",
      "lat": 49.6,
      "lng": 5.433333
    },
    {
      "cityName": "Les Buissons",
      "lat": 49.883333,
      "lng": 5.533333
    },
    {
      "cityName": "Les Caves de la Forêt",
      "lat": 49.833333,
      "lng": 5.683333
    },
    {
      "cityName": "Les Chapons",
      "lat": 50.183333,
      "lng": 5.733333
    },
    {
      "cityName": "Lescherat",
      "lat": 49.883333,
      "lng": 5.566667
    },
    {
      "cityName": "Lescolais",
      "lat": 50.233333,
      "lng": 5.25
    },
    {
      "cityName": "Les Coriottes",
      "lat": 50.25,
      "lng": 6
    },
    {
      "cityName": "Les Eaumonts",
      "lat": 49.783333,
      "lng": 5.45
    },
    {
      "cityName": "Les Enclaves",
      "lat": 49.8,
      "lng": 5.1
    },
    {
      "cityName": "Les Étangs de Saint-Roch",
      "lat": 50.05,
      "lng": 5.266667
    },
    {
      "cityName": "Les Fanges du Coq",
      "lat": 49.733333,
      "lng": 5.6
    },
    {
      "cityName": "Les Fossés",
      "lat": 49.783333,
      "lng": 5.483333
    },
    {
      "cityName": "Les Hautes Virées",
      "lat": 49.933333,
      "lng": 5.166667
    },
    {
      "cityName": "Les Hautes Voyes",
      "lat": 49.833333,
      "lng": 5.133333
    },
    {
      "cityName": "Les Hayons",
      "lat": 49.816667,
      "lng": 5.133333
    },
    {
      "cityName": "Les Mestures",
      "lat": 49.8,
      "lng": 5.4
    },
    {
      "cityName": "Les Quatre Arbres",
      "lat": 49.7,
      "lng": 5.233333
    },
    {
      "cityName": "Les Quatre Chemins",
      "lat": 49.766667,
      "lng": 5.166667
    },
    {
      "cityName": "Les Reffes",
      "lat": 49.883333,
      "lng": 5.116667
    },
    {
      "cityName": "Les Rêvos",
      "lat": 50.066667,
      "lng": 5.233333
    },
    {
      "cityName": "Les Rogneuses Terres",
      "lat": 49.916667,
      "lng": 5.466667
    },
    {
      "cityName": "Lès Rosès",
      "lat": 49.883333,
      "lng": 5.266667
    },
    {
      "cityName": "Les Sehans",
      "lat": 49.833333,
      "lng": 5.2
    },
    {
      "cityName": "Lesse",
      "lat": 49.983333,
      "lng": 5.15
    },
    {
      "cityName": "Les Spêches",
      "lat": 49.966667,
      "lng": 5.1
    },
    {
      "cityName": "Les Tailles",
      "lat": 50.066667,
      "lng": 5.5
    },
    {
      "cityName": "Lesterny",
      "lat": 50.116667,
      "lng": 5.283333
    },
    {
      "cityName": "Le Stoc",
      "lat": 49.883333,
      "lng": 5.2
    },
    {
      "cityName": "Les Trois Bras",
      "lat": 49.816667,
      "lng": 5
    },
    {
      "cityName": "Les Trois Ruisseaux",
      "lat": 49.766667,
      "lng": 5.133333
    },
    {
      "cityName": "Libin Haut",
      "lat": 49.983333,
      "lng": 5.25
    },
    {
      "cityName": "Lignely",
      "lat": 50.333333,
      "lng": 5.566667
    },
    {
      "cityName": "Liherain",
      "lat": 50.133333,
      "lng": 5.866667
    },
    {
      "cityName": "Limes",
      "lat": 49.616667,
      "lng": 5.416667
    },
    {
      "cityName": "Lischert",
      "lat": 49.733333,
      "lng": 5.75
    },
    {
      "cityName": "Loheré",
      "lat": 50.35,
      "lng": 5.516667
    },
    {
      "cityName": "Lokry",
      "lat": 49.966667,
      "lng": 5.2
    },
    {
      "cityName": "Lomprez",
      "lat": 50.083333,
      "lng": 5.1
    },
    {
      "cityName": "Lomré",
      "lat": 50.2,
      "lng": 5.833333
    },
    {
      "cityName": "Longchamps",
      "lat": 50.05,
      "lng": 5.7
    },
    {
      "cityName": "Longeau",
      "lat": 49.583333,
      "lng": 5.833333
    },
    {
      "cityName": "Longlier",
      "lat": 49.85,
      "lng": 5.45
    },
    {
      "cityName": "Longueville",
      "lat": 50.383333,
      "lng": 5.45
    },
    {
      "cityName": "Longvilly",
      "lat": 49.983333,
      "lng": 5.633333
    },
    {
      "cityName": "Lorcy",
      "lat": 50.033333,
      "lng": 5.35
    },
    {
      "cityName": "Losange",
      "lat": 49.95,
      "lng": 5.716667
    },
    {
      "cityName": "Lottert",
      "lat": 49.716667,
      "lng": 5.733333
    },
    {
      "cityName": "Louftémont",
      "lat": 49.783333,
      "lng": 5.633333
    },
    {
      "cityName": "Lutrebois",
      "lat": 49.966667,
      "lng": 5.733333
    },
    {
      "cityName": "Lutremange",
      "lat": 49.95,
      "lng": 5.766667
    },
    {
      "cityName": "Luxeroth",
      "lat": 49.75,
      "lng": 5.766667
    },
    {
      "cityName": "Luxibout",
      "lat": 50.266667,
      "lng": 5.983333
    },
    {
      "cityName": "Luzery",
      "lat": 50.016667,
      "lng": 5.733333
    },
    {
      "cityName": "Maboge",
      "lat": 50.166667,
      "lng": 5.633333
    },
    {
      "cityName": "Mabompré",
      "lat": 50.1,
      "lng": 5.733333
    },
    {
      "cityName": "Macravivier",
      "lat": 50.05,
      "lng": 5.583333
    },
    {
      "cityName": "Mageret",
      "lat": 50.016667,
      "lng": 5.783333
    },
    {
      "cityName": "Magerotte",
      "lat": 49.983333,
      "lng": 5.583333
    },
    {
      "cityName": "Magoster",
      "lat": 50.25,
      "lng": 5.533333
    },
    {
      "cityName": "Maissin",
      "lat": 49.966667,
      "lng": 5.183333
    },
    {
      "cityName": "Maitereau",
      "lat": 49.966667,
      "lng": 5.283333
    },
    {
      "cityName": "Maladrie",
      "lat": 50.166667,
      "lng": 5.283333
    },
    {
      "cityName": "Malempré",
      "lat": 50.283333,
      "lng": 5.716667
    },
    {
      "cityName": "Malimont",
      "lat": 50,
      "lng": 5.183333
    },
    {
      "cityName": "Malmaison",
      "lat": 49.9,
      "lng": 5.7
    },
    {
      "cityName": "Mande Saint-Étienne",
      "lat": 50.016667,
      "lng": 5.65
    },
    {
      "cityName": "Marbay",
      "lat": 49.833333,
      "lng": 5.5
    },
    {
      "cityName": "Marbehan",
      "lat": 49.733333,
      "lng": 5.533333
    },
    {
      "cityName": "Marche-en-Famenne",
      "lat": 50.2,
      "lng": 5.333333
    },
    {
      "cityName": "Marcouray",
      "lat": 50.216667,
      "lng": 5.55
    },
    {
      "cityName": "Marengo",
      "lat": 50.183333,
      "lng": 5.333333
    },
    {
      "cityName": "Marenne",
      "lat": 50.233333,
      "lng": 5.416667
    },
    {
      "cityName": "Marenwez",
      "lat": 49.983333,
      "lng": 5.766667
    },
    {
      "cityName": "Marloie",
      "lat": 50.2,
      "lng": 5.316667
    },
    {
      "cityName": "Martaimont",
      "lat": 49.966667,
      "lng": 5.75
    },
    {
      "cityName": "Martelange",
      "lat": 49.833333,
      "lng": 5.733333
    },
    {
      "cityName": "Martilly",
      "lat": 49.8,
      "lng": 5.366667
    },
    {
      "cityName": "Martue",
      "lat": 49.716667,
      "lng": 5.3
    },
    {
      "cityName": "Marvie",
      "lat": 49.983333,
      "lng": 5.75
    },
    {
      "cityName": "Masbourg",
      "lat": 50.116667,
      "lng": 5.316667
    },
    {
      "cityName": "Massul",
      "lat": 49.883333,
      "lng": 5.516667
    },
    {
      "cityName": "Mathus",
      "lat": 49.983333,
      "lng": 5.416667
    },
    {
      "cityName": "Meix-devant-Virton",
      "lat": 49.6,
      "lng": 5.483333
    },
    {
      "cityName": "Meix-le-Tige",
      "lat": 49.616667,
      "lng": 5.716667
    },
    {
      "cityName": "Melines",
      "lat": 50.283333,
      "lng": 5.5
    },
    {
      "cityName": "Mellier",
      "lat": 49.766667,
      "lng": 5.516667
    },
    {
      "cityName": "Melreux",
      "lat": 50.283333,
      "lng": 5.433333
    },
    {
      "cityName": "Ménage",
      "lat": 50.366667,
      "lng": 5.65
    },
    {
      "cityName": "Menugoutte",
      "lat": 49.816667,
      "lng": 5.366667
    },
    {
      "cityName": "Merleux Han",
      "lat": 49.833333,
      "lng": 5.016667
    },
    {
      "cityName": "Merny",
      "lat": 49.9,
      "lng": 5.1
    },
    {
      "cityName": "Messancy",
      "lat": 49.6,
      "lng": 5.816667
    },
    {
      "cityName": "Metzert",
      "lat": 49.733333,
      "lng": 5.783333
    },
    {
      "cityName": "Michamps",
      "lat": 50.05,
      "lng": 5.8
    },
    {
      "cityName": "Mierchamps",
      "lat": 50.133333,
      "lng": 5.533333
    },
    {
      "cityName": "Mignée",
      "lat": 50.333333,
      "lng": 5.466667
    },
    {
      "cityName": "Mignonfa",
      "lat": 50.25,
      "lng": 5.566667
    },
    {
      "cityName": "Millemont",
      "lat": 50.016667,
      "lng": 5.6
    },
    {
      "cityName": "Misbourg",
      "lat": 49.833333,
      "lng": 5.666667
    },
    {
      "cityName": "Mochamps",
      "lat": 50.1,
      "lng": 5.416667
    },
    {
      "cityName": "Moinet",
      "lat": 50.05,
      "lng": 5.85
    },
    {
      "cityName": "Moircy",
      "lat": 49.983333,
      "lng": 5.466667
    },
    {
      "cityName": "Molinfaing",
      "lat": 49.883333,
      "lng": 5.5
    },
    {
      "cityName": "Mon Idée",
      "lat": 49.85,
      "lng": 5.5
    },
    {
      "cityName": "Mon-le-Soie",
      "lat": 50.321944,
      "lng": 5.962778
    },
    {
      "cityName": "Monseufoy",
      "lat": 50.016667,
      "lng": 5.033333
    },
    {
      "cityName": "Mont de Mousny",
      "lat": 50.116667,
      "lng": 5.616667
    },
    {
      "cityName": "Mont-lès-Houffalize",
      "lat": 50.15,
      "lng": 5.766667
    },
    {
      "cityName": "Moriville",
      "lat": 50.066667,
      "lng": 5.533333
    },
    {
      "cityName": "Morville",
      "lat": 50.333333,
      "lng": 5.533333
    },
    {
      "cityName": "Mousny",
      "lat": 50.1,
      "lng": 5.616667
    },
    {
      "cityName": "Moyen",
      "lat": 49.7,
      "lng": 5.366667
    },
    {
      "cityName": "Muno",
      "lat": 49.716667,
      "lng": 5.166667
    },
    {
      "cityName": "Mussy-la-Ville",
      "lat": 49.583333,
      "lng": 5.666667
    },
    {
      "cityName": "My",
      "lat": 50.4,
      "lng": 5.566667
    },
    {
      "cityName": "Nablery",
      "lat": 50.166667,
      "lng": 5.583333
    },
    {
      "cityName": "Nagimont",
      "lat": 50.133333,
      "lng": 5.6
    },
    {
      "cityName": "Nantimont",
      "lat": 49.716667,
      "lng": 5.616667
    },
    {
      "cityName": "Narcimont",
      "lat": 49.816667,
      "lng": 5.55
    },
    {
      "cityName": "Nashez",
      "lat": 50.216667,
      "lng": 5.616667
    },
    {
      "cityName": "Nassogne",
      "lat": 50.133333,
      "lng": 5.35
    },
    {
      "cityName": "Neffe",
      "lat": 50,
      "lng": 5.766667
    },
    {
      "cityName": "Néon",
      "lat": 50.2,
      "lng": 5.916667
    },
    {
      "cityName": "Neucoyé",
      "lat": 50.3,
      "lng": 5.633333
    },
    {
      "cityName": "Neufchâteau",
      "lat": 49.833333,
      "lng": 5.433333
    },
    {
      "cityName": "Neufmoulin",
      "lat": 49.866667,
      "lng": 5.266667
    },
    {
      "cityName": "Neuperlé",
      "lat": 49.816667,
      "lng": 5.75
    },
    {
      "cityName": "Neupont",
      "lat": 50.066667,
      "lng": 5.133333
    },
    {
      "cityName": "Neuville",
      "lat": 50.280833,
      "lng": 5.933611
    },
    {
      "cityName": "Neuvillers",
      "lat": 49.9,
      "lng": 5.366667
    },
    {
      "cityName": "Nevraumont",
      "lat": 49.833333,
      "lng": 5.35
    },
    {
      "cityName": "Nibermont",
      "lat": 49.966667,
      "lng": 5.516667
    },
    {
      "cityName": "Nihé Haie",
      "lat": 50.25,
      "lng": 5.666667
    },
    {
      "cityName": "Nisramont",
      "lat": 50.133333,
      "lng": 5.65
    },
    {
      "cityName": "Nivelet",
      "lat": 49.8,
      "lng": 5.516667
    },
    {
      "cityName": "Nives",
      "lat": 49.916667,
      "lng": 5.6
    },
    {
      "cityName": "Nivi",
      "lat": 49.75,
      "lng": 5.15
    },
    {
      "cityName": "Nobipré",
      "lat": 49.816667,
      "lng": 5.616667
    },
    {
      "cityName": "Nobressart",
      "lat": 49.75,
      "lng": 5.716667
    },
    {
      "cityName": "Noir Bras",
      "lat": 50.1,
      "lng": 5.483333
    },
    {
      "cityName": "Noirefontaine",
      "lat": 49.816667,
      "lng": 5.1
    },
    {
      "cityName": "Noirfontaine",
      "lat": 50.333333,
      "lng": 5.783333
    },
    {
      "cityName": "Nothomb",
      "lat": 49.783333,
      "lng": 5.783333
    },
    {
      "cityName": "Notre Dame",
      "lat": 49.766667,
      "lng": 5.366667
    },
    {
      "cityName": "Noville",
      "lat": 50.066667,
      "lng": 5.766667
    },
    {
      "cityName": "Ny",
      "lat": 50.283333,
      "lng": 5.483333
    },
    {
      "cityName": "Oben Steine Brück",
      "lat": 49.716667,
      "lng": 5.7
    },
    {
      "cityName": "Ochamps",
      "lat": 49.933333,
      "lng": 5.283333
    },
    {
      "cityName": "Odeigne",
      "lat": 50.266667,
      "lng": 5.683333
    },
    {
      "cityName": "Offaing",
      "lat": 49.833333,
      "lng": 5.483333
    },
    {
      "cityName": "Oisefagne",
      "lat": 49.866667,
      "lng": 5.65
    },
    {
      "cityName": "Ollomont",
      "lat": 50.15,
      "lng": 5.683333
    },
    {
      "cityName": "Oppagne",
      "lat": 50.3,
      "lng": 5.516667
    },
    {
      "cityName": "Orgeo",
      "lat": 49.833333,
      "lng": 5.3
    },
    {
      "cityName": "Orsainfaing",
      "lat": 49.716667,
      "lng": 5.516667
    },
    {
      "cityName": "Ortho",
      "lat": 50.133333,
      "lng": 5.616667
    },
    {
      "cityName": "Oster",
      "lat": 50.266667,
      "lng": 5.65
    },
    {
      "cityName": "Ottré",
      "lat": 50.25,
      "lng": 5.833333
    },
    {
      "cityName": "Ourthe",
      "lat": 50.188333,
      "lng": 5.980278
    },
    {
      "cityName": "Ourt",
      "lat": 49.933333,
      "lng": 5.416667
    },
    {
      "cityName": "Ozo",
      "lat": 50.366667,
      "lng": 5.566667
    },
    {
      "cityName": "Pa d'la l'Eau",
      "lat": 49.983333,
      "lng": 5.066667
    },
    {
      "cityName": "Painsamont",
      "lat": 50,
      "lng": 5.566667
    },
    {
      "cityName": "Palange",
      "lat": 50.366667,
      "lng": 5.433333
    },
    {
      "cityName": "Paliseul",
      "lat": 49.9,
      "lng": 5.133333
    },
    {
      "cityName": "Papeterie",
      "lat": 49.683333,
      "lng": 5.75
    },
    {
      "cityName": "Paradis",
      "lat": 50.133333,
      "lng": 5.483333
    },
    {
      "cityName": "Parette",
      "lat": 49.783333,
      "lng": 5.766667
    },
    {
      "cityName": "Peau",
      "lat": 50.216667,
      "lng": 5.25
    },
    {
      "cityName": "Perchepet",
      "lat": 49.866667,
      "lng": 5.416667
    },
    {
      "cityName": "Peront",
      "lat": 49.816667,
      "lng": 4.916667
    },
    {
      "cityName": "Petit Barvaux",
      "lat": 50.35,
      "lng": 5.5
    },
    {
      "cityName": "Petit-Bois",
      "lat": 49.983333,
      "lng": 5.783333
    },
    {
      "cityName": "Petit Chêne",
      "lat": 49.8,
      "lng": 4.933333
    },
    {
      "cityName": "Petite Hoursinne",
      "lat": 50.333333,
      "lng": 5.633333
    },
    {
      "cityName": "Petite Somme",
      "lat": 50.35,
      "lng": 5.4
    },
    {
      "cityName": "Petites Tailles",
      "lat": 50.233333,
      "lng": 5.766667
    },
    {
      "cityName": "Petit Halleux",
      "lat": 50.183333,
      "lng": 5.516667
    },
    {
      "cityName": "Petit-Halleux",
      "lat": 50.326111,
      "lng": 5.892778
    },
    {
      "cityName": "Petit Han",
      "lat": 50.333333,
      "lng": 5.433333
    },
    {
      "cityName": "Petit-Thier",
      "lat": 50.308611,
      "lng": 5.967778
    },
    {
      "cityName": "Petitvoir",
      "lat": 49.85,
      "lng": 5.383333
    },
    {
      "cityName": "Pied du Mont",
      "lat": 50.316667,
      "lng": 5.8
    },
    {
      "cityName": "Pinceaumont",
      "lat": 49.8,
      "lng": 4.95
    },
    {
      "cityName": "Pinco",
      "lat": 49.733333,
      "lng": 5.316667
    },
    {
      "cityName": "Pin",
      "lat": 49.683333,
      "lng": 5.366667
    },
    {
      "cityName": "Pisserotte",
      "lat": 50.216667,
      "lng": 5.783333
    },
    {
      "cityName": "Plaine Haie",
      "lat": 50.033333,
      "lng": 5.416667
    },
    {
      "cityName": "Plainevaux",
      "lat": 49.866667,
      "lng": 5.116667
    },
    {
      "cityName": "Plein de Saint-Michel",
      "lat": 50.083333,
      "lng": 5.383333
    },
    {
      "cityName": "Poix",
      "lat": 50.016667,
      "lng": 5.316667
    },
    {
      "cityName": "Poncelle",
      "lat": 49.666667,
      "lng": 5.533333
    },
    {
      "cityName": "Porcheresse",
      "lat": 49.983333,
      "lng": 5.083333
    },
    {
      "cityName": "Porte au Sart",
      "lat": 50.016667,
      "lng": 5.05
    },
    {
      "cityName": "Post",
      "lat": 49.766667,
      "lng": 5.766667
    },
    {
      "cityName": "Poteau",
      "lat": 50.233333,
      "lng": 5.683333
    },
    {
      "cityName": "Pré Carnet",
      "lat": 50.3,
      "lng": 5.983333
    },
    {
      "cityName": "Pré des Huttes",
      "lat": 49.866667,
      "lng": 5.316667
    },
    {
      "cityName": "Pré-du-Bois",
      "lat": 49.883333,
      "lng": 5.316667
    },
    {
      "cityName": "Préfroid",
      "lat": 50.016667,
      "lng": 5.35
    },
    {
      "cityName": "Pré Lacroix",
      "lat": 50.116667,
      "lng": 5.366667
    },
    {
      "cityName": "Prelle",
      "lat": 50.083333,
      "lng": 5.55
    },
    {
      "cityName": "Prés du Taureau",
      "lat": 49.7,
      "lng": 5.516667
    },
    {
      "cityName": "Priesmont",
      "lat": 50.291667,
      "lng": 5.920278
    },
    {
      "cityName": "Prouvy",
      "lat": 49.683333,
      "lng": 5.433333
    },
    {
      "cityName": "Quartiers",
      "lat": 50.35,
      "lng": 5.883333
    },
    {
      "cityName": "Quatre Vents",
      "lat": 49.7,
      "lng": 5.8
    },
    {
      "cityName": "Queue la Veau",
      "lat": 50.216667,
      "lng": 5.6
    },
    {
      "cityName": "Racelles",
      "lat": 50.183333,
      "lng": 5.5
    },
    {
      "cityName": "Rachamps",
      "lat": 50.083333,
      "lng": 5.783333
    },
    {
      "cityName": "Rachecourt",
      "lat": 49.6,
      "lng": 5.733333
    },
    {
      "cityName": "Rachet",
      "lat": 50.316667,
      "lng": 5.416667
    },
    {
      "cityName": "Radelange",
      "lat": 49.85,
      "lng": 5.716667
    },
    {
      "cityName": "Rahy",
      "lat": 50.233333,
      "lng": 5.933333
    },
    {
      "cityName": "Rambouchy",
      "lat": 50.1,
      "lng": 5.6
    },
    {
      "cityName": "Ramerschleid Hau",
      "lat": 49.633333,
      "lng": 5.866667
    },
    {
      "cityName": "Ramont",
      "lat": 50.1,
      "lng": 5.516667
    },
    {
      "cityName": "Rancimont",
      "lat": 49.8,
      "lng": 5.55
    },
    {
      "cityName": "Raspaille",
      "lat": 50.3,
      "lng": 5.9
    },
    {
      "cityName": "Raumont",
      "lat": 50.066667,
      "lng": 5.066667
    },
    {
      "cityName": "Reckeler",
      "lat": 50.183333,
      "lng": 6
    },
    {
      "cityName": "Recogne",
      "lat": 49.916667,
      "lng": 5.366667
    },
    {
      "cityName": "Redu",
      "lat": 50,
      "lng": 5.166667
    },
    {
      "cityName": "Regné",
      "lat": 50.25,
      "lng": 5.783333
    },
    {
      "cityName": "Remagne",
      "lat": 49.983333,
      "lng": 5.5
    },
    {
      "cityName": "Remichampagne",
      "lat": 49.933333,
      "lng": 5.633333
    },
    {
      "cityName": "Renachenet",
      "lat": 50,
      "lng": 5.45
    },
    {
      "cityName": "Renaumont",
      "lat": 49.933333,
      "lng": 5.45
    },
    {
      "cityName": "Rencheux",
      "lat": 50.288889,
      "lng": 5.903889
    },
    {
      "cityName": "Rendeux",
      "lat": 50.233333,
      "lng": 5.5
    },
    {
      "cityName": "Renglez",
      "lat": 50.166667,
      "lng": 5.883333
    },
    {
      "cityName": "Renochamp",
      "lat": 50.033333,
      "lng": 5.083333
    },
    {
      "cityName": "Respelle",
      "lat": 49.883333,
      "lng": 5.466667
    },
    {
      "cityName": "Robelmont",
      "lat": 49.6,
      "lng": 5.516667
    },
    {
      "cityName": "Roche à Frêne",
      "lat": 50.35,
      "lng": 5.6
    },
    {
      "cityName": "Roche du Chat",
      "lat": 49.75,
      "lng": 5.266667
    },
    {
      "cityName": "Rochehaut",
      "lat": 49.85,
      "lng": 5
    },
    {
      "cityName": "Rogery",
      "lat": 50.242778,
      "lng": 5.950556
    },
    {
      "cityName": "Rolé",
      "lat": 49.9,
      "lng": 5.25
    },
    {
      "cityName": "Rôli Buchi",
      "lat": 49.966667,
      "lng": 5.266667
    },
    {
      "cityName": "Ronchampay",
      "lat": 50.15,
      "lng": 5.533333
    },
    {
      "cityName": "Rond le Duc",
      "lat": 49.766667,
      "lng": 5.1
    },
    {
      "cityName": "Ronzon",
      "lat": 50.233333,
      "lng": 5.516667
    },
    {
      "cityName": "Rossart",
      "lat": 49.85,
      "lng": 5.333333
    },
    {
      "cityName": "Rossignol",
      "lat": 49.716667,
      "lng": 5.483333
    },
    {
      "cityName": "Rouette",
      "lat": 50.05,
      "lng": 5.65
    },
    {
      "cityName": "Roumont",
      "lat": 50.066667,
      "lng": 5.566667
    },
    {
      "cityName": "Roupage",
      "lat": 50.15,
      "lng": 5.616667
    },
    {
      "cityName": "Rubiesté",
      "lat": 50.216667,
      "lng": 5.566667
    },
    {
      "cityName": "Ruette",
      "lat": 49.533333,
      "lng": 5.583333
    },
    {
      "cityName": "Rulles",
      "lat": 49.716667,
      "lng": 5.566667
    },
    {
      "cityName": "Sainlez",
      "lat": 49.916667,
      "lng": 5.716667
    },
    {
      "cityName": "Saint-Antoine",
      "lat": 50.366667,
      "lng": 5.633333
    },
    {
      "cityName": "Sainte-Cécile",
      "lat": 49.733333,
      "lng": 5.233333
    },
    {
      "cityName": "Saint-Éloi",
      "lat": 49.883333,
      "lng": 5.1
    },
    {
      "cityName": "Sainte-Marie",
      "lat": 49.683333,
      "lng": 5.566667
    },
    {
      "cityName": "Saint-Léger",
      "lat": 49.616667,
      "lng": 5.65
    },
    {
      "cityName": "Saint-Médard",
      "lat": 49.816667,
      "lng": 5.333333
    },
    {
      "cityName": "Saint-Remy",
      "lat": 49.55,
      "lng": 5.616667
    },
    {
      "cityName": "Saint-Vincent",
      "lat": 49.683333,
      "lng": 5.483333
    },
    {
      "cityName": "Saiwet",
      "lat": 49.983333,
      "lng": 5.733333
    },
    {
      "cityName": "Salle",
      "lat": 50.05,
      "lng": 5.6
    },
    {
      "cityName": "Salmchâteau",
      "lat": 50.266111,
      "lng": 5.905
    },
    {
      "cityName": "Salziness",
      "lat": 50.35,
      "lng": 5.433333
    },
    {
      "cityName": "Sampont",
      "lat": 49.683333,
      "lng": 5.7
    },
    {
      "cityName": "Samrée",
      "lat": 50.216667,
      "lng": 5.633333
    },
    {
      "cityName": "Sart Hennard",
      "lat": 50.298889,
      "lng": 5.969444
    },
    {
      "cityName": "Saupont",
      "lat": 49.85,
      "lng": 5.283333
    },
    {
      "cityName": "Savelon",
      "lat": 49.733333,
      "lng": 5.5
    },
    {
      "cityName": "S'berchamp",
      "lat": 49.9,
      "lng": 5.416667
    },
    {
      "cityName": "Schadeck",
      "lat": 49.75,
      "lng": 5.783333
    },
    {
      "cityName": "Schoppach",
      "lat": 49.683333,
      "lng": 5.783333
    },
    {
      "cityName": "Sechery",
      "lat": 50.016667,
      "lng": 5.15
    },
    {
      "cityName": "Sélange",
      "lat": 49.616667,
      "lng": 5.85
    },
    {
      "cityName": "Semel",
      "lat": 49.866667,
      "lng": 5.433333
    },
    {
      "cityName": "Senonchamps",
      "lat": 50,
      "lng": 5.666667
    },
    {
      "cityName": "Sensenruth",
      "lat": 49.833333,
      "lng": 5.083333
    },
    {
      "cityName": "Septon",
      "lat": 50.35,
      "lng": 5.416667
    },
    {
      "cityName": "Serpont",
      "lat": 49.933333,
      "lng": 5.35
    },
    {
      "cityName": "Sesselich",
      "lat": 49.666667,
      "lng": 5.8
    },
    {
      "cityName": "Sevescour",
      "lat": 49.966667,
      "lng": 5.416667
    },
    {
      "cityName": "Sibret",
      "lat": 49.966667,
      "lng": 5.633333
    },
    {
      "cityName": "Signeulx",
      "lat": 49.55,
      "lng": 5.633333
    },
    {
      "cityName": "Sivry",
      "lat": 49.666667,
      "lng": 5.616667
    },
    {
      "cityName": "Slyfahy",
      "lat": 49.866667,
      "lng": 5.15
    },
    {
      "cityName": "Smuid",
      "lat": 50.016667,
      "lng": 5.266667
    },
    {
      "cityName": "Soeret",
      "lat": 50.166667,
      "lng": 5.6
    },
    {
      "cityName": "Sol Brouire",
      "lat": 50.083333,
      "lng": 5.733333
    },
    {
      "cityName": "Sol Prangeleux",
      "lat": 50.366667,
      "lng": 5.583333
    },
    {
      "cityName": "Sommerain",
      "lat": 50.166667,
      "lng": 5.816667
    },
    {
      "cityName": "Sommethonne",
      "lat": 49.583333,
      "lng": 5.45
    },
    {
      "cityName": "Sossels",
      "lat": 49.6,
      "lng": 5.766667
    },
    {
      "cityName": "Sous le Bois",
      "lat": 50.3,
      "lng": 5.533333
    },
    {
      "cityName": "Sous le Gros Hies",
      "lat": 50.25,
      "lng": 5.416667
    },
    {
      "cityName": "Soy",
      "lat": 50.283333,
      "lng": 5.516667
    },
    {
      "cityName": "Spinafa",
      "lat": 50.233333,
      "lng": 5.666667
    },
    {
      "cityName": "Sprimont",
      "lat": 50.033333,
      "lng": 5.55
    },
    {
      "cityName": "Steinbach",
      "lat": 50.15,
      "lng": 5.9
    },
    {
      "cityName": "Sterpenich",
      "lat": 49.65,
      "lng": 5.883333
    },
    {
      "cityName": "Ster",
      "lat": 50.083333,
      "lng": 5.816667
    },
    {
      "cityName": "Stockem",
      "lat": 49.683333,
      "lng": 5.766667
    },
    {
      "cityName": "Stockfontaine",
      "lat": 49.533333,
      "lng": 5.566667
    },
    {
      "cityName": "Stokay",
      "lat": 50.316667,
      "lng": 5.583333
    },
    {
      "cityName": "Sugny",
      "lat": 49.816667,
      "lng": 4.9
    },
    {
      "cityName": "Sur Bemont",
      "lat": 50.183333,
      "lng": 5.45
    },
    {
      "cityName": "Sure",
      "lat": 49.9,
      "lng": 5.6
    },
    {
      "cityName": "Sur Gellet",
      "lat": 49.866667,
      "lng": 5.683333
    },
    {
      "cityName": "Sur la Haie",
      "lat": 50.25,
      "lng": 5.8
    },
    {
      "cityName": "Sur le Combe",
      "lat": 50.233333,
      "lng": 5.833333
    },
    {
      "cityName": "Sur le Sechiron",
      "lat": 50.083333,
      "lng": 5.866667
    },
    {
      "cityName": "Sur-les-Hies",
      "lat": 50.266667,
      "lng": 5.466667
    },
    {
      "cityName": "Sur les Monts",
      "lat": 50.25,
      "lng": 5.4
    },
    {
      "cityName": "Sur les Sarts",
      "lat": 50.316667,
      "lng": 5.883333
    },
    {
      "cityName": "Sur les Vas",
      "lat": 50.166667,
      "lng": 5.783333
    },
    {
      "cityName": "Sur Vii",
      "lat": 50.166667,
      "lng": 5.8
    },
    {
      "cityName": "Suxy",
      "lat": 49.766667,
      "lng": 5.383333
    },
    {
      "cityName": "Tailles",
      "lat": 50.233333,
      "lng": 5.75
    },
    {
      "cityName": "Taverneux",
      "lat": 50.15,
      "lng": 5.8
    },
    {
      "cityName": "Tavigny",
      "lat": 50.116667,
      "lng": 5.833333
    },
    {
      "cityName": "Tellin",
      "lat": 50.083333,
      "lng": 5.216667
    },
    {
      "cityName": "Tenneville",
      "lat": 50.1,
      "lng": 5.533333
    },
    {
      "cityName": "Terme de la Hesse",
      "lat": 49.95,
      "lng": 5.266667
    },
    {
      "cityName": "Termes",
      "lat": 49.716667,
      "lng": 5.45
    },
    {
      "cityName": "Thibésart",
      "lat": 49.783333,
      "lng": 5.55
    },
    {
      "cityName": "Thier de la Pisserote",
      "lat": 50.15,
      "lng": 5.466667
    },
    {
      "cityName": "Thier des Poursais",
      "lat": 50.133333,
      "lng": 5.8
    },
    {
      "cityName": "Thier du Mont",
      "lat": 49.983333,
      "lng": 5.366667
    },
    {
      "cityName": "Tibévaux",
      "lat": 49.833333,
      "lng": 5.15
    },
    {
      "cityName": "Tillet",
      "lat": 50.016667,
      "lng": 5.533333
    },
    {
      "cityName": "Tintenard",
      "lat": 50.25,
      "lng": 5.35
    },
    {
      "cityName": "Tintigny",
      "lat": 49.683333,
      "lng": 5.516667
    },
    {
      "cityName": "Toernich",
      "lat": 49.65,
      "lng": 5.783333
    },
    {
      "cityName": "Tohogne",
      "lat": 50.383333,
      "lng": 5.483333
    },
    {
      "cityName": "Tonny",
      "lat": 50.033333,
      "lng": 5.5
    },
    {
      "cityName": "Tontelange",
      "lat": 49.733333,
      "lng": 5.8
    },
    {
      "cityName": "Torgny",
      "lat": 49.516667,
      "lng": 5.483333
    },
    {
      "cityName": "Tournay",
      "lat": 49.85,
      "lng": 5.4
    },
    {
      "cityName": "Tournée del Combe",
      "lat": 50.216667,
      "lng": 5.833333
    },
    {
      "cityName": "Tournée del Fate",
      "lat": 50.216667,
      "lng": 5.816667
    },
    {
      "cityName": "Tour",
      "lat": 50.35,
      "lng": 5.533333
    },
    {
      "cityName": "Traimont",
      "lat": 49.85,
      "lng": 5.6
    },
    {
      "cityName": "Transinne",
      "lat": 50,
      "lng": 5.2
    },
    {
      "cityName": "Très Fontaine",
      "lat": 50.1,
      "lng": 5.566667
    },
    {
      "cityName": "Trinal",
      "lat": 50.266667,
      "lng": 5.516667
    },
    {
      "cityName": "Triot Masbore",
      "lat": 50.083333,
      "lng": 5.116667
    },
    {
      "cityName": "Tronleu",
      "lat": 50.15,
      "lng": 5.633333
    },
    {
      "cityName": "Tron Lihaie",
      "lat": 50.2,
      "lng": 5.45
    },
    {
      "cityName": "Tronquoi",
      "lat": 49.883333,
      "lng": 5.45
    },
    {
      "cityName": "Trou Bonhay",
      "lat": 50.35,
      "lng": 5.633333
    },
    {
      "cityName": "Udange",
      "lat": 49.633333,
      "lng": 5.766667
    },
    {
      "cityName": "Valansart",
      "lat": 49.683333,
      "lng": 5.416667
    },
    {
      "cityName": "Vance",
      "lat": 49.683333,
      "lng": 5.666667
    },
    {
      "cityName": "Vaux-Chavanne",
      "lat": 50.3,
      "lng": 5.7
    },
    {
      "cityName": "Vaux les Chênes",
      "lat": 49.85,
      "lng": 5.55
    },
    {
      "cityName": "Vecpré",
      "lat": 50.2,
      "lng": 5.533333
    },
    {
      "cityName": "Vellereux",
      "lat": 50.1,
      "lng": 5.716667
    },
    {
      "cityName": "Vérifays",
      "lat": 49.783333,
      "lng": 5.433333
    },
    {
      "cityName": "Vernovlin",
      "lat": 50.166667,
      "lng": 5.666667
    },
    {
      "cityName": "Vesin",
      "lat": 50.333333,
      "lng": 5.5
    },
    {
      "cityName": "Vesqueville",
      "lat": 50,
      "lng": 5.4
    },
    {
      "cityName": "Vieille Église",
      "lat": 49.833333,
      "lng": 5.633333
    },
    {
      "cityName": "Vielsalm",
      "lat": 50.284722,
      "lng": 5.918611
    },
    {
      "cityName": "Viersin",
      "lat": 50.083333,
      "lng": 5.6
    },
    {
      "cityName": "Vieux Virton",
      "lat": 49.566667,
      "lng": 5.533333
    },
    {
      "cityName": "Villance",
      "lat": 49.966667,
      "lng": 5.216667
    },
    {
      "cityName": "Ville-du-Bois",
      "lat": 50.2925,
      "lng": 5.936667
    },
    {
      "cityName": "Villeroux",
      "lat": 49.983333,
      "lng": 5.65
    },
    {
      "cityName": "Villers-devant-Orval",
      "lat": 49.616667,
      "lng": 5.316667
    },
    {
      "cityName": "Villers-la-Bonne-Eau",
      "lat": 49.933333,
      "lng": 5.75
    },
    {
      "cityName": "Villers-la-Loue",
      "lat": 49.583333,
      "lng": 5.483333
    },
    {
      "cityName": "Villers-sur-Semois",
      "lat": 49.7,
      "lng": 5.566667
    },
    {
      "cityName": "Villers-Tortrue",
      "lat": 49.683333,
      "lng": 5.683333
    },
    {
      "cityName": "Ville",
      "lat": 50.416667,
      "lng": 5.583333
    },
    {
      "cityName": "Vinruth",
      "lat": 49.816667,
      "lng": 4.983333
    },
    {
      "cityName": "Vivy",
      "lat": 49.866667,
      "lng": 5.033333
    },
    {
      "cityName": "Vlessart",
      "lat": 49.8,
      "lng": 5.65
    },
    {
      "cityName": "Volaiville",
      "lat": 49.866667,
      "lng": 5.616667
    },
    {
      "cityName": "Vorder Hart",
      "lat": 49.766667,
      "lng": 5.716667
    },
    {
      "cityName": "Wachet",
      "lat": 49.616667,
      "lng": 5.666667
    },
    {
      "cityName": "Waharday",
      "lat": 50.233333,
      "lng": 5.466667
    },
    {
      "cityName": "Waha",
      "lat": 50.216667,
      "lng": 5.333333
    },
    {
      "cityName": "Waltzing",
      "lat": 49.683333,
      "lng": 5.833333
    },
    {
      "cityName": "Wandebourcy",
      "lat": 50.1,
      "lng": 5.833333
    },
    {
      "cityName": "Warmifontaine",
      "lat": 49.833333,
      "lng": 5.4
    },
    {
      "cityName": "Warnach",
      "lat": 49.866667,
      "lng": 5.733333
    },
    {
      "cityName": "Warre",
      "lat": 50.366667,
      "lng": 5.466667
    },
    {
      "cityName": "Watrinsart",
      "lat": 49.716667,
      "lng": 5.2
    },
    {
      "cityName": "Wattermal",
      "lat": 50.183333,
      "lng": 5.983333
    },
    {
      "cityName": "Wautiénaut",
      "lat": 49.783333,
      "lng": 5.366667
    },
    {
      "cityName": "Wembay",
      "lat": 50.1,
      "lng": 5.55
    },
    {
      "cityName": "Werpin",
      "lat": 50.266667,
      "lng": 5.483333
    },
    {
      "cityName": "Weyler",
      "lat": 49.666667,
      "lng": 5.816667
    },
    {
      "cityName": "Wibrin",
      "lat": 50.166667,
      "lng": 5.716667
    },
    {
      "cityName": "Wicourt",
      "lat": 50.1,
      "lng": 5.783333
    },
    {
      "cityName": "Wigny",
      "lat": 50.083333,
      "lng": 5.616667
    },
    {
      "cityName": "Willancourt",
      "lat": 49.583333,
      "lng": 5.7
    },
    {
      "cityName": "Winville",
      "lat": 49.883333,
      "lng": 5.633333
    },
    {
      "cityName": "Wiompont",
      "lat": 50.083333,
      "lng": 5.566667
    },
    {
      "cityName": "Witry",
      "lat": 49.85,
      "lng": 5.616667
    },
    {
      "cityName": "Wittimont",
      "lat": 49.816667,
      "lng": 5.533333
    },
    {
      "cityName": "Wolfhaul",
      "lat": 49.666667,
      "lng": 5.716667
    }
  ]
}