{
  "name": "Puebla",
  "cities": [
    {
      "cityName": "Abelardo L. Rodríguez",
      "lat": 18.569444,
      "lng": -98.408333
    },
    {
      "cityName": "Acajete",
      "lat": 19.1,
      "lng": -97.95
    },
    {
      "cityName": "Acalapa",
      "lat": 20.316667,
      "lng": -98.083333
    },
    {
      "cityName": "Acapulco",
      "lat": 18.866667,
      "lng": -98.433333
    },
    {
      "cityName": "Acateno",
      "lat": 19.883333,
      "lng": -97.35
    },
    {
      "cityName": "Acatepec",
      "lat": 18.233333,
      "lng": -97.566667
    },
    {
      "cityName": "Acatitlán",
      "lat": 18.133333,
      "lng": -97.533333
    },
    {
      "cityName": "Acatla",
      "lat": 19.2,
      "lng": -97.133333
    },
    {
      "cityName": "Acatlán",
      "lat": 18.2,
      "lng": -98.05
    },
    {
      "cityName": "Acatzingo",
      "lat": 18.983333,
      "lng": -97.783333
    },
    {
      "cityName": "Acaxtlahuacán",
      "lat": 18.016667,
      "lng": -98.533333
    },
    {
      "cityName": "Acaxtlahuacán de Albino Zertuche",
      "lat": 18.020833,
      "lng": -98.545833
    },
    {
      "cityName": "Acoculco",
      "lat": 19.933333,
      "lng": -98.216667
    },
    {
      "cityName": "Acoyotitla",
      "lat": 20.466667,
      "lng": -97.983333
    },
    {
      "cityName": "Acozantla",
      "lat": 18.95,
      "lng": -98.383333
    },
    {
      "cityName": "Acteopan",
      "lat": 18.75,
      "lng": -98.716667
    },
    {
      "cityName": "Actipan",
      "lat": 18.958333,
      "lng": -97.802778
    },
    {
      "cityName": "Acuescomac",
      "lat": 19.033333,
      "lng": -98.383333
    },
    {
      "cityName": "Acuexcomac",
      "lat": 18.841667,
      "lng": -98.063889
    },
    {
      "cityName": "Agua Bendita",
      "lat": 20,
      "lng": -97.783333
    },
    {
      "cityName": "Agua de la Luna",
      "lat": 18.583333,
      "lng": -97.891667
    },
    {
      "cityName": "Agua de la Mina",
      "lat": 19.3,
      "lng": -97.266667
    },
    {
      "cityName": "Agua Dorada",
      "lat": 18.166667,
      "lng": -98.566667
    },
    {
      "cityName": "Agua Dulce",
      "lat": 18.616667,
      "lng": -98.516667
    },
    {
      "cityName": "Agua Fría",
      "lat": 20.5,
      "lng": -97.666667
    },
    {
      "cityName": "Aguatepec",
      "lat": 18.233333,
      "lng": -96.983333
    },
    {
      "cityName": "Agua Zarca",
      "lat": 19.983333,
      "lng": -98.066667
    },
    {
      "cityName": "Ahuacatlán",
      "lat": 19.883333,
      "lng": -97.55
    },
    {
      "cityName": "Ahuatelco",
      "lat": 18.8,
      "lng": -98.716667
    },
    {
      "cityName": "Ahuatempan",
      "lat": 18.416667,
      "lng": -98.016667
    },
    {
      "cityName": "Ahuateno",
      "lat": 19.466667,
      "lng": -97.7
    },
    {
      "cityName": "Ahuatepec del Camino",
      "lat": 19.033333,
      "lng": -97.433333
    },
    {
      "cityName": "Ahuatlán",
      "lat": 18.566667,
      "lng": -98.25
    },
    {
      "cityName": "Ahuazotepec",
      "lat": 20.05,
      "lng": -98.15
    },
    {
      "cityName": "Ahuehuetitla",
      "lat": 18.216667,
      "lng": -98.233333
    },
    {
      "cityName": "Ahuehuetzingo",
      "lat": 18.466667,
      "lng": -98.633333
    },
    {
      "cityName": "Aire Libre",
      "lat": 19.872222,
      "lng": -97.391667
    },
    {
      "cityName": "Ajalpan",
      "lat": 18.366667,
      "lng": -97.25
    },
    {
      "cityName": "Alchichica",
      "lat": 19.466667,
      "lng": -97.4
    },
    {
      "cityName": "Alcomunga",
      "lat": 18.416667,
      "lng": -97.033333
    },
    {
      "cityName": "Alfonso",
      "lat": 19.733333,
      "lng": -97.9
    },
    {
      "cityName": "Alhuaca",
      "lat": 18.565278,
      "lng": -97.169444
    },
    {
      "cityName": "Aljojuca",
      "lat": 19.1,
      "lng": -97.516667
    },
    {
      "cityName": "Allende",
      "lat": 19.540278,
      "lng": -97.602778
    },
    {
      "cityName": "Almacatla",
      "lat": 19.133333,
      "lng": -98.233333
    },
    {
      "cityName": "Almalonga",
      "lat": 18.466667,
      "lng": -97.95
    },
    {
      "cityName": "Almeya",
      "lat": 19.8,
      "lng": -98.016667
    },
    {
      "cityName": "Alpanocan",
      "lat": 18.883333,
      "lng": -98.65
    },
    {
      "cityName": "Alpatláhuac",
      "lat": 18.916667,
      "lng": -98.033333
    },
    {
      "cityName": "Alquizapan",
      "lat": 18.5,
      "lng": -97.75
    },
    {
      "cityName": "Alseseca",
      "lat": 18.833333,
      "lng": -97.683333
    },
    {
      "cityName": "Alta Luz",
      "lat": 19.215278,
      "lng": -97.169444
    },
    {
      "cityName": "Altepexi",
      "lat": 18.35,
      "lng": -97.316667
    },
    {
      "cityName": "Álvaro Obregón",
      "lat": 19.025,
      "lng": -97.905556
    },
    {
      "cityName": "Amales",
      "lat": 18.466667,
      "lng": -98.366667
    },
    {
      "cityName": "Amapola",
      "lat": 20.254167,
      "lng": -98.225
    },
    {
      "cityName": "Amatetel",
      "lat": 19.9625,
      "lng": -97.320833
    },
    {
      "cityName": "Amatitlán",
      "lat": 18.183333,
      "lng": -98.083333
    },
    {
      "cityName": "Amecac",
      "lat": 18.816667,
      "lng": -98.65
    },
    {
      "cityName": "Ameluca",
      "lat": 20.566667,
      "lng": -97.833333
    },
    {
      "cityName": "Amicano",
      "lat": 18.116667,
      "lng": -98.083333
    },
    {
      "cityName": "Amixtlán",
      "lat": 20.05,
      "lng": -97.8
    },
    {
      "cityName": "Amolac",
      "lat": 18.05,
      "lng": -98.383333
    },
    {
      "cityName": "Amozoc",
      "lat": 19.033333,
      "lng": -98.05
    },
    {
      "cityName": "Analco",
      "lat": 19.583333,
      "lng": -97.825
    },
    {
      "cityName": "Animas",
      "lat": 19.033333,
      "lng": -98.1
    },
    {
      "cityName": "Antiguo Caporalco",
      "lat": 18.529167,
      "lng": -97.166667
    },
    {
      "cityName": "Antonio Arcos",
      "lat": 19.066667,
      "lng": -97.483333
    },
    {
      "cityName": "Apapantilla",
      "lat": 20.416667,
      "lng": -97.85
    },
    {
      "cityName": "Apatzingo",
      "lat": 19.683333,
      "lng": -97.666667
    },
    {
      "cityName": "Apizaco",
      "lat": 19.183333,
      "lng": -97.3
    },
    {
      "cityName": "Aquiles Serdán",
      "lat": 18.633333,
      "lng": -97.419444
    },
    {
      "cityName": "Aquixtla",
      "lat": 19.8,
      "lng": -97.933333
    },
    {
      "cityName": "Arroyo Blanco",
      "lat": 20.1,
      "lng": -97.2
    },
    {
      "cityName": "Arroyo Zarco",
      "lat": 20.15,
      "lng": -97.45
    },
    {
      "cityName": "Atacpan",
      "lat": 19.866667,
      "lng": -97.533333
    },
    {
      "cityName": "Ataiziutla",
      "lat": 18.9,
      "lng": -97.316667
    },
    {
      "cityName": "Atecax",
      "lat": 19.7,
      "lng": -97.366667
    },
    {
      "cityName": "Atecoxco",
      "lat": 18.201389,
      "lng": -97.558333
    },
    {
      "cityName": "Atempa",
      "lat": 18.683333,
      "lng": -98.166667
    },
    {
      "cityName": "Atempan",
      "lat": 19.85,
      "lng": -97.433333
    },
    {
      "cityName": "Atenayuca",
      "lat": 18.55,
      "lng": -97.783333
    },
    {
      "cityName": "Atencingo",
      "lat": 18.516667,
      "lng": -98.6
    },
    {
      "cityName": "Atenco",
      "lat": 19.083333,
      "lng": -97.533333
    },
    {
      "cityName": "Atenuexin",
      "lat": 20.008333,
      "lng": -97.416667
    },
    {
      "cityName": "Atexcac",
      "lat": 19.15,
      "lng": -98.533333
    },
    {
      "cityName": "Atexcal",
      "lat": 18.366667,
      "lng": -98.216667
    },
    {
      "cityName": "Atezquilla",
      "lat": 19.65,
      "lng": -97.997222
    },
    {
      "cityName": "Atla",
      "lat": 20.266667,
      "lng": -98.126389
    },
    {
      "cityName": "Atlalpan",
      "lat": 18.716667,
      "lng": -98.016667
    },
    {
      "cityName": "Atlamaxac",
      "lat": 19.8,
      "lng": -98.05
    },
    {
      "cityName": "Atlán",
      "lat": 20.616667,
      "lng": -97.9
    },
    {
      "cityName": "Atlaxco",
      "lat": 19.183333,
      "lng": -97.066667
    },
    {
      "cityName": "Atlequizayan",
      "lat": 20.033333,
      "lng": -97.65
    },
    {
      "cityName": "Atlimayaya",
      "lat": 18.966667,
      "lng": -98.466667
    },
    {
      "cityName": "Atolotitlán",
      "lat": 18.2,
      "lng": -97.416667
    },
    {
      "cityName": "Atopoltitlán",
      "lat": 18.266667,
      "lng": -98.3
    },
    {
      "cityName": "Atotocoyan",
      "lat": 19.947222,
      "lng": -97.438889
    },
    {
      "cityName": "Atoyateinpan",
      "lat": 18.816667,
      "lng": -97.916667
    },
    {
      "cityName": "Atoyatenco",
      "lat": 18.933333,
      "lng": -98.233333
    },
    {
      "cityName": "Atzala",
      "lat": 18.533333,
      "lng": -98.55
    },
    {
      "cityName": "Atzilzihuacan",
      "lat": 18.8,
      "lng": -98.6
    },
    {
      "cityName": "Atzingo",
      "lat": 18.266667,
      "lng": -97.366667
    },
    {
      "cityName": "Atzompa",
      "lat": 19.033333,
      "lng": -98.333333
    },
    {
      "cityName": "Axilotitla",
      "lat": 18.433333,
      "lng": -96.85
    },
    {
      "cityName": "Axochitlán",
      "lat": 18.283333,
      "lng": -97.266667
    },
    {
      "cityName": "Axocopa",
      "lat": 18.9,
      "lng": -98.466667
    },
    {
      "cityName": "Axutia",
      "lat": 18.183333,
      "lng": -98.383333
    },
    {
      "cityName": "Axutla",
      "lat": 18.166667,
      "lng": -98.9
    },
    {
      "cityName": "Ayotla",
      "lat": 18.666667,
      "lng": -98.366667
    },
    {
      "cityName": "Ayotlicha",
      "lat": 18.716667,
      "lng": -98.583333
    },
    {
      "cityName": "Ayotoxco",
      "lat": 20.1,
      "lng": -97.4
    },
    {
      "cityName": "Ayoxustla",
      "lat": 18.25,
      "lng": -98.75
    },
    {
      "cityName": "Ayutla",
      "lat": 18.55,
      "lng": -98.5
    },
    {
      "cityName": "Azumbilla",
      "lat": 18.666667,
      "lng": -97.416667
    },
    {
      "cityName": "Barrancas",
      "lat": 19.883333,
      "lng": -98.05
    },
    {
      "cityName": "Bellavista",
      "lat": 19.225,
      "lng": -97.433333
    },
    {
      "cityName": "Bella Vista",
      "lat": 19.35,
      "lng": -98.516667
    },
    {
      "cityName": "Benito Juárez",
      "lat": 19.833333,
      "lng": -97.75
    },
    {
      "cityName": "Beristáin",
      "lat": 20.1,
      "lng": -98.116667
    },
    {
      "cityName": "Bibiano Hernández",
      "lat": 20.1,
      "lng": -97.716667
    },
    {
      "cityName": "Bienvenido",
      "lat": 20.133333,
      "lng": -97.75
    },
    {
      "cityName": "Boca Nopal",
      "lat": 18.769444,
      "lng": -97.354167
    },
    {
      "cityName": "Boquerón",
      "lat": 18.283333,
      "lng": -98.05
    },
    {
      "cityName": "Buenavista",
      "lat": 18.251389,
      "lng": -98.275
    },
    {
      "cityName": "Buenavista de Benito Juárez",
      "lat": 18.45,
      "lng": -98.616667
    },
    {
      "cityName": "Buenavista de Guerrero",
      "lat": 19.640278,
      "lng": -97.522222
    },
    {
      "cityName": "Cacaloacapan",
      "lat": 18.566667,
      "lng": -97.6
    },
    {
      "cityName": "Cacalosúchil",
      "lat": 18.783333,
      "lng": -98.483333
    },
    {
      "cityName": "Caipan",
      "lat": 18.295833,
      "lng": -97.166667
    },
    {
      "cityName": "Caldera",
      "lat": 19.533333,
      "lng": -97.85
    },
    {
      "cityName": "Calipa",
      "lat": 18.166667,
      "lng": -97.633333
    },
    {
      "cityName": "Calixitla",
      "lat": 19.25,
      "lng": -97.2
    },
    {
      "cityName": "Calmeca",
      "lat": 18.633333,
      "lng": -98.633333
    },
    {
      "cityName": "Calpan",
      "lat": 19.1,
      "lng": -98.45
    },
    {
      "cityName": "Caltenco",
      "lat": 18.9,
      "lng": -97.8
    },
    {
      "cityName": "Caltepec",
      "lat": 18.166667,
      "lng": -97.483333
    },
    {
      "cityName": "Camaltepec",
      "lat": 19.85,
      "lng": -97.583333
    },
    {
      "cityName": "Camocuautla",
      "lat": 20.05,
      "lng": -97.766667
    },
    {
      "cityName": "Camotepec",
      "lat": 20.05,
      "lng": -98.066667
    },
    {
      "cityName": "Cañada",
      "lat": 18.5,
      "lng": -97.283333
    },
    {
      "cityName": "Cañada Chica",
      "lat": 18.383333,
      "lng": -98.216667
    },
    {
      "cityName": "Cañada Morelos",
      "lat": 18.733333,
      "lng": -97.416667
    },
    {
      "cityName": "Canoa",
      "lat": 19.15,
      "lng": -98.083333
    },
    {
      "cityName": "Canoas",
      "lat": 20.05,
      "lng": -98.033333
    },
    {
      "cityName": "Canoítas",
      "lat": 19.25,
      "lng": -97.316667
    },
    {
      "cityName": "Capulac",
      "lat": 19.1,
      "lng": -98.05
    },
    {
      "cityName": "Capuluaque",
      "lat": 19.783333,
      "lng": -97.75
    },
    {
      "cityName": "Casa Blanca",
      "lat": 18.581944,
      "lng": -98.516667
    },
    {
      "cityName": "Cascalote de Bravo",
      "lat": 18.366667,
      "lng": -98.625
    },
    {
      "cityName": "Castillotla",
      "lat": 18.976389,
      "lng": -98.258333
    },
    {
      "cityName": "Caxhuacán",
      "lat": 20.066667,
      "lng": -97.6
    },
    {
      "cityName": "Cedro Viejo",
      "lat": 20.166667,
      "lng": -97.25
    },
    {
      "cityName": "Cerro Azul",
      "lat": 20.333333,
      "lng": -97.75
    },
    {
      "cityName": "Cerro del Muñeco",
      "lat": 20.366667,
      "lng": -98.116667
    },
    {
      "cityName": "Cerro de Piedra",
      "lat": 20.683333,
      "lng": -97.833333
    },
    {
      "cityName": "Cerro Gordo",
      "lat": 18.466667,
      "lng": -98.123611
    },
    {
      "cityName": "Cerro Tepantepec",
      "lat": 20.016667,
      "lng": -97.2
    },
    {
      "cityName": "Cerro Verde",
      "lat": 20.35,
      "lng": -97.75
    },
    {
      "cityName": "Chacal",
      "lat": 20.233333,
      "lng": -97.45
    },
    {
      "cityName": "Chachahuantla",
      "lat": 20.216667,
      "lng": -98.15
    },
    {
      "cityName": "Chachapa",
      "lat": 19.033333,
      "lng": -98.083333
    },
    {
      "cityName": "Chagchaltzin",
      "lat": 19.916667,
      "lng": -97.483333
    },
    {
      "cityName": "Chalchicomula",
      "lat": 18.983333,
      "lng": -97.45
    },
    {
      "cityName": "Chalma",
      "lat": 18.433333,
      "lng": -97.35
    },
    {
      "cityName": "Chalzentla",
      "lat": 20.033333,
      "lng": -97.3
    },
    {
      "cityName": "Champusco",
      "lat": 18.8,
      "lng": -98.466667
    },
    {
      "cityName": "Chapa",
      "lat": 19.25,
      "lng": -97.766667
    },
    {
      "cityName": "Chapas",
      "lat": 19.516667,
      "lng": -97.733333
    },
    {
      "cityName": "Chapuco",
      "lat": 18.608333,
      "lng": -97.416667
    },
    {
      "cityName": "Chapultepec",
      "lat": 17.95,
      "lng": -97.916667
    },
    {
      "cityName": "Chautla",
      "lat": 18.95,
      "lng": -98.15
    },
    {
      "cityName": "Chetzalán",
      "lat": 20.033333,
      "lng": -97.516667
    },
    {
      "cityName": "Chiautla",
      "lat": 18.283333,
      "lng": -98.6
    },
    {
      "cityName": "Chiautzingo",
      "lat": 19.2,
      "lng": -98.466667
    },
    {
      "cityName": "Chiazumba",
      "lat": 18.35,
      "lng": -98.536111
    },
    {
      "cityName": "Chichicaxtla",
      "lat": 19.741667,
      "lng": -97.933333
    },
    {
      "cityName": "Chichicazapa",
      "lat": 20.216667,
      "lng": -97.933333
    },
    {
      "cityName": "Chichicuaula",
      "lat": 19.386111,
      "lng": -97.397222
    },
    {
      "cityName": "Chichiquila",
      "lat": 19.183333,
      "lng": -97.033333
    },
    {
      "cityName": "Chicometepec",
      "lat": 19.95,
      "lng": -97.816667
    },
    {
      "cityName": "Chiconcuautla",
      "lat": 20.116667,
      "lng": -97.95
    },
    {
      "cityName": "Chicontla",
      "lat": 20.25,
      "lng": -97.833333
    },
    {
      "cityName": "Chietla",
      "lat": 18.516667,
      "lng": -98.583333
    },
    {
      "cityName": "Chiginecatitlan",
      "lat": 18.65,
      "lng": -98.083333
    },
    {
      "cityName": "Chignahuapan",
      "lat": 19.833333,
      "lng": -98.033333
    },
    {
      "cityName": "Chignautla",
      "lat": 19.833333,
      "lng": -97.383333
    },
    {
      "cityName": "Chilac",
      "lat": 18.316667,
      "lng": -97.35
    },
    {
      "cityName": "Chila",
      "lat": 18.116667,
      "lng": -98.483333
    },
    {
      "cityName": "Chilapa de Vicente Guerrero",
      "lat": 19.766667,
      "lng": -97.65
    },
    {
      "cityName": "Chilchotla",
      "lat": 19.25,
      "lng": -97.166667
    },
    {
      "cityName": "Chilhuacán",
      "lat": 18.883333,
      "lng": -98.4
    },
    {
      "cityName": "Chimalhuaca",
      "lat": 18.283333,
      "lng": -96.983333
    },
    {
      "cityName": "Chimeca",
      "lat": 19.366667,
      "lng": -97.566667
    },
    {
      "cityName": "Chinantla",
      "lat": 18.2,
      "lng": -98.25
    },
    {
      "cityName": "Chinconcuautla",
      "lat": 20.091667,
      "lng": -97.941667
    },
    {
      "cityName": "Chirimoya",
      "lat": 17.966667,
      "lng": -97.85
    },
    {
      "cityName": "Chochos",
      "lat": 18.616667,
      "lng": -97.533333
    },
    {
      "cityName": "Cholula",
      "lat": 19.066667,
      "lng": -98.3
    },
    {
      "cityName": "Ciénega",
      "lat": 19.733333,
      "lng": -98.116667
    },
    {
      "cityName": "Ciénega Larga",
      "lat": 19.733333,
      "lng": -98.066667
    },
    {
      "cityName": "Cinco de Mayo",
      "lat": 19.833333,
      "lng": -97.65
    },
    {
      "cityName": "Cinco Señores",
      "lat": 18.5,
      "lng": -97.4
    },
    {
      "cityName": "Coacalco",
      "lat": 18.075,
      "lng": -98.673611
    },
    {
      "cityName": "Coahuigtic",
      "lat": 19.675,
      "lng": -97.808333
    },
    {
      "cityName": "Coahuiyatla",
      "lat": 20.266667,
      "lng": -98.083333
    },
    {
      "cityName": "Coapa",
      "lat": 18.833333,
      "lng": -97.883333
    },
    {
      "cityName": "Coapam",
      "lat": 18.433333,
      "lng": -97.4
    },
    {
      "cityName": "Coapancingo",
      "lat": 19.833333,
      "lng": -97.85
    },
    {
      "cityName": "Coatepec",
      "lat": 19.1,
      "lng": -97.583333
    },
    {
      "cityName": "Coatetelco",
      "lat": 18.7,
      "lng": -98.066667
    },
    {
      "cityName": "Coatzingo",
      "lat": 18.616667,
      "lng": -98.183333
    },
    {
      "cityName": "Coautieco",
      "lat": 19.8,
      "lng": -97.9
    },
    {
      "cityName": "Coayuca",
      "lat": 18.466667,
      "lng": -98.183333
    },
    {
      "cityName": "Cocuacán",
      "lat": 18.65,
      "lng": -98.1
    },
    {
      "cityName": "Coetzala",
      "lat": 18.183333,
      "lng": -98.816667
    },
    {
      "cityName": "Cohuecán",
      "lat": 18.766667,
      "lng": -98.716667
    },
    {
      "cityName": "Coltzingo",
      "lat": 18.925,
      "lng": -98.316667
    },
    {
      "cityName": "Colucán",
      "lat": 18.5,
      "lng": -98.483333
    },
    {
      "cityName": "Concepción Barrientos",
      "lat": 19.55,
      "lng": -97.583333
    },
    {
      "cityName": "Concepción",
      "lat": 19.05,
      "lng": -98.25
    },
    {
      "cityName": "Concepción Cuautla",
      "lat": 18.866667,
      "lng": -97.990278
    },
    {
      "cityName": "Contepec",
      "lat": 20.066667,
      "lng": -97.75
    },
    {
      "cityName": "Contla",
      "lat": 19.666667,
      "lng": -97.7
    },
    {
      "cityName": "Copales",
      "lat": 20.1,
      "lng": -97.416667
    },
    {
      "cityName": "Copila",
      "lat": 20.283333,
      "lng": -98.083333
    },
    {
      "cityName": "Cordoncillo",
      "lat": 18.483333,
      "lng": -98.816667
    },
    {
      "cityName": "Coronanco",
      "lat": 19.116667,
      "lng": -98.3
    },
    {
      "cityName": "Coronel Tito Hernández",
      "lat": 20.45,
      "lng": -97.733333
    },
    {
      "cityName": "Cosamaloapan",
      "lat": 20.066667,
      "lng": -98.033333
    },
    {
      "cityName": "Cosuneatla",
      "lat": 20.316667,
      "lng": -98.1
    },
    {
      "cityName": "Coxcatlán",
      "lat": 18.266667,
      "lng": -97.15
    },
    {
      "cityName": "Coyay",
      "lat": 20.079167,
      "lng": -97.75
    },
    {
      "cityName": "Coyomeapa",
      "lat": 18.266667,
      "lng": -96.983333
    },
    {
      "cityName": "Coyotepec",
      "lat": 18.4,
      "lng": -97.833333
    },
    {
      "cityName": "Coyotzingo",
      "lat": 19.2,
      "lng": -98.433333
    },
    {
      "cityName": "Coyulapa",
      "lat": 18.416667,
      "lng": -96.866667
    },
    {
      "cityName": "Critalaco",
      "lat": 19.475,
      "lng": -97.841667
    },
    {
      "cityName": "Cruz de Ocote",
      "lat": 19.719444,
      "lng": -97.852778
    },
    {
      "cityName": "Cuacnopalan",
      "lat": 18.816667,
      "lng": -97.5
    },
    {
      "cityName": "Cuactotolapa",
      "lat": 18.433333,
      "lng": -97.116667
    },
    {
      "cityName": "Cuacuila",
      "lat": 20.172222,
      "lng": -98.033333
    },
    {
      "cityName": "Cuahutapehual",
      "lat": 19.933333,
      "lng": -97.583333
    },
    {
      "cityName": "Cuajilote",
      "lat": 18.45,
      "lng": -98.233333
    },
    {
      "cityName": "Cuamila",
      "lat": 20.158333,
      "lng": -97.916667
    },
    {
      "cityName": "Cuanala",
      "lat": 19.1,
      "lng": -98.316667
    },
    {
      "cityName": "Cuanapixca",
      "lat": 20.316667,
      "lng": -97.85
    },
    {
      "cityName": "Cuantepec",
      "lat": 20.35,
      "lng": -98.033333
    },
    {
      "cityName": "Cuapexco",
      "lat": 18.8,
      "lng": -98.683333
    },
    {
      "cityName": "Cuapiaxtla",
      "lat": 18.916667,
      "lng": -97.816667
    },
    {
      "cityName": "Cuatelolulco",
      "lat": 19.886111,
      "lng": -98.130556
    },
    {
      "cityName": "Cuatempan",
      "lat": 19.9,
      "lng": -97.8
    },
    {
      "cityName": "Cuatro Rayas",
      "lat": 18.502778,
      "lng": -97.875
    },
    {
      "cityName": "Cuautempam",
      "lat": 18.416667,
      "lng": -97.85
    },
    {
      "cityName": "Cuautepec",
      "lat": 19.066667,
      "lng": -97.566667
    },
    {
      "cityName": "Cuautexmola",
      "lat": 19.5,
      "lng": -97.833333
    },
    {
      "cityName": "Cuautinchán",
      "lat": 18.933333,
      "lng": -98.016667
    },
    {
      "cityName": "Cuautla",
      "lat": 18.233333,
      "lng": -96.95
    },
    {
      "cityName": "Cuautlancingo",
      "lat": 19.083333,
      "lng": -98.266667
    },
    {
      "cityName": "Cuautomatitla",
      "lat": 18.895833,
      "lng": -98.663889
    },
    {
      "cityName": "Cuautotola",
      "lat": 20.066667,
      "lng": -97.8
    },
    {
      "cityName": "Cuauximaloya",
      "lat": 19.866667,
      "lng": -97.65
    },
    {
      "cityName": "Cuauxocota",
      "lat": 20.083333,
      "lng": -97.333333
    },
    {
      "cityName": "Cuaxtla",
      "lat": 20.383333,
      "lng": -98.066667
    },
    {
      "cityName": "Cuayacatepec",
      "lat": 18.5,
      "lng": -97.483333
    },
    {
      "cityName": "Cuecuetlo",
      "lat": 19.333333,
      "lng": -97.266667
    },
    {
      "cityName": "Cuestablanca",
      "lat": 18.845833,
      "lng": -97.472222
    },
    {
      "cityName": "Cuexpala",
      "lat": 18.633333,
      "lng": -98.566667
    },
    {
      "cityName": "Cuilotepee",
      "lat": 18.9,
      "lng": -98.6
    },
    {
      "cityName": "Cutzontipa",
      "lat": 20.108333,
      "lng": -97.9
    },
    {
      "cityName": "Cuyoaco",
      "lat": 19.616667,
      "lng": -97.616667
    },
    {
      "cityName": "Débora Carrizal",
      "lat": 18.491667,
      "lng": -98.123611
    },
    {
      "cityName": "Defensa",
      "lat": 20.083333,
      "lng": -97.266667
    },
    {
      "cityName": "Dimas López",
      "lat": 20.166667,
      "lng": -97.65
    },
    {
      "cityName": "Dolores Hidalgo",
      "lat": 18.758333,
      "lng": -97.866667
    },
    {
      "cityName": "Domingo Arenas",
      "lat": 19.15,
      "lng": -98.433333
    },
    {
      "cityName": "Dos Caminos",
      "lat": 20.116667,
      "lng": -97.166667
    },
    {
      "cityName": "Dos Ríos Nuevo Ejido",
      "lat": 20.133333,
      "lng": -97.298611
    },
    {
      "cityName": "Durazno",
      "lat": 18.9,
      "lng": -98.166667
    },
    {
      "cityName": "Duraznotla",
      "lat": 18.479167,
      "lng": -97.1
    },
    {
      "cityName": "Dzelonacaxtla",
      "lat": 20.066667,
      "lng": -97.616667
    },
    {
      "cityName": "Ecatlán",
      "lat": 20.05,
      "lng": -97.55
    },
    {
      "cityName": "Echeverría",
      "lat": 18.95,
      "lng": -98.283333
    },
    {
      "cityName": "Ejido Jalpan",
      "lat": 20.452778,
      "lng": -97.906944
    },
    {
      "cityName": "Ejido San Félix Hidalgo",
      "lat": 18.916667,
      "lng": -98.383333
    },
    {
      "cityName": "El Aguacate",
      "lat": 18.858333,
      "lng": -98.188889
    },
    {
      "cityName": "El Astillero",
      "lat": 18.716667,
      "lng": -98.386111
    },
    {
      "cityName": "El de Raboso",
      "lat": 18.566667,
      "lng": -98.45
    },
    {
      "cityName": "El Fuerte de la Unión",
      "lat": 19.425,
      "lng": -97.563889
    },
    {
      "cityName": "El Gallinero",
      "lat": 19.016667,
      "lng": -98.216667
    },
    {
      "cityName": "El Lindero",
      "lat": 20.6,
      "lng": -97.916667
    },
    {
      "cityName": "El Llano",
      "lat": 18.683333,
      "lng": -97.465278
    },
    {
      "cityName": "El Mirador",
      "lat": 18.425,
      "lng": -97.088889
    },
    {
      "cityName": "El Organal",
      "lat": 18.541667,
      "lng": -98.629167
    },
    {
      "cityName": "Eloxochitlán",
      "lat": 18.5,
      "lng": -96.9
    },
    {
      "cityName": "El Paredón",
      "lat": 19.866667,
      "lng": -98.25
    },
    {
      "cityName": "El Platanar",
      "lat": 18.297222,
      "lng": -98.733333
    },
    {
      "cityName": "El Pozo",
      "lat": 19.183333,
      "lng": -97.533333
    },
    {
      "cityName": "El Progreso",
      "lat": 18.016667,
      "lng": -98.316667
    },
    {
      "cityName": "El Rosario Xochitiopan",
      "lat": 18.633333,
      "lng": -97.95
    },
    {
      "cityName": "El Salado",
      "lat": 18.358333,
      "lng": -98.966667
    },
    {
      "cityName": "El Sauce",
      "lat": 20.783333,
      "lng": -97.8
    },
    {
      "cityName": "El Seco",
      "lat": 19.133333,
      "lng": -97.65
    },
    {
      "cityName": "El Tecomate",
      "lat": 20.75,
      "lng": -97.75
    },
    {
      "cityName": "El Tepeyac",
      "lat": 19.683333,
      "lng": -97.616667
    },
    {
      "cityName": "El Teposo",
      "lat": 20.1,
      "lng": -97.466667
    },
    {
      "cityName": "El Tepozán",
      "lat": 19.808333,
      "lng": -98.258333
    },
    {
      "cityName": "El Terrero",
      "lat": 18.391667,
      "lng": -98.733333
    },
    {
      "cityName": "El Tigre",
      "lat": 20.583333,
      "lng": -97.883333
    },
    {
      "cityName": "El Timbre",
      "lat": 18.475,
      "lng": -98.25
    },
    {
      "cityName": "El Veladero",
      "lat": 18.965278,
      "lng": -97.488889
    },
    {
      "cityName": "El Xúchil",
      "lat": 20.5,
      "lng": -97.6
    },
    {
      "cityName": "El Zacatal",
      "lat": 20.366667,
      "lng": -97.979167
    },
    {
      "cityName": "El Zapote",
      "lat": 18.233333,
      "lng": -98.083333
    },
    {
      "cityName": "Emiliano Zapata",
      "lat": 19.658333,
      "lng": -97.656944
    },
    {
      "cityName": "Emilio Portes Gil",
      "lat": 19.304167,
      "lng": -97.511111
    },
    {
      "cityName": "Encrucijada",
      "lat": 18.85,
      "lng": -97.416667
    },
    {
      "cityName": "Epatlan",
      "lat": 18.633333,
      "lng": -98.366667
    },
    {
      "cityName": "Eréndira",
      "lat": 19.15,
      "lng": -97.766667
    },
    {
      "cityName": "Escape Lagunillas",
      "lat": 18.483333,
      "lng": -98.666667
    },
    {
      "cityName": "Esperanza",
      "lat": 18.866667,
      "lng": -97.4
    },
    {
      "cityName": "Estación Tlacuitlapan",
      "lat": 18.716667,
      "lng": -97.65
    },
    {
      "cityName": "Francisco González Bocanegra",
      "lat": 18.15,
      "lng": -98.166667
    },
    {
      "cityName": "Francisco Ibarra Ramos",
      "lat": 17.966667,
      "lng": -97.919444
    },
    {
      "cityName": "Francisco I. Madero",
      "lat": 18.491667,
      "lng": -97.466667
    },
    {
      "cityName": "Gabino Barreda",
      "lat": 18.15,
      "lng": -97.970833
    },
    {
      "cityName": "Gachupinate",
      "lat": 20.108333,
      "lng": -97.4
    },
    {
      "cityName": "Garzones",
      "lat": 18.283333,
      "lng": -98.033333
    },
    {
      "cityName": "Gómez Sur",
      "lat": 19.745833,
      "lng": -97.490278
    },
    {
      "cityName": "González Ortega",
      "lat": 19.341667,
      "lng": -97.275
    },
    {
      "cityName": "Guadalaupe Sarabia",
      "lat": 19.533333,
      "lng": -97.456944
    },
    {
      "cityName": "Guadalupe Allende",
      "lat": 18.445833,
      "lng": -98.366667
    },
    {
      "cityName": "Guadalupe de Jesús",
      "lat": 18.933333,
      "lng": -97.383333
    },
    {
      "cityName": "Guadalupe Enríquez",
      "lat": 18.897222,
      "lng": -97.588889
    },
    {
      "cityName": "Guadalupe",
      "lat": 18.066667,
      "lng": -98.133333
    },
    {
      "cityName": "Guadalupe Hidalgo",
      "lat": 19.066667,
      "lng": -98.419444
    },
    {
      "cityName": "Guadalupe Libertad",
      "lat": 19.183333,
      "lng": -97.3875
    },
    {
      "cityName": "Guadalupe Piletas",
      "lat": 18.833333,
      "lng": -97.4
    },
    {
      "cityName": "Guadalupe Victoria",
      "lat": 19.291667,
      "lng": -97.345833
    },
    {
      "cityName": "Guadalupito Las Dalias",
      "lat": 19.413889,
      "lng": -98.525
    },
    {
      "cityName": "Helite",
      "lat": 17.966667,
      "lng": -97.533333
    },
    {
      "cityName": "Hermenegildo Galeana",
      "lat": 18.261111,
      "lng": -98.108333
    },
    {
      "cityName": "Hornos",
      "lat": 18.616667,
      "lng": -97.733333
    },
    {
      "cityName": "Huachinantla",
      "lat": 18.283333,
      "lng": -98.972222
    },
    {
      "cityName": "Huahuaxtla",
      "lat": 19.916667,
      "lng": -97.616667
    },
    {
      "cityName": "Huajoyuca",
      "lat": 18.516667,
      "lng": -97.916667
    },
    {
      "cityName": "Huajuapan",
      "lat": 18.783333,
      "lng": -98.116667
    },
    {
      "cityName": "Huaquechula",
      "lat": 18.766667,
      "lng": -98.55
    },
    {
      "cityName": "Huascaleca",
      "lat": 19.25,
      "lng": -97.066667
    },
    {
      "cityName": "Huatlatlahuac",
      "lat": 18.666667,
      "lng": -98.05
    },
    {
      "cityName": "Huauchinango",
      "lat": 20.183333,
      "lng": -98.05
    },
    {
      "cityName": "Huaxtequilia",
      "lat": 20.166667,
      "lng": -97.266667
    },
    {
      "cityName": "Huecapa",
      "lat": 19.283333,
      "lng": -97.35
    },
    {
      "cityName": "Huehoyucán",
      "lat": 18.513889,
      "lng": -97.941667
    },
    {
      "cityName": "Huehuepiaxtla",
      "lat": 18.15,
      "lng": -98.466667
    },
    {
      "cityName": "Huehuetla",
      "lat": 20.116667,
      "lng": -97.633333
    },
    {
      "cityName": "Huehuetlán El Chico",
      "lat": 18.375,
      "lng": -98.695833
    },
    {
      "cityName": "Huehuetlan",
      "lat": 18.733333,
      "lng": -98.166667
    },
    {
      "cityName": "Huejonapa",
      "lat": 18.466667,
      "lng": -97.916667
    },
    {
      "cityName": "Huejotzingo",
      "lat": 19.15,
      "lng": -98.4
    },
    {
      "cityName": "Hueyacatitla",
      "lat": 19.25,
      "lng": -98.533333
    },
    {
      "cityName": "Hueyapan",
      "lat": 19.879167,
      "lng": -97.45
    },
    {
      "cityName": "Hueyotlipan",
      "lat": 18.9,
      "lng": -97.85
    },
    {
      "cityName": "Hueytalpan",
      "lat": 20.033333,
      "lng": -97.7
    },
    {
      "cityName": "Hueytamalco",
      "lat": 19.95,
      "lng": -97.266667
    },
    {
      "cityName": "Hueytentán",
      "lat": 19.866667,
      "lng": -97.816667
    },
    {
      "cityName": "Huilacapixtla",
      "lat": 20.216667,
      "lng": -98.083333
    },
    {
      "cityName": "Huilango",
      "lat": 18.833333,
      "lng": -98.583333
    },
    {
      "cityName": "Huilotla",
      "lat": 20.45,
      "lng": -97.783333
    },
    {
      "cityName": "Huiluco",
      "lat": 18.783333,
      "lng": -98.433333
    },
    {
      "cityName": "Huipiltepec",
      "lat": 20.15,
      "lng": -97.116667
    },
    {
      "cityName": "Huiscuautla",
      "lat": 20.516667,
      "lng": -97.633333
    },
    {
      "cityName": "Huitzilac",
      "lat": 20.6,
      "lng": -97.75
    },
    {
      "cityName": "Huitzilán de Serdán",
      "lat": 19.966667,
      "lng": -97.683333
    },
    {
      "cityName": "Huitzilatl",
      "lat": 18.35,
      "lng": -96.85
    },
    {
      "cityName": "Huitziltepec",
      "lat": 18.733333,
      "lng": -97.85
    },
    {
      "cityName": "Huixcolotla",
      "lat": 18.916667,
      "lng": -97.766667
    },
    {
      "cityName": "Huixtla",
      "lat": 20.183333,
      "lng": -97.95
    },
    {
      "cityName": "Icxotitla",
      "lat": 20.241667,
      "lng": -98.108333
    },
    {
      "cityName": "Ignacio Ramírez",
      "lat": 20.116667,
      "lng": -97.75
    },
    {
      "cityName": "Ilamacingo",
      "lat": 18,
      "lng": -98.233333
    },
    {
      "cityName": "Itzatlán",
      "lat": 20.35,
      "lng": -97.966667
    },
    {
      "cityName": "Itzoteno",
      "lat": 19.4125,
      "lng": -97.441667
    },
    {
      "cityName": "Ixcamilpa",
      "lat": 18.033333,
      "lng": -98.7
    },
    {
      "cityName": "Ixcaqcixtla",
      "lat": 18.45,
      "lng": -97.816667
    },
    {
      "cityName": "Ixhuatepec",
      "lat": 18.783333,
      "lng": -98.616667
    },
    {
      "cityName": "Ixitlan",
      "lat": 18,
      "lng": -97.766667
    },
    {
      "cityName": "Ixloloya",
      "lat": 20.508333,
      "lng": -97.955556
    },
    {
      "cityName": "Ixquihuacan",
      "lat": 20,
      "lng": -97.916667
    },
    {
      "cityName": "Ixtacamaxtitlán",
      "lat": 19.616667,
      "lng": -97.816667
    },
    {
      "cityName": "Ixtactenango",
      "lat": 19.766667,
      "lng": -97.7
    },
    {
      "cityName": "Ixtapa",
      "lat": 18.716667,
      "lng": -97.466667
    },
    {
      "cityName": "Ixtapaluacan",
      "lat": 19.283333,
      "lng": -98.55
    },
    {
      "cityName": "Ixtatala",
      "lat": 18.6,
      "lng": -98.7
    },
    {
      "cityName": "Ixtayopan",
      "lat": 19.233333,
      "lng": -99.016667
    },
    {
      "cityName": "Ixtayucan",
      "lat": 19.183333,
      "lng": -97.816667
    },
    {
      "cityName": "Ixtepec",
      "lat": 20.025,
      "lng": -97.655556
    },
    {
      "cityName": "Ixtlahuaca",
      "lat": 19.666667,
      "lng": -98.008333
    },
    {
      "cityName": "Ixtlahualtongo",
      "lat": 18.533333,
      "lng": -97.833333
    },
    {
      "cityName": "Ixtolco de Morelos",
      "lat": 19.9,
      "lng": -97.816667
    },
    {
      "cityName": "Izlamel",
      "lat": 20.4,
      "lng": -97.866667
    },
    {
      "cityName": "Izúcar de Matamoros",
      "lat": 18.6,
      "lng": -98.466667
    },
    {
      "cityName": "Jahuital",
      "lat": 18.016667,
      "lng": -98.15
    },
    {
      "cityName": "Jalacasco",
      "lat": 19.433333,
      "lng": -97.516667
    },
    {
      "cityName": "Jalapasco el Grande",
      "lat": 19.1,
      "lng": -97.483333
    },
    {
      "cityName": "Jalapexco",
      "lat": 18.833333,
      "lng": -98.3
    },
    {
      "cityName": "Jalcomulco",
      "lat": 19.783333,
      "lng": -97.683333
    },
    {
      "cityName": "Jalpan",
      "lat": 20.483333,
      "lng": -97.95
    },
    {
      "cityName": "Jaltianguis",
      "lat": 18.416667,
      "lng": -98.483333
    },
    {
      "cityName": "Jaltocan",
      "lat": 20.6,
      "lng": -97.825
    },
    {
      "cityName": "Jesús María Comalapan",
      "lat": 19.266667,
      "lng": -97.002778
    },
    {
      "cityName": "Jicolapa",
      "lat": 19.966667,
      "lng": -97.966667
    },
    {
      "cityName": "Jiliapa",
      "lat": 19.883333,
      "lng": -97.533333
    },
    {
      "cityName": "Jiliapan",
      "lat": 20.091667,
      "lng": -97.169444
    },
    {
      "cityName": "Jilotepec",
      "lat": 19.816667,
      "lng": -97.6
    },
    {
      "cityName": "Jojupango",
      "lat": 20.1,
      "lng": -97.783333
    },
    {
      "cityName": "Jolalpan",
      "lat": 18.325,
      "lng": -98.841667
    },
    {
      "cityName": "Jonotla",
      "lat": 20.05,
      "lng": -97.583333
    },
    {
      "cityName": "Jonuco Pedernales",
      "lat": 19.933333,
      "lng": -98.15
    },
    {
      "cityName": "Jopala",
      "lat": 20.166667,
      "lng": -97.7
    },
    {
      "cityName": "José María Morelos",
      "lat": 19.138889,
      "lng": -97.469444
    },
    {
      "cityName": "Juan Soto",
      "lat": 18.933333,
      "lng": -98.166667
    },
    {
      "cityName": "Juárez",
      "lat": 18.8,
      "lng": -97.983333
    },
    {
      "cityName": "Juárez Xicotepec",
      "lat": 20.3,
      "lng": -97.966667
    },
    {
      "cityName": "La Campana",
      "lat": 20.379167,
      "lng": -98.022222
    },
    {
      "cityName": "La Cañada",
      "lat": 19.5,
      "lng": -97.733333
    },
    {
      "cityName": "La Candelaria",
      "lat": 18.95,
      "lng": -97.533333
    },
    {
      "cityName": "La Capilla",
      "lat": 19.216667,
      "lng": -97.366667
    },
    {
      "cityName": "La Ceiba",
      "lat": 20.766667,
      "lng": -97.766667
    },
    {
      "cityName": "La Cumbre",
      "lat": 19.816667,
      "lng": -97.966667
    },
    {
      "cityName": "La Garrapata",
      "lat": 18.266667,
      "lng": -96.833333
    },
    {
      "cityName": "La Gloria",
      "lat": 19.616667,
      "lng": -97.686111
    },
    {
      "cityName": "La Guadalupe",
      "lat": 20.738889,
      "lng": -97.791667
    },
    {
      "cityName": "Laguna Seca",
      "lat": 20.033333,
      "lng": -98.129167
    },
    {
      "cityName": "Lagunas",
      "lat": 18.6,
      "lng": -97.266667
    },
    {
      "cityName": "La Higuera",
      "lat": 19.166667,
      "lng": -97.65
    },
    {
      "cityName": "La Huerta",
      "lat": 18.258333,
      "lng": -98.016667
    },
    {
      "cityName": "La Joya",
      "lat": 19.083333,
      "lng": -97.816667
    },
    {
      "cityName": "La Junta",
      "lat": 18.15,
      "lng": -98.566667
    },
    {
      "cityName": "La Laguna",
      "lat": 20.366667,
      "lng": -97.756944
    },
    {
      "cityName": "La Magdalena",
      "lat": 19.05,
      "lng": -97.9
    },
    {
      "cityName": "La Magdalena Tlatlauquitepec",
      "lat": 18.75,
      "lng": -98.1
    },
    {
      "cityName": "La Magdalena Yancuitlalpan",
      "lat": 18.916667,
      "lng": -98.583333
    },
    {
      "cityName": "La Mata",
      "lat": 19.216667,
      "lng": -97.483333
    },
    {
      "cityName": "La Mesa",
      "lat": 20.016667,
      "lng": -98.133333
    },
    {
      "cityName": "La Mesa Tochimiltzingo",
      "lat": 18.8,
      "lng": -98.316667
    },
    {
      "cityName": "La Noria Chica",
      "lat": 18.2,
      "lng": -98.15
    },
    {
      "cityName": "La Noria Hidalgo",
      "lat": 18.319444,
      "lng": -98.2
    },
    {
      "cityName": "La Noria",
      "lat": 19.3,
      "lng": -97.4
    },
    {
      "cityName": "La Pahua",
      "lat": 20.6125,
      "lng": -97.85
    },
    {
      "cityName": "La Palma",
      "lat": 20.083333,
      "lng": -97.258333
    },
    {
      "cityName": "La Parota",
      "lat": 18.375,
      "lng": -98.5
    },
    {
      "cityName": "La Providencia",
      "lat": 18.066667,
      "lng": -98.175
    },
    {
      "cityName": "La Purísima",
      "lat": 18.830556,
      "lng": -97.8
    },
    {
      "cityName": "La Sabana",
      "lat": 18.833333,
      "lng": -98.45
    },
    {
      "cityName": "Las Ánimas",
      "lat": 18.766667,
      "lng": -97.691667
    },
    {
      "cityName": "Las Balsas",
      "lat": 20.7,
      "lng": -97.783333
    },
    {
      "cityName": "Las Barracas",
      "lat": 19.566667,
      "lng": -97.85
    },
    {
      "cityName": "Las Calaveras",
      "lat": 18.302778,
      "lng": -98.2
    },
    {
      "cityName": "Las Calderas",
      "lat": 19.5,
      "lng": -97.866667
    },
    {
      "cityName": "Las Casitas",
      "lat": 18.5,
      "lng": -98.358333
    },
    {
      "cityName": "Las Flores",
      "lat": 18.533333,
      "lng": -98.022222
    },
    {
      "cityName": "Las Lajas",
      "lat": 19.991667,
      "lng": -98.083333
    },
    {
      "cityName": "Las Lomas",
      "lat": 19.833333,
      "lng": -97.6
    },
    {
      "cityName": "Las Maravillas",
      "lat": 19.35,
      "lng": -97.316667
    },
    {
      "cityName": "Las Margaritas",
      "lat": 20,
      "lng": -97.306944
    },
    {
      "cityName": "Las Minas",
      "lat": 18.566667,
      "lng": -97.383333
    },
    {
      "cityName": "Las Mosas",
      "lat": 19.808333,
      "lng": -98.108333
    },
    {
      "cityName": "La Soledad",
      "lat": 18.65,
      "lng": -97.766667
    },
    {
      "cityName": "Las Palmas",
      "lat": 20.552778,
      "lng": -97.908333
    },
    {
      "cityName": "Las Palmitas",
      "lat": 20.533333,
      "lng": -97.7
    },
    {
      "cityName": "Las Pilas",
      "lat": 20.330556,
      "lng": -97.948611
    },
    {
      "cityName": "Las Piletas",
      "lat": 18.433333,
      "lng": -98.413889
    },
    {
      "cityName": "La Trinidad Tepango",
      "lat": 18.85,
      "lng": -98.416667
    },
    {
      "cityName": "La Unión",
      "lat": 20.258333,
      "lng": -97.875
    },
    {
      "cityName": "Laureles",
      "lat": 18.533333,
      "lng": -98.683333
    },
    {
      "cityName": "Leteles de Ávila Camacho",
      "lat": 19.855556,
      "lng": -97.459722
    },
    {
      "cityName": "Libertad Álvaro Obregón",
      "lat": 19.133333,
      "lng": -97.769444
    },
    {
      "cityName": "Libres",
      "lat": 19.466667,
      "lng": -97.683333
    },
    {
      "cityName": "Llano Grande",
      "lat": 18.069444,
      "lng": -98.097222
    },
    {
      "cityName": "Llano Verde",
      "lat": 19.75,
      "lng": -98.116667
    },
    {
      "cityName": "Loma Bonita",
      "lat": 20.283333,
      "lng": -97.829167
    },
    {
      "cityName": "Los Hornos Zaragoza",
      "lat": 18.383333,
      "lng": -98.211111
    },
    {
      "cityName": "Los Húmeros",
      "lat": 19.680556,
      "lng": -97.458333
    },
    {
      "cityName": "Los Naranjos",
      "lat": 20.65,
      "lng": -97.883333
    },
    {
      "cityName": "Los Pinos",
      "lat": 19.683333,
      "lng": -97.975
    },
    {
      "cityName": "Los Reyes",
      "lat": 18.933333,
      "lng": -97.816667
    },
    {
      "cityName": "Magdalena",
      "lat": 20.266667,
      "lng": -98.25
    },
    {
      "cityName": "Malacatepec",
      "lat": 18.933333,
      "lng": -98.3
    },
    {
      "cityName": "Mancuernas",
      "lat": 19.608333,
      "lng": -97.486111
    },
    {
      "cityName": "Manga",
      "lat": 19.083333,
      "lng": -98.066667
    },
    {
      "cityName": "Manuel E. Ávalos",
      "lat": 19.066667,
      "lng": -97.391667
    },
    {
      "cityName": "Matlahuacales de Aquiles Serdán",
      "lat": 19.766667,
      "lng": -98.083333
    },
    {
      "cityName": "Matzaco",
      "lat": 18.566667,
      "lng": -98.483333
    },
    {
      "cityName": "Máximo Serdán",
      "lat": 19.258333,
      "lng": -97.833333
    },
    {
      "cityName": "Maxtaloya",
      "lat": 19.633333,
      "lng": -97.416667
    },
    {
      "cityName": "Mazacoatlán",
      "lat": 20.25,
      "lng": -97.9
    },
    {
      "cityName": "Mazapiltepec de Juárez",
      "lat": 19.116667,
      "lng": -97.683333
    },
    {
      "cityName": "Mazatepec",
      "lat": 20.016667,
      "lng": -97.4
    },
    {
      "cityName": "Mazatiopa",
      "lat": 18.433333,
      "lng": -96.816667
    },
    {
      "cityName": "Mazatzongo",
      "lat": 18.283333,
      "lng": -96.833333
    },
    {
      "cityName": "Mecapalapa",
      "lat": 20.516667,
      "lng": -97.85
    },
    {
      "cityName": "Mecapalco",
      "lat": 20,
      "lng": -97.3
    },
    {
      "cityName": "Mecatlán",
      "lat": 20.216667,
      "lng": -97.683333
    },
    {
      "cityName": "Metepec",
      "lat": 18.933333,
      "lng": -98.466667
    },
    {
      "cityName": "Metlaltoyuca",
      "lat": 20.666667,
      "lng": -97.816667
    },
    {
      "cityName": "Metlatoyuca",
      "lat": 20.733333,
      "lng": -97.85
    },
    {
      "cityName": "Metzontla los Reyes",
      "lat": 18.216667,
      "lng": -97.483333
    },
    {
      "cityName": "Mexcalcuautla",
      "lat": 19.9,
      "lng": -97.433333
    },
    {
      "cityName": "Mexcaltepec",
      "lat": 19.6,
      "lng": -97.716667
    },
    {
      "cityName": "Mexquitlan",
      "lat": 18.016667,
      "lng": -97.466667
    },
    {
      "cityName": "Mextetelco",
      "lat": 19.116667,
      "lng": -98.333333
    },
    {
      "cityName": "Mextla",
      "lat": 20.266667,
      "lng": -98.1
    },
    {
      "cityName": "Mezquital",
      "lat": 18.083333,
      "lng": -97.866667
    },
    {
      "cityName": "Miahuatlán",
      "lat": 18.283333,
      "lng": -97.283333
    },
    {
      "cityName": "Michac",
      "lat": 19.85,
      "lng": -98.05
    },
    {
      "cityName": "Michapa",
      "lat": 18.441667,
      "lng": -98.279167
    },
    {
      "cityName": "Michapita",
      "lat": 18.683333,
      "lng": -98.666667
    },
    {
      "cityName": "Michote",
      "lat": 20.133333,
      "lng": -97.3
    },
    {
      "cityName": "Miguel Hidalgo",
      "lat": 19.202778,
      "lng": -97.519444
    },
    {
      "cityName": "Mimiahuapan",
      "lat": 18.683333,
      "lng": -97.883333
    },
    {
      "cityName": "Mimiapan",
      "lat": 18.533333,
      "lng": -98.166667
    },
    {
      "cityName": "Minuacán",
      "lat": 19.15,
      "lng": -98.3
    },
    {
      "cityName": "Miravalles",
      "lat": 19.341667,
      "lng": -97.538889
    },
    {
      "cityName": "Mitepec",
      "lat": 18.248611,
      "lng": -98.933333
    },
    {
      "cityName": "Mixtla",
      "lat": 18.9,
      "lng": -97.883333
    },
    {
      "cityName": "Moctezuma",
      "lat": 20.7,
      "lng": -97.816667
    },
    {
      "cityName": "Molcaxac",
      "lat": 18.733333,
      "lng": -97.9
    },
    {
      "cityName": "Molocayán",
      "lat": 18.7125,
      "lng": -98.341667
    },
    {
      "cityName": "Momoxpan",
      "lat": 19.066667,
      "lng": -98.233333
    },
    {
      "cityName": "Monte Limpio",
      "lat": 20.1,
      "lng": -97.15
    },
    {
      "cityName": "Moralillo",
      "lat": 18.55,
      "lng": -97.956944
    },
    {
      "cityName": "Morarillo",
      "lat": 18.55,
      "lng": -97.916667
    },
    {
      "cityName": "Moyatzingo",
      "lat": 19.25,
      "lng": -98.4
    },
    {
      "cityName": "Nacatepec",
      "lat": 19.333333,
      "lng": -98.466667
    },
    {
      "cityName": "Nacayolo",
      "lat": 19.825,
      "lng": -98.15
    },
    {
      "cityName": "Nahuituxco",
      "lat": 18.25,
      "lng": -98.45
    },
    {
      "cityName": "Nanacatlán",
      "lat": 20,
      "lng": -97.679167
    },
    {
      "cityName": "Naozontla",
      "lat": 19.966667,
      "lng": -97.583333
    },
    {
      "cityName": "Natívitas",
      "lat": 18.416667,
      "lng": -97.3
    },
    {
      "cityName": "Naupan",
      "lat": 20.233333,
      "lng": -98.116667
    },
    {
      "cityName": "Nealticán",
      "lat": 19.05,
      "lng": -98.416667
    },
    {
      "cityName": "Necaxa",
      "lat": 20.216667,
      "lng": -98
    },
    {
      "cityName": "Necoxtla",
      "lat": 18.393056,
      "lng": -97.358333
    },
    {
      "cityName": "Nepopualco",
      "lat": 19.15,
      "lng": -98.483333
    },
    {
      "cityName": "Nicolás Bravo",
      "lat": 18.616667,
      "lng": -97.3
    },
    {
      "cityName": "Nicolas de los Ranchos",
      "lat": 19.066667,
      "lng": -98.483333
    },
    {
      "cityName": "Nopala",
      "lat": 18.45,
      "lng": -97.65
    },
    {
      "cityName": "Nopalucan de la Granja",
      "lat": 19.216667,
      "lng": -97.816667
    },
    {
      "cityName": "Nuevo México",
      "lat": 19.45,
      "lng": -97.616667
    },
    {
      "cityName": "Nuevo",
      "lat": 18.283333,
      "lng": -97.816667
    },
    {
      "cityName": "Nuevos Horizontes",
      "lat": 18.233333,
      "lng": -98.15
    },
    {
      "cityName": "Ocojata",
      "lat": 19.941667,
      "lng": -98.1
    },
    {
      "cityName": "Ocotepec",
      "lat": 19.058333,
      "lng": -97.565278
    },
    {
      "cityName": "Ocotitlán",
      "lat": 19.033333,
      "lng": -97.95
    },
    {
      "cityName": "Ocotlamánic",
      "lat": 18.316667,
      "lng": -97.133333
    },
    {
      "cityName": "Ocotlán",
      "lat": 19.15,
      "lng": -98.266667
    },
    {
      "cityName": "Ocotzingo",
      "lat": 19.766667,
      "lng": -97.666667
    },
    {
      "cityName": "Ocoyac",
      "lat": 18.65,
      "lng": -98.3
    },
    {
      "cityName": "Ocoyohualulco",
      "lat": 19.725,
      "lng": -97.783333
    },
    {
      "cityName": "Ocoyucan",
      "lat": 18.966667,
      "lng": -98.283333
    },
    {
      "cityName": "Ocpaco",
      "lat": 20.144444,
      "lng": -98.036111
    },
    {
      "cityName": "Ojo de Agua",
      "lat": 19.266667,
      "lng": -97.7
    },
    {
      "cityName": "Olintla",
      "lat": 20.1,
      "lng": -97.683333
    },
    {
      "cityName": "Olomatlán",
      "lat": 17.95,
      "lng": -98.266667
    },
    {
      "cityName": "Ometepec",
      "lat": 18.85,
      "lng": -97.833333
    },
    {
      "cityName": "Ometépi",
      "lat": 19.666667,
      "lng": -97.733333
    },
    {
      "cityName": "Omitlán",
      "lat": 19.9,
      "lng": -97.85
    },
    {
      "cityName": "Oriental",
      "lat": 19.366667,
      "lng": -97.616667
    },
    {
      "cityName": "Otatlán",
      "lat": 19.85,
      "lng": -97.933333
    },
    {
      "cityName": "Otlaltepec",
      "lat": 18.3,
      "lng": -97.766667
    },
    {
      "cityName": "Otlamaxalco",
      "lat": 18.3,
      "lng": -97.066667
    },
    {
      "cityName": "Otlayo",
      "lat": 17.95,
      "lng": -98.366667
    },
    {
      "cityName": "Otzolco",
      "lat": 19.1,
      "lng": -98.5
    },
    {
      "cityName": "Otzolotepec",
      "lat": 18.566667,
      "lng": -97.25
    },
    {
      "cityName": "Otzopulco",
      "lat": 18.35,
      "lng": -96.916667
    },
    {
      "cityName": "Ovando",
      "lat": 19.033333,
      "lng": -97.8
    },
    {
      "cityName": "Oxpantla",
      "lat": 19.683333,
      "lng": -97.65
    },
    {
      "cityName": "Oxtotipan",
      "lat": 18.95,
      "lng": -97.85
    },
    {
      "cityName": "Oxtotla",
      "lat": 18.616667,
      "lng": -98.383333
    },
    {
      "cityName": "Oyameles",
      "lat": 19.716667,
      "lng": -97.533333
    },
    {
      "cityName": "Pablo de las Tunas",
      "lat": 18.983333,
      "lng": -97.7
    },
    {
      "cityName": "Pahuata",
      "lat": 19.936111,
      "lng": -97.691667
    },
    {
      "cityName": "Pahuatlán del Valle",
      "lat": 20.283333,
      "lng": -98.15
    },
    {
      "cityName": "Paila",
      "lat": 20.243056,
      "lng": -97.831944
    },
    {
      "cityName": "Pala",
      "lat": 18.281944,
      "lng": -97.098611
    },
    {
      "cityName": "Palmar de Bravo",
      "lat": 18.833333,
      "lng": -97.566667
    },
    {
      "cityName": "Palma Real de Adentro",
      "lat": 20.8,
      "lng": -97.733333
    },
    {
      "cityName": "Palma Real de Afuera",
      "lat": 20.816667,
      "lng": -97.766667
    },
    {
      "cityName": "Palmarito",
      "lat": 18.9,
      "lng": -97.616667
    },
    {
      "cityName": "Palmartepec",
      "lat": 20.133333,
      "lng": -97.133333
    },
    {
      "cityName": "Palmillas",
      "lat": 18.616667,
      "lng": -97.708333
    },
    {
      "cityName": "Pantepec",
      "lat": 20.516667,
      "lng": -97.933333
    },
    {
      "cityName": "Papaloctipa",
      "lat": 20.416667,
      "lng": -97.95
    },
    {
      "cityName": "Papalocuautla",
      "lat": 18.25,
      "lng": -96.883333
    },
    {
      "cityName": "Pardiñas",
      "lat": 18.963889,
      "lng": -97.983333
    },
    {
      "cityName": "Paso Azihuatl",
      "lat": 18.466667,
      "lng": -96.7875
    },
    {
      "cityName": "Paso Carretas",
      "lat": 18.922222,
      "lng": -97.258333
    },
    {
      "cityName": "Paso del Jardín",
      "lat": 20.133333,
      "lng": -97.466667
    },
    {
      "cityName": "Paso Nacional",
      "lat": 19.15,
      "lng": -97.366667
    },
    {
      "cityName": "Paso Puente de Santa Ana",
      "lat": 19.066667,
      "lng": -97.608333
    },
    {
      "cityName": "Patlanalán",
      "lat": 19.3,
      "lng": -97.1
    },
    {
      "cityName": "Patlanoaya",
      "lat": 18.5,
      "lng": -98.291667
    },
    {
      "cityName": "Patla",
      "lat": 20.25,
      "lng": -97.85
    },
    {
      "cityName": "Paxta",
      "lat": 20.016667,
      "lng": -97.216667
    },
    {
      "cityName": "Payucan",
      "lat": 19.533333,
      "lng": -97.6
    },
    {
      "cityName": "Pedernales",
      "lat": 19.513889,
      "lng": -97.775
    },
    {
      "cityName": "Peñuela",
      "lat": 19.947222,
      "lng": -98.108333
    },
    {
      "cityName": "Pericotepec",
      "lat": 18.625,
      "lng": -97.575
    },
    {
      "cityName": "Petlacotla",
      "lat": 20.416667,
      "lng": -97.9
    },
    {
      "cityName": "Petlalcingo",
      "lat": 18.083333,
      "lng": -97.9
    },
    {
      "cityName": "Piedras Negras",
      "lat": 20.4375,
      "lng": -97.759722
    },
    {
      "cityName": "Pilcaya",
      "lat": 18.216667,
      "lng": -98.7
    },
    {
      "cityName": "Pinal",
      "lat": 19.1,
      "lng": -97.8
    },
    {
      "cityName": "Pinar",
      "lat": 19.166667,
      "lng": -97.933333
    },
    {
      "cityName": "Pino Suárez",
      "lat": 18.508333,
      "lng": -97.502778
    },
    {
      "cityName": "Plan de Ayala",
      "lat": 20.333333,
      "lng": -97.926389
    },
    {
      "cityName": "Plan del Capulín",
      "lat": 18.9,
      "lng": -97.25
    },
    {
      "cityName": "Plan de San Miguel",
      "lat": 18.2,
      "lng": -97.6
    },
    {
      "cityName": "Pocito",
      "lat": 19.266667,
      "lng": -97.266667
    },
    {
      "cityName": "Porfirio Diaz",
      "lat": 18.4,
      "lng": -96.85
    },
    {
      "cityName": "Portes Gil",
      "lat": 18.925,
      "lng": -98.35
    },
    {
      "cityName": "Portezuelo",
      "lat": 18.916667,
      "lng": -98.35
    },
    {
      "cityName": "Potrero",
      "lat": 19.916667,
      "lng": -98.066667
    },
    {
      "cityName": "Poza Verde",
      "lat": 20.2,
      "lng": -97.4
    },
    {
      "cityName": "Preciosa",
      "lat": 19.366667,
      "lng": -97.4
    },
    {
      "cityName": "Puctla",
      "lat": 18.566667,
      "lng": -98.466667
    },
    {
      "cityName": "Puebla de los Angeles",
      "lat": 19.05,
      "lng": -98.2
    },
    {
      "cityName": "Pueblo Nuevo",
      "lat": 18.216667,
      "lng": -97.15
    },
    {
      "cityName": "Puerta Cañada",
      "lat": 18.808333,
      "lng": -97.413889
    },
    {
      "cityName": "Puerto Nacional",
      "lat": 19.105556,
      "lng": -97.322222
    },
    {
      "cityName": "Quecholac",
      "lat": 18.95,
      "lng": -97.666667
    },
    {
      "cityName": "Quechulac",
      "lat": 19.383333,
      "lng": -97.35
    },
    {
      "cityName": "Quetzalapa Emancipación",
      "lat": 19.166667,
      "lng": -97.4
    },
    {
      "cityName": "Quetzotla",
      "lat": 18.202778,
      "lng": -98.669444
    },
    {
      "cityName": "Quicayán",
      "lat": 18.075,
      "lng": -98.256944
    },
    {
      "cityName": "Quimixtlán",
      "lat": 19.266667,
      "lng": -97.116667
    },
    {
      "cityName": "Rafael Lara Grajales",
      "lat": 19.25,
      "lng": -97.783333
    },
    {
      "cityName": "Rancho Nuevo",
      "lat": 18.9,
      "lng": -97.45
    },
    {
      "cityName": "Rancho Viejo",
      "lat": 18.916667,
      "lng": -97.45
    },
    {
      "cityName": "Rastra",
      "lat": 18.3,
      "lng": -99.016667
    },
    {
      "cityName": "Resureccion",
      "lat": 19.1,
      "lng": -98.116667
    },
    {
      "cityName": "Reyes de Vallarta",
      "lat": 20.1,
      "lng": -97.533333
    },
    {
      "cityName": "Rinconada",
      "lat": 19.713889,
      "lng": -98.183333
    },
    {
      "cityName": "Romero Rubio",
      "lat": 19.983333,
      "lng": -97.6
    },
    {
      "cityName": "Rosario",
      "lat": 18.05,
      "lng": -97.833333
    },
    {
      "cityName": "Salinas",
      "lat": 18.333333,
      "lng": -97.483333
    },
    {
      "cityName": "Salitrillo",
      "lat": 18.016667,
      "lng": -97.9
    },
    {
      "cityName": "Salsipuedes",
      "lat": 20.215278,
      "lng": -97.425
    },
    {
      "cityName": "Saltillo",
      "lat": 19.283333,
      "lng": -97.3
    },
    {
      "cityName": "San Agustín Ahuahuetla",
      "lat": 18.8,
      "lng": -98.173611
    },
    {
      "cityName": "San Agustín Atzompa",
      "lat": 19.2,
      "lng": -98.513889
    },
    {
      "cityName": "San Agustín Huexaxtla",
      "lat": 18.933333,
      "lng": -98.4
    },
    {
      "cityName": "San Andrés Cholula",
      "lat": 19.05,
      "lng": -98.3
    },
    {
      "cityName": "San Antonio Acatepec",
      "lat": 18.375,
      "lng": -97.033333
    },
    {
      "cityName": "San Antonio Alchichica",
      "lat": 19.4,
      "lng": -97.4
    },
    {
      "cityName": "San Antonio Chautla de Arenas",
      "lat": 19.316667,
      "lng": -98.466667
    },
    {
      "cityName": "San Antonio Chiltepec",
      "lat": 18.008333,
      "lng": -98.183333
    },
    {
      "cityName": "San Antonio del Puente",
      "lat": 18.916667,
      "lng": -98.183333
    },
    {
      "cityName": "San Antonio Juárez",
      "lat": 18.797222,
      "lng": -97.998611
    },
    {
      "cityName": "San Antonio Metzompa",
      "lat": 20.05,
      "lng": -97.375
    },
    {
      "cityName": "San Antonio Rayón",
      "lat": 20.116667,
      "lng": -97.466667
    },
    {
      "cityName": "San Antonio Soledad",
      "lat": 18.783333,
      "lng": -97.406944
    },
    {
      "cityName": "San Antonio Texcala",
      "lat": 18.4,
      "lng": -97.433333
    },
    {
      "cityName": "San Antonio Tlaltenco",
      "lat": 19.175,
      "lng": -98.495833
    },
    {
      "cityName": "San Aparicio",
      "lat": 19.1,
      "lng": -98.15
    },
    {
      "cityName": "San Baltasar Temaxcalac",
      "lat": 19.266667,
      "lng": -98.4
    },
    {
      "cityName": "San Baltasar Xochitlaxco",
      "lat": 19.933333,
      "lng": -97.85
    },
    {
      "cityName": "San Bartolo Coscomaya",
      "lat": 18.923611,
      "lng": -97.616667
    },
    {
      "cityName": "San Bartolomé",
      "lat": 18.8,
      "lng": -97.838889
    },
    {
      "cityName": "San Bartolo",
      "lat": 18.5,
      "lng": -97.516667
    },
    {
      "cityName": "San Benito",
      "lat": 19.066667,
      "lng": -98.416667
    },
    {
      "cityName": "San Bernardo",
      "lat": 18.215278,
      "lng": -98.116667
    },
    {
      "cityName": "San Buenaventura",
      "lat": 18.905556,
      "lng": -97.931944
    },
    {
      "cityName": "San Carlos",
      "lat": 18.516667,
      "lng": -98.525
    },
    {
      "cityName": "San Cristobal",
      "lat": 18.533333,
      "lng": -97.533333
    },
    {
      "cityName": "Sanctorium",
      "lat": 19.1,
      "lng": -98.25
    },
    {
      "cityName": "San Diégo El Organal",
      "lat": 18.726389,
      "lng": -98.522222
    },
    {
      "cityName": "San Diego Texmelucan",
      "lat": 19.016667,
      "lng": -97.458333
    },
    {
      "cityName": "San Esteban Necoxcalco",
      "lat": 18.45,
      "lng": -97.283333
    },
    {
      "cityName": "San Felipe Hueyotlipan",
      "lat": 19.083333,
      "lng": -98.2
    },
    {
      "cityName": "San Felipe Otlaltepec",
      "lat": 18.416667,
      "lng": -97.9
    },
    {
      "cityName": "San Felipe Tenextepec",
      "lat": 19.033333,
      "lng": -97.866667
    },
    {
      "cityName": "San Felipe Teotlalcingo",
      "lat": 19.233333,
      "lng": -98.483333
    },
    {
      "cityName": "San Felipe Tepatlán",
      "lat": 20.1,
      "lng": -97.816667
    },
    {
      "cityName": "San Felipe Tepemaxalco",
      "lat": 18.733333,
      "lng": -98.6
    },
    {
      "cityName": "San Francisco Cuautlancingo",
      "lat": 18.998611,
      "lng": -97.416667
    },
    {
      "cityName": "San Francisco de Asís",
      "lat": 18.441667,
      "lng": -98.288889
    },
    {
      "cityName": "San Francisco Esperilla",
      "lat": 18.704167,
      "lng": -97.531944
    },
    {
      "cityName": "San Francisco Terrerillos",
      "lat": 19.908333,
      "lng": -98.158333
    },
    {
      "cityName": "San Francisco Totimehuacan",
      "lat": 18.966667,
      "lng": -98.183333
    },
    {
      "cityName": "San Gabriel Tetzoyocan",
      "lat": 18.75,
      "lng": -97.7
    },
    {
      "cityName": "San Gregorio Atzompa",
      "lat": 18.733333,
      "lng": -98.016667
    },
    {
      "cityName": "San Hipólito",
      "lat": 18.933333,
      "lng": -97.85
    },
    {
      "cityName": "San Ignacio Xixipesco",
      "lat": 19.583333,
      "lng": -97.55
    },
    {
      "cityName": "San Isidro Huilotepec",
      "lat": 18.883333,
      "lng": -98.383333
    },
    {
      "cityName": "San Isidro Xicalahuata",
      "lat": 19.65,
      "lng": -97.6
    },
    {
      "cityName": "San Jerónimo Alfaro",
      "lat": 18.722222,
      "lng": -97.836111
    },
    {
      "cityName": "San Jerónimo",
      "lat": 18.233333,
      "lng": -97.916667
    },
    {
      "cityName": "San Jerónimo Tecuanipan",
      "lat": 19.016667,
      "lng": -98.4
    },
    {
      "cityName": "San Jerónimo Zoyatitlanapa",
      "lat": 18.506944,
      "lng": -97.675
    },
    {
      "cityName": "San José Acateno",
      "lat": 20.133333,
      "lng": -97.2
    },
    {
      "cityName": "San José Axusco",
      "lat": 18.233333,
      "lng": -97.206944
    },
    {
      "cityName": "San José Ayotla",
      "lat": 19.916667,
      "lng": -98.05
    },
    {
      "cityName": "San José Buenavista",
      "lat": 18.658333,
      "lng": -97.581944
    },
    {
      "cityName": "San José Corral Blanco",
      "lat": 19.9,
      "lng": -98.183333
    },
    {
      "cityName": "San José Cuyachapa",
      "lat": 18.866667,
      "lng": -97.3
    },
    {
      "cityName": "San José de Gracia",
      "lat": 18.633333,
      "lng": -97.85
    },
    {
      "cityName": "San José Guerrero",
      "lat": 18.993056,
      "lng": -97.533333
    },
    {
      "cityName": "San José Hidalgo",
      "lat": 18.416667,
      "lng": -98.408333
    },
    {
      "cityName": "San José La Libertad",
      "lat": 19.475,
      "lng": -97.7
    },
    {
      "cityName": "San José Llano Grande",
      "lat": 19.05,
      "lng": -97.352778
    },
    {
      "cityName": "San José Morelos",
      "lat": 19.266667,
      "lng": -97.758333
    },
    {
      "cityName": "San José Ozumba",
      "lat": 19.233333,
      "lng": -97.230556
    },
    {
      "cityName": "San José",
      "lat": 18.516667,
      "lng": -98.683333
    },
    {
      "cityName": "San José Tetla",
      "lat": 18.116667,
      "lng": -98.241667
    },
    {
      "cityName": "San José Tlacuitlapan",
      "lat": 18.7,
      "lng": -97.616667
    },
    {
      "cityName": "San Juan Acozac",
      "lat": 18.966667,
      "lng": -97.656944
    },
    {
      "cityName": "San Juan Cuauhtémoc",
      "lat": 19.383333,
      "lng": -98.6
    },
    {
      "cityName": "San Juan del Río",
      "lat": 18.166667,
      "lng": -98.516667
    },
    {
      "cityName": "San Juan Nepomuceno",
      "lat": 18.391667,
      "lng": -98.020833
    },
    {
      "cityName": "San Juan Raya",
      "lat": 18.316667,
      "lng": -97.625
    },
    {
      "cityName": "San Juan Sacavasco",
      "lat": 18.75,
      "lng": -97.591667
    },
    {
      "cityName": "San Juan Tejalucan",
      "lat": 18.9,
      "lng": -98.4
    },
    {
      "cityName": "San Juan Tejupa",
      "lat": 18.833333,
      "lng": -98.533333
    },
    {
      "cityName": "San Juan Tetla",
      "lat": 19.2,
      "lng": -98.516667
    },
    {
      "cityName": "San Juan Tianguismanalco",
      "lat": 18.95,
      "lng": -98.433333
    },
    {
      "cityName": "San Juan Xilotzingo",
      "lat": 18.966667,
      "lng": -98.233333
    },
    {
      "cityName": "San Juan Xiutetelco",
      "lat": 19.8,
      "lng": -97.333333
    },
    {
      "cityName": "San Lorenzo Teotipilco",
      "lat": 18.472222,
      "lng": -97.433333
    },
    {
      "cityName": "San Lucas Atoyatenco",
      "lat": 19.3,
      "lng": -98.483333
    },
    {
      "cityName": "San Lucas Matlala",
      "lat": 18.7,
      "lng": -98.597222
    },
    {
      "cityName": "San Lucas",
      "lat": 18.633333,
      "lng": -98.25
    },
    {
      "cityName": "San Lucas Teteletitlán",
      "lat": 18.358333,
      "lng": -97.619444
    },
    {
      "cityName": "San Lucas Tulcingo",
      "lat": 18.816667,
      "lng": -98.583333
    },
    {
      "cityName": "San Luis Atexcac",
      "lat": 19.341667,
      "lng": -97.458333
    },
    {
      "cityName": "San Luis del Pino",
      "lat": 18.458333,
      "lng": -97.15
    },
    {
      "cityName": "San Luis Sesma",
      "lat": 19.191667,
      "lng": -97.704167
    },
    {
      "cityName": "San Luis Tehuizotla",
      "lat": 18.683333,
      "lng": -97.85
    },
    {
      "cityName": "San Luis Temalacayuca",
      "lat": 18.6,
      "lng": -97.566667
    },
    {
      "cityName": "San Luis Tenextepec",
      "lat": 18.866667,
      "lng": -98.383333
    },
    {
      "cityName": "San Marcos",
      "lat": 18.4,
      "lng": -97.35
    },
    {
      "cityName": "San Marcos Tlacoyalco",
      "lat": 18.65,
      "lng": -97.583333
    },
    {
      "cityName": "San Martín Esperilla",
      "lat": 18.733333,
      "lng": -97.55
    },
    {
      "cityName": "San Martín la Joya",
      "lat": 19.083333,
      "lng": -97.85
    },
    {
      "cityName": "San Martín Ojo de Agua",
      "lat": 19,
      "lng": -97.4
    },
    {
      "cityName": "San Martín",
      "lat": 18.4,
      "lng": -97.733333
    },
    {
      "cityName": "San Martín Texmelucan de Labastida",
      "lat": 19.283333,
      "lng": -98.433333
    },
    {
      "cityName": "San Martín Tlapala",
      "lat": 18.966667,
      "lng": -98.433333
    },
    {
      "cityName": "San Martín Totoltepec",
      "lat": 18.666667,
      "lng": -98.35
    },
    {
      "cityName": "San Martín Zacatempa",
      "lat": 18.866667,
      "lng": -98.616667
    },
    {
      "cityName": "San Mateo Coatepec",
      "lat": 18.8,
      "lng": -98.65
    },
    {
      "cityName": "San Mateo Parra",
      "lat": 18.983333,
      "lng": -97.85
    },
    {
      "cityName": "San Mateo",
      "lat": 18.416667,
      "lng": -97.766667
    },
    {
      "cityName": "San Mateo Soltepec",
      "lat": 19.1,
      "lng": -97.766667
    },
    {
      "cityName": "San Mateo Tlacoxcalco",
      "lat": 18.286111,
      "lng": -97.333333
    },
    {
      "cityName": "San Mateo Tlaixpan",
      "lat": 18.9,
      "lng": -97.733333
    },
    {
      "cityName": "San Matias",
      "lat": 19.316667,
      "lng": -98.5
    },
    {
      "cityName": "San Miguel Acateno",
      "lat": 19.933333,
      "lng": -97.716667
    },
    {
      "cityName": "San Miguel Atlapulco",
      "lat": 18.791667,
      "lng": -98.195833
    },
    {
      "cityName": "San Miguel Atototepec",
      "lat": 19.5,
      "lng": -97.575
    },
    {
      "cityName": "San Miguel Capulines",
      "lat": 19.829167,
      "lng": -97.345833
    },
    {
      "cityName": "San Miguel Jicotzingo",
      "lat": 18.75,
      "lng": -98.616667
    },
    {
      "cityName": "San Miguel La Ciénega",
      "lat": 18.173611,
      "lng": -98.741667
    },
    {
      "cityName": "San Miguel Ocotenco",
      "lat": 19.066667,
      "lng": -97.456944
    },
    {
      "cityName": "San Miguel",
      "lat": 18.35,
      "lng": -98.566667
    },
    {
      "cityName": "San Miguel Tecuanipa",
      "lat": 18.85,
      "lng": -98.6
    },
    {
      "cityName": "San Miguel Tecuitlapa",
      "lat": 19.116667,
      "lng": -97.566667
    },
    {
      "cityName": "San Miguel Tenextatiloyan",
      "lat": 19.716667,
      "lng": -97.583333
    },
    {
      "cityName": "San Miguel Tonalixco",
      "lat": 19.983333,
      "lng": -97.833333
    },
    {
      "cityName": "San Miguel Xoxtla",
      "lat": 19.183333,
      "lng": -98.3
    },
    {
      "cityName": "San Miguel Zacaola",
      "lat": 18.883333,
      "lng": -97.833333
    },
    {
      "cityName": "San Miguel Zoapan",
      "lat": 19.083333,
      "lng": -97.352778
    },
    {
      "cityName": "San Miguel Zozutla",
      "lat": 18.75,
      "lng": -97.65
    },
    {
      "cityName": "San Nicolás de Buenos Aires",
      "lat": 19.166667,
      "lng": -97.566667
    },
    {
      "cityName": "San Nicolás Temextla",
      "lat": 19.616667,
      "lng": -97.666667
    },
    {
      "cityName": "San Pablito",
      "lat": 20.3,
      "lng": -98.15
    },
    {
      "cityName": "San Pablo Ahuatempa",
      "lat": 18.983333,
      "lng": -98.358333
    },
    {
      "cityName": "San Pablo Tepetzingo",
      "lat": 18.416667,
      "lng": -97.316667
    },
    {
      "cityName": "San Pablo Zoyatitlanapan",
      "lat": 18.666667,
      "lng": -98.133333
    },
    {
      "cityName": "San Pedro Atzumpa",
      "lat": 18.155556,
      "lng": -97.586111
    },
    {
      "cityName": "San Pedro Ixtla",
      "lat": 20.283333,
      "lng": -97.933333
    },
    {
      "cityName": "San Pedro La Junta",
      "lat": 18.373611,
      "lng": -98.423611
    },
    {
      "cityName": "San Pedro Temamatla",
      "lat": 18.933333,
      "lng": -97.516667
    },
    {
      "cityName": "San Pedro Tlaolantongo",
      "lat": 20.229167,
      "lng": -97.804167
    },
    {
      "cityName": "San Roque",
      "lat": 19.516667,
      "lng": -97.533333
    },
    {
      "cityName": "San Salvador el Verde",
      "lat": 19.266667,
      "lng": -98.516667
    },
    {
      "cityName": "San Sebastián",
      "lat": 18.333333,
      "lng": -97.25
    },
    {
      "cityName": "San Sebastián Teteles",
      "lat": 19.033333,
      "lng": -97.791667
    },
    {
      "cityName": "San Sebastián Villanueva",
      "lat": 19.05,
      "lng": -97.716667
    },
    {
      "cityName": "San Simón de Bravo",
      "lat": 18.966667,
      "lng": -97.716667
    },
    {
      "cityName": "Santa Ana Coatepec",
      "lat": 18.833333,
      "lng": -98.416667
    },
    {
      "cityName": "Santa Ana Necoxtla",
      "lat": 18.6,
      "lng": -98.366667
    },
    {
      "cityName": "Santa Ana",
      "lat": 18.383333,
      "lng": -97.533333
    },
    {
      "cityName": "Santa Ana Tecolapa",
      "lat": 18.386111,
      "lng": -98.65
    },
    {
      "cityName": "Santa Catarina los Reyes",
      "lat": 18.883333,
      "lng": -97.416667
    },
    {
      "cityName": "Santa Catarina",
      "lat": 18.366667,
      "lng": -97.716667
    },
    {
      "cityName": "Santa Catarina Tlaltempan",
      "lat": 18.616667,
      "lng": -98.083333
    },
    {
      "cityName": "Santa Cecilia Clavijero",
      "lat": 18.45,
      "lng": -97.8
    },
    {
      "cityName": "Santa Clara Huitziltepec",
      "lat": 18.766667,
      "lng": -97.866667
    },
    {
      "cityName": "Santa Cruz Ajajalpan",
      "lat": 18.95,
      "lng": -97.958333
    },
    {
      "cityName": "Santa Cruz del Bosque",
      "lat": 19.133333,
      "lng": -97.833333
    },
    {
      "cityName": "Santa Cruz Moxolahuac",
      "lat": 19.441667,
      "lng": -98.541667
    },
    {
      "cityName": "Santa Cruz Organal",
      "lat": 18.448611,
      "lng": -98.233333
    },
    {
      "cityName": "Santa Felícitas",
      "lat": 20.116667,
      "lng": -98.133333
    },
    {
      "cityName": "Santa Inés Borbolla",
      "lat": 19,
      "lng": -97.483333
    },
    {
      "cityName": "Santa Inés Varela la Luz",
      "lat": 19.15,
      "lng": -97.416667
    },
    {
      "cityName": "Santa Isabel Cholula",
      "lat": 19,
      "lng": -98.366667
    },
    {
      "cityName": "Santa Isabel Tepetzala",
      "lat": 19.116667,
      "lng": -97.933333
    },
    {
      "cityName": "Santa Lucía Cosamaloapan",
      "lat": 18.883333,
      "lng": -98.352778
    },
    {
      "cityName": "Santa María del Monte",
      "lat": 18.533333,
      "lng": -97.2
    },
    {
      "cityName": "Santa María la Alta",
      "lat": 18.6,
      "lng": -97.666667
    },
    {
      "cityName": "Santa María Sotoltepec",
      "lat": 19.666667,
      "lng": -97.85
    },
    {
      "cityName": "Santa María Techachalco",
      "lat": 18.95,
      "lng": -97.466667
    },
    {
      "cityName": "Santa María Tonantzintla",
      "lat": 19.033333,
      "lng": -98.3
    },
    {
      "cityName": "Santa María Xonacatepec",
      "lat": 19.083333,
      "lng": -98.1
    },
    {
      "cityName": "Santa Marta Cayomeapan",
      "lat": 18.283333,
      "lng": -97
    },
    {
      "cityName": "Santa Marta Yancuitlalpan",
      "lat": 18.766667,
      "lng": -98.083333
    },
    {
      "cityName": "Santa Mónica",
      "lat": 18.183333,
      "lng": -98.8
    },
    {
      "cityName": "Santa Rita",
      "lat": 19.066667,
      "lng": -97.416667
    },
    {
      "cityName": "Santa Rita Tlahuapan",
      "lat": 19.333333,
      "lng": -98.566667
    },
    {
      "cityName": "Santa Rosa",
      "lat": 18.881944,
      "lng": -97.788889
    },
    {
      "cityName": "Santa Úrsula",
      "lat": 19,
      "lng": -97.666667
    },
    {
      "cityName": "Santiago Acatlán",
      "lat": 18.983333,
      "lng": -97.916667
    },
    {
      "cityName": "Santiago Coltzingo",
      "lat": 19.383333,
      "lng": -98.533333
    },
    {
      "cityName": "Santiago Miahuatlán",
      "lat": 18.566667,
      "lng": -97.433333
    },
    {
      "cityName": "Santiago Texmelucan",
      "lat": 19.35,
      "lng": -97.533333
    },
    {
      "cityName": "Santiago Xonacatlán",
      "lat": 19.616667,
      "lng": -97.516667
    },
    {
      "cityName": "Santiago Zautla",
      "lat": 19.716667,
      "lng": -97.666667
    },
    {
      "cityName": "Santo Domingo Atoyatempan",
      "lat": 18.9,
      "lng": -98.366667
    },
    {
      "cityName": "Soledad Morelos",
      "lat": 18.830556,
      "lng": -98.491667
    },
    {
      "cityName": "Soltepec",
      "lat": 19.116667,
      "lng": -97.7
    },
    {
      "cityName": "Sonora",
      "lat": 20.266667,
      "lng": -98.233333
    },
    {
      "cityName": "Soto",
      "lat": 19.416667,
      "lng": -97.516667
    },
    {
      "cityName": "Tacopizacta",
      "lat": 19.966667,
      "lng": -97.516667
    },
    {
      "cityName": "Tahitic",
      "lat": 19.933333,
      "lng": -97.533333
    },
    {
      "cityName": "Talcruz de Libres",
      "lat": 20.3,
      "lng": -98.116667
    },
    {
      "cityName": "Tapayula",
      "lat": 20.033333,
      "lng": -97.75
    },
    {
      "cityName": "Tatetla",
      "lat": 18.666667,
      "lng": -98.466667
    },
    {
      "cityName": "Tatlauquitepec",
      "lat": 19.85,
      "lng": -97.483333
    },
    {
      "cityName": "Taxco",
      "lat": 19.85,
      "lng": -97.75
    },
    {
      "cityName": "Taxipehuatl",
      "lat": 20.033333,
      "lng": -97.466667
    },
    {
      "cityName": "Teacalco",
      "lat": 18.802778,
      "lng": -98.516667
    },
    {
      "cityName": "Tecajete",
      "lat": 18.566667,
      "lng": -97.466667
    },
    {
      "cityName": "Tecali de Herrera",
      "lat": 18.9,
      "lng": -97.966667
    },
    {
      "cityName": "Tecaltzingo",
      "lat": 18.683333,
      "lng": -97.766667
    },
    {
      "cityName": "Tecamachalco",
      "lat": 18.883333,
      "lng": -97.733333
    },
    {
      "cityName": "Tecatilla",
      "lat": 20.083333,
      "lng": -97.55
    },
    {
      "cityName": "Techalotla",
      "lat": 20.45,
      "lng": -97.966667
    },
    {
      "cityName": "Techalxtepec",
      "lat": 18.583333,
      "lng": -98.7
    },
    {
      "cityName": "Tecola",
      "lat": 18.9,
      "lng": -98.183333
    },
    {
      "cityName": "Tecoloc Chico",
      "lat": 19.866667,
      "lng": -98.2
    },
    {
      "cityName": "Tecoloquillo",
      "lat": 19.666667,
      "lng": -98.208333
    },
    {
      "cityName": "Tecoltepec",
      "lat": 18.316667,
      "lng": -97.116667
    },
    {
      "cityName": "Tecolutla",
      "lat": 18.305556,
      "lng": -98.325
    },
    {
      "cityName": "Tecomate",
      "lat": 18.533333,
      "lng": -98.058333
    },
    {
      "cityName": "Tecomatlán",
      "lat": 18.1,
      "lng": -98.3
    },
    {
      "cityName": "Tecoyuca",
      "lat": 19.783333,
      "lng": -98.15
    },
    {
      "cityName": "Tecuanapa",
      "lat": 18.15,
      "lng": -98.556944
    },
    {
      "cityName": "Tecuantitlán",
      "lat": 18.15,
      "lng": -98.3
    },
    {
      "cityName": "Tecuicuilco",
      "lat": 19.9,
      "lng": -97.65
    },
    {
      "cityName": "Tehuacán",
      "lat": 18.45,
      "lng": -97.383333
    },
    {
      "cityName": "Tehuatzingo",
      "lat": 19.520833,
      "lng": -97.683333
    },
    {
      "cityName": "Tehuetzingo",
      "lat": 18.333333,
      "lng": -98.283333
    },
    {
      "cityName": "Tehuixtla",
      "lat": 18.269444,
      "lng": -98.223611
    },
    {
      "cityName": "Tejalpa",
      "lat": 18.35,
      "lng": -98.366667
    },
    {
      "cityName": "Telpatlán",
      "lat": 18.483333,
      "lng": -97.15
    },
    {
      "cityName": "Temascalapa",
      "lat": 20.333333,
      "lng": -97.983333
    },
    {
      "cityName": "Temaxcalapa",
      "lat": 18.55,
      "lng": -98.6125
    },
    {
      "cityName": "Tenampulco",
      "lat": 19.733333,
      "lng": -97.683333
    },
    {
      "cityName": "Tenampulco Viejo",
      "lat": 20.216667,
      "lng": -97.366667
    },
    {
      "cityName": "Tenango",
      "lat": 18.65,
      "lng": -98.183333
    },
    {
      "cityName": "Tenanguito",
      "lat": 20.325,
      "lng": -97.788889
    },
    {
      "cityName": "Tenejac",
      "lat": 20.1,
      "lng": -98.1
    },
    {
      "cityName": "Tenejapan",
      "lat": 20.15,
      "lng": -97.333333
    },
    {
      "cityName": "Tenexate",
      "lat": 20.141667,
      "lng": -97.373611
    },
    {
      "cityName": "Tenexcalco",
      "lat": 18.466667,
      "lng": -98.583333
    },
    {
      "cityName": "Tenextitla",
      "lat": 20.3,
      "lng": -98.05
    },
    {
      "cityName": "Teolco",
      "lat": 18.733333,
      "lng": -98.683333
    },
    {
      "cityName": "Teoloyucan",
      "lat": 19.416667,
      "lng": -97.6
    },
    {
      "cityName": "Teopancingo",
      "lat": 20.095833,
      "lng": -98.076389
    },
    {
      "cityName": "Teopantlán",
      "lat": 18.716667,
      "lng": -98.266667
    },
    {
      "cityName": "Teotlalco",
      "lat": 18.466667,
      "lng": -98.783333
    },
    {
      "cityName": "Tepactzinc",
      "lat": 19.283333,
      "lng": -97.1
    },
    {
      "cityName": "Tepálcatzin",
      "lat": 20.066667,
      "lng": -97.2
    },
    {
      "cityName": "Tepanco de López",
      "lat": 18.566667,
      "lng": -97.55
    },
    {
      "cityName": "Tepango de Rodríguez",
      "lat": 18.833333,
      "lng": -98.683333
    },
    {
      "cityName": "Tepango",
      "lat": 20,
      "lng": -97.816667
    },
    {
      "cityName": "Tepapayeca",
      "lat": 18.666667,
      "lng": -98.516667
    },
    {
      "cityName": "Tepatlaxco de Hidalgo",
      "lat": 19.066667,
      "lng": -97.966667
    },
    {
      "cityName": "Tepazolco",
      "lat": 18.7,
      "lng": -97.7
    },
    {
      "cityName": "Tepeaca",
      "lat": 18.966667,
      "lng": -97.9
    },
    {
      "cityName": "Tepeixco",
      "lat": 20.05,
      "lng": -97.933333
    },
    {
      "cityName": "Tepemexquita",
      "lat": 18.340278,
      "lng": -98.75
    },
    {
      "cityName": "Tepenene",
      "lat": 18.883333,
      "lng": -98.1
    },
    {
      "cityName": "Tepeojuma",
      "lat": 18.716667,
      "lng": -98.45
    },
    {
      "cityName": "Tepetitlán",
      "lat": 19.183333,
      "lng": -97.433333
    },
    {
      "cityName": "Tepetlacalco",
      "lat": 18.633333,
      "lng": -97.666667
    },
    {
      "cityName": "Tepetzintla",
      "lat": 19.966667,
      "lng": -97.833333
    },
    {
      "cityName": "Tepetzitzintla",
      "lat": 18.475,
      "lng": -97.116667
    },
    {
      "cityName": "Tepexco",
      "lat": 18.633333,
      "lng": -98.683333
    },
    {
      "cityName": "Tepexi de Rodríguez",
      "lat": 18.583333,
      "lng": -97.933333
    },
    {
      "cityName": "Tepexilotla de Tepequexpa",
      "lat": 18.466667,
      "lng": -96.9
    },
    {
      "cityName": "Tepexoxuca",
      "lat": 19.6,
      "lng": -97.733333
    },
    {
      "cityName": "Tepeyahualco Cuahtémoc",
      "lat": 18.8,
      "lng": -97.883333
    },
    {
      "cityName": "Tepostitlán",
      "lat": 18.366667,
      "lng": -97.65
    },
    {
      "cityName": "Tepoxcuautla",
      "lat": 19.916667,
      "lng": -98
    },
    {
      "cityName": "Tepulco",
      "lat": 19.116667,
      "lng": -97.983333
    },
    {
      "cityName": "Teruel",
      "lat": 18.733333,
      "lng": -98.45
    },
    {
      "cityName": "Tetela de Ocampo",
      "lat": 19.816667,
      "lng": -97.8
    },
    {
      "cityName": "Teteles",
      "lat": 19.866667,
      "lng": -97.433333
    },
    {
      "cityName": "Tetipanapa",
      "lat": 19.463889,
      "lng": -97.533333
    },
    {
      "cityName": "Teutla",
      "lat": 18.295833,
      "lng": -98.95
    },
    {
      "cityName": "Texcalapa",
      "lat": 18.0625,
      "lng": -97.993056
    },
    {
      "cityName": "Texcal",
      "lat": 19.586111,
      "lng": -97.5375
    },
    {
      "cityName": "Texócuixpan",
      "lat": 19.6,
      "lng": -97.833333
    },
    {
      "cityName": "Teyuca",
      "lat": 18.733333,
      "lng": -98.433333
    },
    {
      "cityName": "Teziutlán",
      "lat": 19.816667,
      "lng": -97.35
    },
    {
      "cityName": "Tezonteopan de Bonilla",
      "lat": 18.75,
      "lng": -98.5
    },
    {
      "cityName": "Tezontepec",
      "lat": 19.516667,
      "lng": -97.5
    },
    {
      "cityName": "Tianguistengo",
      "lat": 18.25,
      "lng": -98.029167
    },
    {
      "cityName": "Tierra Nueva",
      "lat": 20.15,
      "lng": -97.169444
    },
    {
      "cityName": "Tilapa",
      "lat": 18.166667,
      "lng": -97.1
    },
    {
      "cityName": "Tilopa",
      "lat": 18.583333,
      "lng": -98.55
    },
    {
      "cityName": "Tlacamilco",
      "lat": 19.058333,
      "lng": -97.933333
    },
    {
      "cityName": "Tlachiapa",
      "lat": 19.816667,
      "lng": -97.933333
    },
    {
      "cityName": "Tlachichuca",
      "lat": 19.1,
      "lng": -97.416667
    },
    {
      "cityName": "Tlachinola",
      "lat": 18.336111,
      "lng": -98.336111
    },
    {
      "cityName": "Tlacotepec",
      "lat": 20.066667,
      "lng": -97.866667
    },
    {
      "cityName": "Tlacuilotepec",
      "lat": 20.333333,
      "lng": -98.066667
    },
    {
      "cityName": "Tlacxitla",
      "lat": 18.4,
      "lng": -96.783333
    },
    {
      "cityName": "Tlalhuapan",
      "lat": 20.083333,
      "lng": -97.916667
    },
    {
      "cityName": "Tlalixtlipa",
      "lat": 20.033333,
      "lng": -97.933333
    },
    {
      "cityName": "Tlalmotolo",
      "lat": 19.566667,
      "lng": -97.733333
    },
    {
      "cityName": "Tlalpehuala",
      "lat": 20.3,
      "lng": -98.016667
    },
    {
      "cityName": "Tlaltenango",
      "lat": 19.166667,
      "lng": -98.333333
    },
    {
      "cityName": "Tlaltepango",
      "lat": 20.141667,
      "lng": -97.875
    },
    {
      "cityName": "Tlamanaca",
      "lat": 19.683333,
      "lng": -97.683333
    },
    {
      "cityName": "Tlamapa",
      "lat": 18.966667,
      "lng": -98.4
    },
    {
      "cityName": "Tlanalapan",
      "lat": 19.25,
      "lng": -97.266667
    },
    {
      "cityName": "Tlancualpican",
      "lat": 18.433333,
      "lng": -98.7
    },
    {
      "cityName": "Tlanepantla",
      "lat": 18.85,
      "lng": -97.9
    },
    {
      "cityName": "Tlaolantongo",
      "lat": 20.233333,
      "lng": -97.8
    },
    {
      "cityName": "Tlaola",
      "lat": 20.133333,
      "lng": -97.916667
    },
    {
      "cityName": "Tlapacoyan",
      "lat": 20.116667,
      "lng": -97.866667
    },
    {
      "cityName": "Tlapenalá",
      "lat": 18.697222,
      "lng": -98.538889
    },
    {
      "cityName": "Tlapetlahuaya",
      "lat": 18.758333,
      "lng": -98.573611
    },
    {
      "cityName": "Tlapizahuac",
      "lat": 19.816667,
      "lng": -98.133333
    },
    {
      "cityName": "Tlaquextla",
      "lat": 19.583333,
      "lng": -97.766667
    },
    {
      "cityName": "Tlatapanola",
      "lat": 20.183333,
      "lng": -97.916667
    },
    {
      "cityName": "Tlatempa",
      "lat": 19.936111,
      "lng": -97.930556
    },
    {
      "cityName": "Tlatepexi",
      "lat": 17.902778,
      "lng": -98.416667
    },
    {
      "cityName": "Tlatlauquitepec",
      "lat": 19.841667,
      "lng": -97.5
    },
    {
      "cityName": "Tlaucingo",
      "lat": 18.383333,
      "lng": -98.823611
    },
    {
      "cityName": "Tlaxcalancingo",
      "lat": 19.033333,
      "lng": -98.266667
    },
    {
      "cityName": "Tlaxcalantongo",
      "lat": 20.316667,
      "lng": -97.866667
    },
    {
      "cityName": "Tlaxco",
      "lat": 20.433333,
      "lng": -98.016667
    },
    {
      "cityName": "Tlaxcuapam",
      "lat": 18.15,
      "lng": -98.316667
    },
    {
      "cityName": "Tlaxpanaloya",
      "lat": 20.219444,
      "lng": -98.116667
    },
    {
      "cityName": "Tlayehualancingo",
      "lat": 20.033333,
      "lng": -97.833333
    },
    {
      "cityName": "Tlazola",
      "lat": 18.616667,
      "lng": -98.7
    },
    {
      "cityName": "Tochimilco",
      "lat": 18.9,
      "lng": -98.566667
    },
    {
      "cityName": "Tochimizolco",
      "lat": 18.875,
      "lng": -98.616667
    },
    {
      "cityName": "Tochimpa",
      "lat": 19.833333,
      "lng": -97.5
    },
    {
      "cityName": "Tochtepec",
      "lat": 18.833333,
      "lng": -97.816667
    },
    {
      "cityName": "Toctla",
      "lat": 18.75,
      "lng": -98.683333
    },
    {
      "cityName": "Tomalá",
      "lat": 17.866667,
      "lng": -98.333333
    },
    {
      "cityName": "Tomatlán",
      "lat": 19.9,
      "lng": -97.983333
    },
    {
      "cityName": "Tonahuixtla",
      "lat": 18.2,
      "lng": -97.9
    },
    {
      "cityName": "Tonalapa",
      "lat": 19.816667,
      "lng": -97.866667
    },
    {
      "cityName": "Torija",
      "lat": 18.933333,
      "lng": -98.1
    },
    {
      "cityName": "Totolapa",
      "lat": 20.133333,
      "lng": -98.1
    },
    {
      "cityName": "Totoltepec de Guerrero",
      "lat": 18.233333,
      "lng": -97.85
    },
    {
      "cityName": "Totopol",
      "lat": 19.966667,
      "lng": -97.55
    },
    {
      "cityName": "Totutla",
      "lat": 19.933333,
      "lng": -97.733333
    },
    {
      "cityName": "Tozihuic",
      "lat": 19.266667,
      "lng": -97.083333
    },
    {
      "cityName": "Tres Cabezas",
      "lat": 19.881944,
      "lng": -98.275
    },
    {
      "cityName": "Tula",
      "lat": 18.552778,
      "lng": -97.916667
    },
    {
      "cityName": "Tulcingo del Valle",
      "lat": 18.05,
      "lng": -98.433333
    },
    {
      "cityName": "Tuxtla",
      "lat": 20.016667,
      "lng": -97.666667
    },
    {
      "cityName": "Tuzamapan de Galeana",
      "lat": 20.083333,
      "lng": -97.566667
    },
    {
      "cityName": "Tuzantlán",
      "lat": 18.366667,
      "lng": -98.333333
    },
    {
      "cityName": "Tuzapan",
      "lat": 20.466667,
      "lng": -97.7
    },
    {
      "cityName": "Tuzuapan",
      "lat": 18.9,
      "lng": -97.65
    },
    {
      "cityName": "Tzicatlacoyan",
      "lat": 18.833333,
      "lng": -98.033333
    },
    {
      "cityName": "Tzicatlán",
      "lat": 18.45,
      "lng": -98.758333
    },
    {
      "cityName": "Tzicuilán",
      "lat": 20.016667,
      "lng": -97.5
    },
    {
      "cityName": "Tzinacapan",
      "lat": 20.05,
      "lng": -97.533333
    },
    {
      "cityName": "Varela",
      "lat": 19.433333,
      "lng": -97.566667
    },
    {
      "cityName": "Vega Chica",
      "lat": 20.083333,
      "lng": -97.305556
    },
    {
      "cityName": "Vega de Monteceli",
      "lat": 20.097222,
      "lng": -97.291667
    },
    {
      "cityName": "Venta de Toluca",
      "lat": 19.75,
      "lng": -97.5
    },
    {
      "cityName": "Venta Grande",
      "lat": 20.116667,
      "lng": -98.104167
    },
    {
      "cityName": "Venustiano Carranza",
      "lat": 19.231944,
      "lng": -97.479167
    },
    {
      "cityName": "Vicente Guerrero",
      "lat": 19.058333,
      "lng": -97.8125
    },
    {
      "cityName": "Victoria",
      "lat": 18.65,
      "lng": -97.95
    },
    {
      "cityName": "Villa Ávila Camacho",
      "lat": 20.381944,
      "lng": -97.879167
    },
    {
      "cityName": "Villa Cuauhtémoc",
      "lat": 19.775,
      "lng": -98.097222
    },
    {
      "cityName": "Villa del Río",
      "lat": 18.425,
      "lng": -96.775
    },
    {
      "cityName": "Villa Lázaro Cárdenas",
      "lat": 20.458333,
      "lng": -97.7
    },
    {
      "cityName": "Villareal",
      "lat": 19.533333,
      "lng": -97.9
    },
    {
      "cityName": "Virreyes",
      "lat": 19.383333,
      "lng": -97.616667
    },
    {
      "cityName": "Vista Hermosa",
      "lat": 19.7,
      "lng": -97.833333
    },
    {
      "cityName": "Vista Hermosa Zayulapan",
      "lat": 18.433333,
      "lng": -97.1
    },
    {
      "cityName": "Xahuentla",
      "lat": 18.85,
      "lng": -98.4
    },
    {
      "cityName": "Xalacapan",
      "lat": 19.9,
      "lng": -97.591667
    },
    {
      "cityName": "Xalamatitla",
      "lat": 20.316667,
      "lng": -97.966667
    },
    {
      "cityName": "Xalcomulco",
      "lat": 19.593056,
      "lng": -97.766667
    },
    {
      "cityName": "Xalintzintla",
      "lat": 19.083333,
      "lng": -98.516667
    },
    {
      "cityName": "Xalmimilulco",
      "lat": 19.216667,
      "lng": -98.383333
    },
    {
      "cityName": "Xaltatempa de Lucas",
      "lat": 19.75,
      "lng": -97.816667
    },
    {
      "cityName": "Xaltepaxtla",
      "lat": 20.183333,
      "lng": -97.966667
    },
    {
      "cityName": "Xaltepec",
      "lat": 18.866667,
      "lng": -97.6
    },
    {
      "cityName": "Xaltipanapa",
      "lat": 19.583333,
      "lng": -97.483333
    },
    {
      "cityName": "Xayacatlán de Bravo",
      "lat": 18.25,
      "lng": -97.966667
    },
    {
      "cityName": "Xepatlá",
      "lat": 18.3,
      "lng": -98.752778
    },
    {
      "cityName": "Xicoténcatl",
      "lat": 19.85,
      "lng": -97.716667
    },
    {
      "cityName": "Xicotlán",
      "lat": 18.063889,
      "lng": -98.533333
    },
    {
      "cityName": "Xilocuautla",
      "lat": 20.15,
      "lng": -98.016667
    },
    {
      "cityName": "Xitlama",
      "lat": 18.3,
      "lng": -97.016667
    },
    {
      "cityName": "Xixingo",
      "lat": 17.866667,
      "lng": -98.4
    },
    {
      "cityName": "Xochicuautla",
      "lat": 20.05,
      "lng": -97.883333
    },
    {
      "cityName": "Xochicutla",
      "lat": 20.095833,
      "lng": -97.830556
    },
    {
      "cityName": "Xochiloma",
      "lat": 18.958333,
      "lng": -97.338889
    },
    {
      "cityName": "Xochiltepec",
      "lat": 18.183333,
      "lng": -98.866667
    },
    {
      "cityName": "Xochimilco",
      "lat": 20.066667,
      "lng": -97.9
    },
    {
      "cityName": "Xochinacatlan",
      "lat": 20.2,
      "lng": -97.9
    },
    {
      "cityName": "Xochititán",
      "lat": 19.866667,
      "lng": -97.733333
    },
    {
      "cityName": "Xochitlán",
      "lat": 18.7,
      "lng": -97.783333
    },
    {
      "cityName": "Xocoxihuitla",
      "lat": 19.616667,
      "lng": -97.85
    },
    {
      "cityName": "Xocoyolo",
      "lat": 20,
      "lng": -97.533333
    },
    {
      "cityName": "Xolchitepec",
      "lat": 18.243056,
      "lng": -97.45
    },
    {
      "cityName": "Xolotla",
      "lat": 20.258333,
      "lng": -98.133333
    },
    {
      "cityName": "Xonocuautla",
      "lat": 19.783333,
      "lng": -97.531944
    },
    {
      "cityName": "Xonotipan",
      "lat": 18.447222,
      "lng": -96.926389
    },
    {
      "cityName": "Xopanapa",
      "lat": 19.2,
      "lng": -97.083333
    },
    {
      "cityName": "Xotiocuautitla",
      "lat": 19.8,
      "lng": -97.516667
    },
    {
      "cityName": "Xoyatla",
      "lat": 18.75,
      "lng": -98.391667
    },
    {
      "cityName": "Xuchapa",
      "lat": 18.516667,
      "lng": -98.433333
    },
    {
      "cityName": "Yahualutzingo",
      "lat": 18.508333,
      "lng": -97.183333
    },
    {
      "cityName": "Yaonáhuac",
      "lat": 19.866667,
      "lng": -97.45
    },
    {
      "cityName": "Yeguas",
      "lat": 18.55,
      "lng": -97.991667
    },
    {
      "cityName": "Yehualtepec",
      "lat": 18.783333,
      "lng": -97.65
    },
    {
      "cityName": "Yetla",
      "lat": 17.966667,
      "lng": -98.316667
    },
    {
      "cityName": "Yoloctzin",
      "lat": 19.95,
      "lng": -97.4
    },
    {
      "cityName": "Zacalapa",
      "lat": 18.583333,
      "lng": -98.066667
    },
    {
      "cityName": "Zacapoaxtla",
      "lat": 19.883333,
      "lng": -97.583333
    },
    {
      "cityName": "Zacatepec de Bravo",
      "lat": 18.25,
      "lng": -96.85
    },
    {
      "cityName": "Zacatepec",
      "lat": 19.266667,
      "lng": -97.533333
    },
    {
      "cityName": "Zacatilihuic",
      "lat": 18.416667,
      "lng": -96.881944
    },
    {
      "cityName": "Zacatipan",
      "lat": 20.05,
      "lng": -97.416667
    },
    {
      "cityName": "Zacatlan de las Manzanas",
      "lat": 19.933333,
      "lng": -97.966667
    },
    {
      "cityName": "Zacaxomulco",
      "lat": 19.183333,
      "lng": -97.133333
    },
    {
      "cityName": "Zamarrilla",
      "lat": 18.505556,
      "lng": -97.716667
    },
    {
      "cityName": "Zanatepec",
      "lat": 20.516667,
      "lng": -97.75
    },
    {
      "cityName": "Zanja Mala",
      "lat": 20.1,
      "lng": -97.25
    },
    {
      "cityName": "Zapotitlán de Méndez",
      "lat": 20,
      "lng": -97.75
    },
    {
      "cityName": "Zaragosa",
      "lat": 19.766667,
      "lng": -97.55
    },
    {
      "cityName": "Zempoala",
      "lat": 20.1,
      "lng": -98
    },
    {
      "cityName": "Zihuateutla",
      "lat": 20.25,
      "lng": -97.858333
    },
    {
      "cityName": "Zitalcuautla",
      "lat": 19.733333,
      "lng": -97.8
    },
    {
      "cityName": "Zongozotla",
      "lat": 19.983333,
      "lng": -97.733333
    },
    {
      "cityName": "Zoquiapan",
      "lat": 20.033333,
      "lng": -97.533333
    },
    {
      "cityName": "Zoquitlán",
      "lat": 18.333333,
      "lng": -97.016667
    }
  ]
}