{
  "name": "Saint George",
  "cities": [
    {
      "cityName": "Arouca",
      "lat": 10.6333333,
      "lng": -61.3333333
    },
    {
      "cityName": "Barataria",
      "lat": 10.65,
      "lng": -61.4666667
    },
    {
      "cityName": "Belmont",
      "lat": 10.6666667,
      "lng": -61.5
    },
    {
      "cityName": "Blanchisseuse",
      "lat": 10.7833333,
      "lng": -61.3
    },
    {
      "cityName": "Brasso Seco Village",
      "lat": 10.7333333,
      "lng": -61.2666667
    },
    {
      "cityName": "Brazil",
      "lat": 10.55,
      "lng": -61.2666667
    },
    {
      "cityName": "Cameron",
      "lat": 10.7166667,
      "lng": -61.55
    },
    {
      "cityName": "Cantaro",
      "lat": 10.7,
      "lng": -61.4666667
    },
    {
      "cityName": "Carapo",
      "lat": 10.5833333,
      "lng": -61.2833333
    },
    {
      "cityName": "Carenage",
      "lat": 10.6833333,
      "lng": -61.6
    },
    {
      "cityName": "Caura",
      "lat": 10.7166667,
      "lng": -61.35
    },
    {
      "cityName": "Centento",
      "lat": 10.5833333,
      "lng": -61.3166667
    },
    {
      "cityName": "Chaguaramas",
      "lat": 10.6833333,
      "lng": -61.6333333
    },
    {
      "cityName": "Coco",
      "lat": 10.6833333,
      "lng": -61.5833333
    },
    {
      "cityName": "Cocorite",
      "lat": 10.6666667,
      "lng": -61.55
    },
    {
      "cityName": "Coolie Block",
      "lat": 10.7333333,
      "lng": -61.55
    },
    {
      "cityName": "Cunapo",
      "lat": 10.6,
      "lng": -61.25
    },
    {
      "cityName": "Curepe",
      "lat": 10.6333333,
      "lng": -61.4
    },
    {
      "cityName": "Curucaye",
      "lat": 10.6666667,
      "lng": -61.45
    },
    {
      "cityName": "Dabadie",
      "lat": 10.6166667,
      "lng": -61.3166667
    },
    {
      "cityName": "Dibe",
      "lat": 10.6833333,
      "lng": -61.5333333
    },
    {
      "cityName": "Diego Martin",
      "lat": 10.7166667,
      "lng": -61.5666667
    },
    {
      "cityName": "Dinsley",
      "lat": 10.6333333,
      "lng": -61.35
    },
    {
      "cityName": "El Dorado",
      "lat": 10.6333333,
      "lng": -61.3833333
    },
    {
      "cityName": "El Quemado",
      "lat": 10.4833333,
      "lng": -61.25
    },
    {
      "cityName": "El Socorro",
      "lat": 10.65,
      "lng": -61.45
    },
    {
      "cityName": "Filette",
      "lat": 10.8,
      "lng": -61.3666667
    },
    {
      "cityName": "Four Roads",
      "lat": 10.6833333,
      "lng": -61.55
    },
    {
      "cityName": "Green Hill",
      "lat": 10.7333333,
      "lng": -61.5666667
    },
    {
      "cityName": "Guamal",
      "lat": 10.75,
      "lng": -61.3666667
    },
    {
      "cityName": "Guarata",
      "lat": 10.6833333,
      "lng": -61.4166667
    },
    {
      "cityName": "Hart's Cut",
      "lat": 10.6833333,
      "lng": -61.6166667
    },
    {
      "cityName": "La Finette",
      "lat": 10.7333333,
      "lng": -61.5166667
    },
    {
      "cityName": "La Pastora",
      "lat": 10.7166667,
      "lng": -61.4666667
    },
    {
      "cityName": "La Pastoria",
      "lat": 10.7,
      "lng": -61.3166667
    },
    {
      "cityName": "La Retraite",
      "lat": 10.6833333,
      "lng": -61.65
    },
    {
      "cityName": "Las Cuevas",
      "lat": 10.7833333,
      "lng": -61.3833333
    },
    {
      "cityName": "La Veronica",
      "lat": 10.7,
      "lng": -61.35
    },
    {
      "cityName": "Loango",
      "lat": 10.7166667,
      "lng": -61.4166667
    },
    {
      "cityName": "Lopinot",
      "lat": 10.6833333,
      "lng": -61.3166667
    },
    {
      "cityName": "Malabar Settlement",
      "lat": 10.6166667,
      "lng": -61.2833333
    },
    {
      "cityName": "Maracas Bay Village",
      "lat": 10.75,
      "lng": -61.4333333
    },
    {
      "cityName": "Maracas",
      "lat": 10.6833333,
      "lng": -61.4
    },
    {
      "cityName": "Maraval",
      "lat": 10.7,
      "lng": -61.5166667
    },
    {
      "cityName": "Maturita",
      "lat": 10.6333333,
      "lng": -61.2666667
    },
    {
      "cityName": "Mount Pleasant",
      "lat": 10.7166667,
      "lng": -61.6166667
    },
    {
      "cityName": "Mundo Nuevo",
      "lat": 10.4666667,
      "lng": -61.25
    },
    {
      "cityName": "Paradise",
      "lat": 10.65,
      "lng": -61.3666667
    },
    {
      "cityName": "Petit Valley",
      "lat": 10.7,
      "lng": -61.5333333
    },
    {
      "cityName": "Piarco",
      "lat": 10.5833333,
      "lng": -61.3333333
    },
    {
      "cityName": "Saint Augustine",
      "lat": 10.65,
      "lng": -61.4
    },
    {
      "cityName": "Saint Elizabeth",
      "lat": 10.6833333,
      "lng": -61.5
    },
    {
      "cityName": "Saint Joseph",
      "lat": 10.65,
      "lng": -61.4166667
    },
    {
      "cityName": "San Rafael",
      "lat": 10.5666667,
      "lng": -61.2666667
    },
    {
      "cityName": "Sierra Leone",
      "lat": 10.7,
      "lng": -61.55
    },
    {
      "cityName": "Tacarigua",
      "lat": 10.6333333,
      "lng": -61.3666667
    },
    {
      "cityName": "Talparo",
      "lat": 10.5,
      "lng": -61.2666667
    },
    {
      "cityName": "Tulls",
      "lat": 10.6166667,
      "lng": -61.4
    },
    {
      "cityName": "Verdant Vale",
      "lat": 10.6833333,
      "lng": -61.2833333
    }
  ]
}