{
  "name": "Tahoua",
  "cities": [
    {
      "cityName": "Abalak",
      "lat": 15.4522222,
      "lng": 6.2783333
    },
    {
      "cityName": "Abalo",
      "lat": 14.3833333,
      "lng": 6.3833333
    },
    {
      "cityName": "Abaza",
      "lat": 14.4166667,
      "lng": 6.2
    },
    {
      "cityName": "Adjibo",
      "lat": 14.0333333,
      "lng": 6.0333333
    },
    {
      "cityName": "Agourmi",
      "lat": 14.35,
      "lng": 5.0833333
    },
    {
      "cityName": "Akarzaza",
      "lat": 15.1333333,
      "lng": 6.35
    },
    {
      "cityName": "Akoirori",
      "lat": 13.8333333,
      "lng": 6.0833333
    },
    {
      "cityName": "Alagaza",
      "lat": 15.05,
      "lng": 6.1
    },
    {
      "cityName": "Alakaye",
      "lat": 14.4166667,
      "lng": 5.7333333
    },
    {
      "cityName": "Aléla",
      "lat": 13.9166667,
      "lng": 4.8166667
    },
    {
      "cityName": "Alibou",
      "lat": 14.8,
      "lng": 5.5166667
    },
    {
      "cityName": "Aliou",
      "lat": 14.8,
      "lng": 6.25
    },
    {
      "cityName": "Amassé",
      "lat": 14.3333333,
      "lng": 6.1833333
    },
    {
      "cityName": "Ambagoura",
      "lat": 14.3333333,
      "lng": 4.6666667
    },
    {
      "cityName": "Ambaraoua",
      "lat": 14.4666667,
      "lng": 5.5
    },
    {
      "cityName": "Ambouta",
      "lat": 13.75,
      "lng": 5.1333333
    },
    {
      "cityName": "Anéker",
      "lat": 15.3755556,
      "lng": 5.0366667
    },
    {
      "cityName": "Angouldenia",
      "lat": 14.35,
      "lng": 5.7
    },
    {
      "cityName": "Aouloumout",
      "lat": 14.2333333,
      "lng": 6.0333333
    },
    {
      "cityName": "Aragaga",
      "lat": 13.75,
      "lng": 6.2333333
    },
    {
      "cityName": "Arahoueï",
      "lat": 14.5833333,
      "lng": 5.1833333
    },
    {
      "cityName": "Ardi",
      "lat": 14.6833333,
      "lng": 6.3333333
    },
    {
      "cityName": "Ardo Gaya",
      "lat": 13.8333333,
      "lng": 6.15
    },
    {
      "cityName": "Aréoua",
      "lat": 14.0666667,
      "lng": 5.65
    },
    {
      "cityName": "Arzakori",
      "lat": 14.1413889,
      "lng": 5.9133333
    },
    {
      "cityName": "Assarou",
      "lat": 14.5666667,
      "lng": 6.0833333
    },
    {
      "cityName": "Atako I",
      "lat": 14.5666667,
      "lng": 6.1833333
    },
    {
      "cityName": "Atako II",
      "lat": 14.55,
      "lng": 6.2166667
    },
    {
      "cityName": "Atakonio",
      "lat": 13.75,
      "lng": 6.1
    },
    {
      "cityName": "Atjirou Kouné",
      "lat": 13.7333333,
      "lng": 6.2333333
    },
    {
      "cityName": "Ayaouane",
      "lat": 14.3466667,
      "lng": 5.8352778
    },
    {
      "cityName": "Azao",
      "lat": 14.4333333,
      "lng": 5.1166667
    },
    {
      "cityName": "Baban Katami",
      "lat": 14.5166667,
      "lng": 6.25
    },
    {
      "cityName": "Babeudoli",
      "lat": 13.8166667,
      "lng": 5.3333333
    },
    {
      "cityName": "Badabey",
      "lat": 13.9833333,
      "lng": 5.4
    },
    {
      "cityName": "Badafalalèye",
      "lat": 14.4833333,
      "lng": 6.25
    },
    {
      "cityName": "Badaguichéri",
      "lat": 14.5233333,
      "lng": 5.3725
    },
    {
      "cityName": "Baga",
      "lat": 14.6683333,
      "lng": 5.3438889
    },
    {
      "cityName": "Bagaroua",
      "lat": 14.6369444,
      "lng": 4.3472222
    },
    {
      "cityName": "Bagarwa",
      "lat": 13.8333333,
      "lng": 6.3
    },
    {
      "cityName": "Bagay",
      "lat": 14.85,
      "lng": 5.5666667
    },
    {
      "cityName": "Baïxo",
      "lat": 13.8672222,
      "lng": 4.7658333
    },
    {
      "cityName": "Balgaya",
      "lat": 13.9,
      "lng": 5.6333333
    },
    {
      "cityName": "Bambey",
      "lat": 14.7183333,
      "lng": 5.09
    },
    {
      "cityName": "Bana",
      "lat": 13.95,
      "lng": 6.3
    },
    {
      "cityName": "Bangi",
      "lat": 13.6736111,
      "lng": 6.1988889
    },
    {
      "cityName": "Baranjaja",
      "lat": 14.5166667,
      "lng": 6.0666667
    },
    {
      "cityName": "Barèngo Zengo",
      "lat": 14,
      "lng": 6
    },
    {
      "cityName": "Bargat",
      "lat": 14.7666667,
      "lng": 6.1666667
    },
    {
      "cityName": "Barmou",
      "lat": 15.1094444,
      "lng": 5.4116667
    },
    {
      "cityName": "Bassaga",
      "lat": 13.8,
      "lng": 5.1
    },
    {
      "cityName": "Batagé",
      "lat": 13.9833333,
      "lng": 6.3833333
    },
    {
      "cityName": "Bazazaga",
      "lat": 13.9333333,
      "lng": 4.8666667
    },
    {
      "cityName": "Békin Zango",
      "lat": 13.9833333,
      "lng": 5.95
    },
    {
      "cityName": "Bélétié",
      "lat": 13.7333333,
      "lng": 6.0833333
    },
    {
      "cityName": "Berkéleye",
      "lat": 14.55,
      "lng": 6.3166667
    },
    {
      "cityName": "Bigel Kankoura",
      "lat": 13.8166667,
      "lng": 5.7
    },
    {
      "cityName": "Bilandao",
      "lat": 13.8333333,
      "lng": 5.7
    },
    {
      "cityName": "Bingire",
      "lat": 13.9666667,
      "lng": 5.2833333
    },
    {
      "cityName": "Birni-Koni",
      "lat": 13.8,
      "lng": 5.25
    },
    {
      "cityName": "Boudoun Koui",
      "lat": 14.15,
      "lng": 6.0166667
    },
    {
      "cityName": "Boulendo",
      "lat": 13.9166667,
      "lng": 5.6333333
    },
    {
      "cityName": "Bourdi",
      "lat": 14.9366667,
      "lng": 5.7277778
    },
    {
      "cityName": "Boutoudou",
      "lat": 14.05,
      "lng": 6.2833333
    },
    {
      "cityName": "Bouza",
      "lat": 14.4222222,
      "lng": 6.0452778
    },
    {
      "cityName": "Bouzouk",
      "lat": 14.1166667,
      "lng": 6.1666667
    },
    {
      "cityName": "Chadaouanka",
      "lat": 15.0336111,
      "lng": 6.1252778
    },
    {
      "cityName": "Chaniassou",
      "lat": 14.4647222,
      "lng": 4.7391667
    },
    {
      "cityName": "Chérifaoua",
      "lat": 14.0666667,
      "lng": 5.8333333
    },
    {
      "cityName": "Cheta",
      "lat": 13.9,
      "lng": 5.2333333
    },
    {
      "cityName": "Chetao",
      "lat": 13.7666667,
      "lng": 5.1666667
    },
    {
      "cityName": "Chigio",
      "lat": 13.8,
      "lng": 5.7833333
    },
    {
      "cityName": "Chim Berkaouane",
      "lat": 15,
      "lng": 3.5
    },
    {
      "cityName": "Chinaoua",
      "lat": 14.1,
      "lng": 6.2666667
    },
    {
      "cityName": "Chisana",
      "lat": 14.2833333,
      "lng": 5.1166667
    },
    {
      "cityName": "Chokot",
      "lat": 14.6833333,
      "lng": 5.3833333
    },
    {
      "cityName": "Dabnou",
      "lat": 14.1586111,
      "lng": 5.365
    },
    {
      "cityName": "Dafan",
      "lat": 14.875,
      "lng": 5.0666667
    },
    {
      "cityName": "Dafaoua",
      "lat": 14.1333333,
      "lng": 5.05
    },
    {
      "cityName": "Dakaraoua",
      "lat": 13.9666667,
      "lng": 6.25
    },
    {
      "cityName": "Dakarka",
      "lat": 13.8,
      "lng": 5.2166667
    },
    {
      "cityName": "Dakoro",
      "lat": 13.8833333,
      "lng": 6.2166667
    },
    {
      "cityName": "Dama",
      "lat": 14.25,
      "lng": 6.1333333
    },
    {
      "cityName": "Damni",
      "lat": 13.9333333,
      "lng": 6.1166667
    },
    {
      "cityName": "Dan Doutchi",
      "lat": 14.2036111,
      "lng": 4.5552778
    },
    {
      "cityName": "Dan Gada",
      "lat": 14.2166667,
      "lng": 5.15
    },
    {
      "cityName": "Dan Gona",
      "lat": 14.2725,
      "lng": 5.0427778
    },
    {
      "cityName": "Dan Kandé",
      "lat": 13.7166667,
      "lng": 6.0333333
    },
    {
      "cityName": "Dan Kasseri",
      "lat": 14.0166667,
      "lng": 6.3833333
    },
    {
      "cityName": "Dan Maïri",
      "lat": 13.6833333,
      "lng": 6.3
    },
    {
      "cityName": "Dan Makéri",
      "lat": 13.9166667,
      "lng": 5.2833333
    },
    {
      "cityName": "Dan Totchi",
      "lat": 13.8,
      "lng": 6.15
    },
    {
      "cityName": "Dan Tounou",
      "lat": 13.9833333,
      "lng": 4.8
    },
    {
      "cityName": "Dan Wanzam",
      "lat": 13.7166667,
      "lng": 6.1666667
    },
    {
      "cityName": "Daouaki",
      "lat": 14.0333333,
      "lng": 6.1833333
    },
    {
      "cityName": "Daoualki",
      "lat": 14.0166667,
      "lng": 6.2333333
    },
    {
      "cityName": "Daouréré",
      "lat": 14.25,
      "lng": 4.95
    },
    {
      "cityName": "Darakou",
      "lat": 14.6166667,
      "lng": 6.2833333
    },
    {
      "cityName": "Darey",
      "lat": 14.5666667,
      "lng": 5.5
    },
    {
      "cityName": "Déoulé",
      "lat": 14.5286111,
      "lng": 5.9819444
    },
    {
      "cityName": "Dessa",
      "lat": 14.05,
      "lng": 5.6833333
    },
    {
      "cityName": "Dibisou",
      "lat": 13.85,
      "lng": 5.25
    },
    {
      "cityName": "Diboni",
      "lat": 13.75,
      "lng": 4.9833333
    },
    {
      "cityName": "Dikita",
      "lat": 14.5333333,
      "lng": 6.4666667
    },
    {
      "cityName": "Dindi",
      "lat": 14.4166667,
      "lng": 5.6166667
    },
    {
      "cityName": "Dinkim",
      "lat": 14.2166667,
      "lng": 4.6
    },
    {
      "cityName": "Djiguina",
      "lat": 14.9333333,
      "lng": 5.8166667
    },
    {
      "cityName": "Djiguinés",
      "lat": 14.3969444,
      "lng": 4.9969444
    },
    {
      "cityName": "Djima Djimi",
      "lat": 13.75,
      "lng": 4.7166667
    },
    {
      "cityName": "Dobagawa",
      "lat": 13.9,
      "lng": 5.5333333
    },
    {
      "cityName": "Dogeraoua",
      "lat": 13.9622222,
      "lng": 5.5966667
    },
    {
      "cityName": "Dogon Marké",
      "lat": 13.8666667,
      "lng": 6.0666667
    },
    {
      "cityName": "Dolé",
      "lat": 13.85,
      "lng": 5.2166667
    },
    {
      "cityName": "Donei",
      "lat": 14.1333333,
      "lng": 6.1
    },
    {
      "cityName": "Dosey",
      "lat": 13.8788889,
      "lng": 5.1916667
    },
    {
      "cityName": "Doukou Doukou",
      "lat": 13.85,
      "lng": 6.3333333
    },
    {
      "cityName": "Doukouna",
      "lat": 13.8,
      "lng": 5.85
    },
    {
      "cityName": "Doun Fourouma",
      "lat": 13.85,
      "lng": 4.6833333
    },
    {
      "cityName": "Doutchi",
      "lat": 13.9,
      "lng": 6.0166667
    },
    {
      "cityName": "Doutchi Sakaro",
      "lat": 13.95,
      "lng": 5.7
    },
    {
      "cityName": "Edir",
      "lat": 14.8180556,
      "lng": 4.7805556
    },
    {
      "cityName": "Edouka",
      "lat": 14.2,
      "lng": 6.3
    },
    {
      "cityName": "Eras",
      "lat": 14.8380556,
      "lng": 6.2366667
    },
    {
      "cityName": "Eriozi",
      "lat": 14.05,
      "lng": 6.4
    },
    {
      "cityName": "Éroudou",
      "lat": 13.9833333,
      "lng": 5.9
    },
    {
      "cityName": "Eroufa",
      "lat": 13.8166667,
      "lng": 5.9
    },
    {
      "cityName": "Eroupa",
      "lat": 14.3333333,
      "lng": 6.3666667
    },
    {
      "cityName": "Essamia",
      "lat": 14.2333333,
      "lng": 6.15
    },
    {
      "cityName": "Fagata",
      "lat": 14.7833333,
      "lng": 5.8
    },
    {
      "cityName": "Farasaouna",
      "lat": 13.7666667,
      "lng": 5.0666667
    },
    {
      "cityName": "Farat Baba",
      "lat": 14.6741667,
      "lng": 6.0363889
    },
    {
      "cityName": "Fari",
      "lat": 13.8166667,
      "lng": 5.1333333
    },
    {
      "cityName": "Faska",
      "lat": 14.1,
      "lng": 5.2666667
    },
    {
      "cityName": "Folakam",
      "lat": 13.9833333,
      "lng": 5.1166667
    },
    {
      "cityName": "Foloa",
      "lat": 14.3377778,
      "lng": 5.2725
    },
    {
      "cityName": "Fonkoya",
      "lat": 14.7713889,
      "lng": 5.3591667
    },
    {
      "cityName": "Fotinguel",
      "lat": 14.3666667,
      "lng": 6.3333333
    },
    {
      "cityName": "Foura",
      "lat": 13.6833333,
      "lng": 6.2166667
    },
    {
      "cityName": "Gadamata",
      "lat": 14.8125,
      "lng": 6.0855556
    },
    {
      "cityName": "Gagan Bawa",
      "lat": 13.9833333,
      "lng": 5.6666667
    },
    {
      "cityName": "Gahé",
      "lat": 14.5666667,
      "lng": 5.6666667
    },
    {
      "cityName": "Galé",
      "lat": 14.7,
      "lng": 5.8166667
    },
    {
      "cityName": "Galma",
      "lat": 14.05,
      "lng": 5.85
    },
    {
      "cityName": "Galmi",
      "lat": 13.9666667,
      "lng": 5.6833333
    },
    {
      "cityName": "Gamé",
      "lat": 14.4833333,
      "lng": 6.05
    },
    {
      "cityName": "Gandessama",
      "lat": 14.2,
      "lng": 6.0666667
    },
    {
      "cityName": "Gao",
      "lat": 15.4091667,
      "lng": 5.7336111
    },
    {
      "cityName": "Gao Mousou",
      "lat": 14.6083333,
      "lng": 5.22
    },
    {
      "cityName": "Garadoumé",
      "lat": 14.3666667,
      "lng": 5.8833333
    },
    {
      "cityName": "Garanga",
      "lat": 14.5563889,
      "lng": 5.7661111
    },
    {
      "cityName": "Gardaé Ajajoua",
      "lat": 13.9833333,
      "lng": 6.1833333
    },
    {
      "cityName": "Gardaoua",
      "lat": 14.5333333,
      "lng": 6.2166667
    },
    {
      "cityName": "Gazourawa",
      "lat": 13.8166667,
      "lng": 5.1833333
    },
    {
      "cityName": "Gidan Adan Dano",
      "lat": 13.8,
      "lng": 6.0833333
    },
    {
      "cityName": "Gidan Ado",
      "lat": 13.8833333,
      "lng": 6.1333333
    },
    {
      "cityName": "Gidan Alasan",
      "lat": 13.7666667,
      "lng": 5.95
    },
    {
      "cityName": "Gidan-Bagilbi",
      "lat": 13.9833333,
      "lng": 5.7
    },
    {
      "cityName": "Gidan-Bahago",
      "lat": 13.9333333,
      "lng": 5.5833333
    },
    {
      "cityName": "Gidan-Barao",
      "lat": 13.8833333,
      "lng": 5.5166667
    },
    {
      "cityName": "Gidan Baraya",
      "lat": 14.7797222,
      "lng": 5.5025
    },
    {
      "cityName": "Gidan Bizo",
      "lat": 13.8,
      "lng": 6.35
    },
    {
      "cityName": "Gidan-Isa",
      "lat": 13.8333333,
      "lng": 3.9666667
    },
    {
      "cityName": "Gidan-Kara",
      "lat": 13.75,
      "lng": 5.85
    },
    {
      "cityName": "Gidan-Masalatchi",
      "lat": 13.9,
      "lng": 5.5166667
    },
    {
      "cityName": "Gidan May-Douma",
      "lat": 13.7333333,
      "lng": 5.9166667
    },
    {
      "cityName": "Gidan Maykaydéri",
      "lat": 13.8833333,
      "lng": 5.7166667
    },
    {
      "cityName": "Gidan Nababa",
      "lat": 13.8,
      "lng": 6.2333333
    },
    {
      "cityName": "Gidan-Raki",
      "lat": 13.8833333,
      "lng": 5.2333333
    },
    {
      "cityName": "Gidan-Samni",
      "lat": 13.7,
      "lng": 5.9833333
    },
    {
      "cityName": "Gigouna",
      "lat": 14.3333333,
      "lng": 4.6166667
    },
    {
      "cityName": "Goaram",
      "lat": 14.5805556,
      "lng": 5.6116667
    },
    {
      "cityName": "Gobatel",
      "lat": 14.5166667,
      "lng": 6.4333333
    },
    {
      "cityName": "Godgi",
      "lat": 14.1166667,
      "lng": 5.8166667
    },
    {
      "cityName": "Godjé Fadarawa",
      "lat": 13.7333333,
      "lng": 5.95
    },
    {
      "cityName": "Gogé",
      "lat": 14.0166667,
      "lng": 5.4166667
    },
    {
      "cityName": "Goubérawa",
      "lat": 13.8,
      "lng": 5.9666667
    },
    {
      "cityName": "Goubéraya",
      "lat": 13.7833333,
      "lng": 5.8166667
    },
    {
      "cityName": "Goudou Féma",
      "lat": 14.1930556,
      "lng": 4.8183333
    },
    {
      "cityName": "Goulbi-n-Kano",
      "lat": 14.0163889,
      "lng": 4.9225
    },
    {
      "cityName": "Goun Douroum",
      "lat": 14.3333333,
      "lng": 6.4166667
    },
    {
      "cityName": "Goungou",
      "lat": 13.7166667,
      "lng": 6
    },
    {
      "cityName": "Gourbin Kada",
      "lat": 13.85,
      "lng": 6.1
    },
    {
      "cityName": "Guéza",
      "lat": 14.5666667,
      "lng": 5
    },
    {
      "cityName": "Guida Daoda",
      "lat": 14.35,
      "lng": 5.3
    },
    {
      "cityName": "Guida Kossori",
      "lat": 14.45,
      "lng": 5.4666667
    },
    {
      "cityName": "Guida Magadji",
      "lat": 14.15,
      "lng": 5.6333333
    },
    {
      "cityName": "Guida Malou",
      "lat": 14,
      "lng": 5.1
    },
    {
      "cityName": "Guidam-Bade",
      "lat": 14.2166667,
      "lng": 5.9833333
    },
    {
      "cityName": "Guidam Bado",
      "lat": 14.4166667,
      "lng": 6.1
    },
    {
      "cityName": "Guidam",
      "lat": 14.0122222,
      "lng": 5.3166667
    },
    {
      "cityName": "Guidam Makora",
      "lat": 14.5833333,
      "lng": 6.2
    },
    {
      "cityName": "Guidan Abara",
      "lat": 13.7,
      "lng": 6.2
    },
    {
      "cityName": "Guidan Abarchi",
      "lat": 13.8833333,
      "lng": 6.15
    },
    {
      "cityName": "Guidan Adan",
      "lat": 13.85,
      "lng": 6.25
    },
    {
      "cityName": "Guidan Ahmed",
      "lat": 13.65,
      "lng": 6.1333333
    },
    {
      "cityName": "Guidan Amou",
      "lat": 13.7333333,
      "lng": 6.0333333
    },
    {
      "cityName": "Guidan Arna",
      "lat": 14,
      "lng": 6.0333333
    },
    {
      "cityName": "Guidan Asan",
      "lat": 13.7166667,
      "lng": 6.0166667
    },
    {
      "cityName": "Guidan Bango",
      "lat": 13.8666667,
      "lng": 6.1166667
    },
    {
      "cityName": "Guidan Bizo",
      "lat": 13.7,
      "lng": 6.1333333
    },
    {
      "cityName": "Guidan Chibkao",
      "lat": 13.8,
      "lng": 6.3
    },
    {
      "cityName": "Guidan Dakari",
      "lat": 13.8,
      "lng": 6.0666667
    },
    {
      "cityName": "Guidan Dambaki",
      "lat": 14.1833333,
      "lng": 6.1166667
    },
    {
      "cityName": "Guidan Dan Baro",
      "lat": 14.7166667,
      "lng": 6.15
    },
    {
      "cityName": "Guidan Daoudou",
      "lat": 13.9833333,
      "lng": 6.25
    },
    {
      "cityName": "Guidan Darmou",
      "lat": 14.45,
      "lng": 6.4
    },
    {
      "cityName": "Guidan Djibo",
      "lat": 14.6666667,
      "lng": 6.2
    },
    {
      "cityName": "Guidan Fako",
      "lat": 14.5833333,
      "lng": 6.0333333
    },
    {
      "cityName": "Guidan Falkié",
      "lat": 14.65,
      "lng": 6.4666667
    },
    {
      "cityName": "Guidan Gara",
      "lat": 13.8166667,
      "lng": 6.25
    },
    {
      "cityName": "Guidan Garo",
      "lat": 14.4833333,
      "lng": 6.3
    },
    {
      "cityName": "Guidan Idi",
      "lat": 13.7,
      "lng": 6.05
    },
    {
      "cityName": "Guidan Karo",
      "lat": 14.3666667,
      "lng": 5.2833333
    },
    {
      "cityName": "Guidan Kaso",
      "lat": 13.85,
      "lng": 6.1666667
    },
    {
      "cityName": "Guidan Mahaki",
      "lat": 14.5,
      "lng": 6.2166667
    },
    {
      "cityName": "Guidan Mahazou",
      "lat": 14.4166667,
      "lng": 6.3666667
    },
    {
      "cityName": "Guidan Mantao",
      "lat": 14.0833333,
      "lng": 6.5
    },
    {
      "cityName": "Guidan Matchouda",
      "lat": 14.3833333,
      "lng": 6.3
    },
    {
      "cityName": "Guidan May Gochi",
      "lat": 13.8666667,
      "lng": 6.2166667
    },
    {
      "cityName": "Guidan Nakori",
      "lat": 13.7833333,
      "lng": 6.25
    },
    {
      "cityName": "Guidan Roumboukawa",
      "lat": 13.7333333,
      "lng": 6.2
    },
    {
      "cityName": "Guidan Sana",
      "lat": 13.6666667,
      "lng": 6.1666667
    },
    {
      "cityName": "Guidan Tanimou",
      "lat": 14.5666667,
      "lng": 6.25
    },
    {
      "cityName": "Guidan Zaki",
      "lat": 14,
      "lng": 6.4166667
    },
    {
      "cityName": "Gwindogoro",
      "lat": 13.9166667,
      "lng": 5.4833333
    },
    {
      "cityName": "Haringué",
      "lat": 15.25,
      "lng": 5.6
    },
    {
      "cityName": "Ibazaouane",
      "lat": 14.95,
      "lng": 5.6833333
    },
    {
      "cityName": "Ibohamane",
      "lat": 14.8,
      "lng": 5.9333333
    },
    {
      "cityName": "Idri oua-n-Tazak",
      "lat": 14.3,
      "lng": 6.4
    },
    {
      "cityName": "Ijali",
      "lat": 14.9947222,
      "lng": 4.3086111
    },
    {
      "cityName": "Ikaka",
      "lat": 14.4333333,
      "lng": 6.25
    },
    {
      "cityName": "Ilella",
      "lat": 14.4616667,
      "lng": 5.2475
    },
    {
      "cityName": "Illélou",
      "lat": 15.0558333,
      "lng": 4.3436111
    },
    {
      "cityName": "I-n-Jinjaram",
      "lat": 14.6333333,
      "lng": 6.2833333
    },
    {
      "cityName": "I-n-Karkada",
      "lat": 14.8336111,
      "lng": 4.9766667
    },
    {
      "cityName": "I-n-Kokane",
      "lat": 15.15,
      "lng": 6.3333333
    },
    {
      "cityName": "I-n-Najine",
      "lat": 15.0333333,
      "lng": 6.2
    },
    {
      "cityName": "I-n-Safari",
      "lat": 14.945,
      "lng": 5.7522222
    },
    {
      "cityName": "I-n-Tazak",
      "lat": 15.0166667,
      "lng": 6.15
    },
    {
      "cityName": "Isarnaoua",
      "lat": 13.8886111,
      "lng": 5.3466667
    },
    {
      "cityName": "Itesan",
      "lat": 13.8833333,
      "lng": 5.2166667
    },
    {
      "cityName": "Jaja Koumé",
      "lat": 14.7333333,
      "lng": 6.1
    },
    {
      "cityName": "Jirket",
      "lat": 15.4394444,
      "lng": 5.255
    },
    {
      "cityName": "Kaba",
      "lat": 14.0666667,
      "lng": 6.0333333
    },
    {
      "cityName": "Kabawa",
      "lat": 13.85,
      "lng": 5.9166667
    },
    {
      "cityName": "Kabobi",
      "lat": 13.785,
      "lng": 5.8902778
    },
    {
      "cityName": "Kafate",
      "lat": 15.1166667,
      "lng": 5.7333333
    },
    {
      "cityName": "Kagarki",
      "lat": 14.2333333,
      "lng": 6.35
    },
    {
      "cityName": "Kaïouatane",
      "lat": 14.1666667,
      "lng": 6.2166667
    },
    {
      "cityName": "Kalfou",
      "lat": 14.8577778,
      "lng": 5.5252778
    },
    {
      "cityName": "Kalgou",
      "lat": 14.6833333,
      "lng": 4.9833333
    },
    {
      "cityName": "Kaloma",
      "lat": 14.8844444,
      "lng": 5.3313889
    },
    {
      "cityName": "Kamado",
      "lat": 14.4,
      "lng": 5.1666667
    },
    {
      "cityName": "Kankara",
      "lat": 14.3833333,
      "lng": 5.65
    },
    {
      "cityName": "Kantiérawa",
      "lat": 13.6833333,
      "lng": 6.1
    },
    {
      "cityName": "Kaora Abdou",
      "lat": 14.4502778,
      "lng": 5.6616667
    },
    {
      "cityName": "Kaouana",
      "lat": 14.0597222,
      "lng": 5.6458333
    },
    {
      "cityName": "Kaoura Dan Kadou",
      "lat": 14.0166667,
      "lng": 6.05
    },
    {
      "cityName": "Kaoura",
      "lat": 14.12,
      "lng": 5.0297222
    },
    {
      "cityName": "Karaé",
      "lat": 14.15,
      "lng": 5.25
    },
    {
      "cityName": "Karaméni",
      "lat": 14.0333333,
      "lng": 6.35
    },
    {
      "cityName": "Karaorayé",
      "lat": 13.85,
      "lng": 6.0666667
    },
    {
      "cityName": "Karhamat",
      "lat": 14.9333333,
      "lng": 6.0833333
    },
    {
      "cityName": "Karkou",
      "lat": 13.9333333,
      "lng": 5.3333333
    },
    {
      "cityName": "Karni",
      "lat": 13.95,
      "lng": 5.5166667
    },
    {
      "cityName": "Karofane",
      "lat": 14.3130556,
      "lng": 6.1552778
    },
    {
      "cityName": "Karo",
      "lat": 13.7833333,
      "lng": 6.2833333
    },
    {
      "cityName": "Kéda",
      "lat": 14.75,
      "lng": 5.9166667
    },
    {
      "cityName": "Keïta",
      "lat": 14.7572222,
      "lng": 5.7805556
    },
    {
      "cityName": "Kiabi",
      "lat": 14.0833333,
      "lng": 4.9333333
    },
    {
      "cityName": "Kiguiré",
      "lat": 14.4666667,
      "lng": 6.1666667
    },
    {
      "cityName": "Kodaga",
      "lat": 13.8833333,
      "lng": 6.2666667
    },
    {
      "cityName": "Kogadama",
      "lat": 13.9166667,
      "lng": 6.2166667
    },
    {
      "cityName": "Kollé",
      "lat": 14.0833333,
      "lng": 6.0333333
    },
    {
      "cityName": "Kominia",
      "lat": 13.85,
      "lng": 6.0833333
    },
    {
      "cityName": "Kondo",
      "lat": 14.1613889,
      "lng": 6.5416667
    },
    {
      "cityName": "Konkomawa",
      "lat": 13.7833333,
      "lng": 6.0666667
    },
    {
      "cityName": "Kora",
      "lat": 14.6166667,
      "lng": 6.1
    },
    {
      "cityName": "Korama",
      "lat": 13.7333333,
      "lng": 6.05
    },
    {
      "cityName": "Korbéyawa",
      "lat": 13.8833333,
      "lng": 4.85
    },
    {
      "cityName": "Koré",
      "lat": 14.6,
      "lng": 6.3166667
    },
    {
      "cityName": "Korodji",
      "lat": 14.6833333,
      "lng": 6.1666667
    },
    {
      "cityName": "Kossa",
      "lat": 14.2833333,
      "lng": 5.5333333
    },
    {
      "cityName": "Kouardanna",
      "lat": 13.7833333,
      "lng": 4.9166667
    },
    {
      "cityName": "Kouinakou",
      "lat": 14.35,
      "lng": 6.1666667
    },
    {
      "cityName": "Kouka",
      "lat": 14.35,
      "lng": 6.3833333
    },
    {
      "cityName": "Kouliki",
      "lat": 13.8666667,
      "lng": 5.1
    },
    {
      "cityName": "Koumasa",
      "lat": 13.8666667,
      "lng": 5.8833333
    },
    {
      "cityName": "Kounkouzout",
      "lat": 14.8666667,
      "lng": 5.5833333
    },
    {
      "cityName": "Kouréga",
      "lat": 13.8666667,
      "lng": 5.65
    },
    {
      "cityName": "Koureïa",
      "lat": 14.9166667,
      "lng": 5.45
    },
    {
      "cityName": "Kouroufa",
      "lat": 13.9,
      "lng": 5.95
    },
    {
      "cityName": "Kouroun Kousi",
      "lat": 13.9833333,
      "lng": 4.6
    },
    {
      "cityName": "Koyem",
      "lat": 13.8,
      "lng": 5.05
    },
    {
      "cityName": "Kozoro",
      "lat": 13.8,
      "lng": 5.9833333
    },
    {
      "cityName": "Kwaryawa",
      "lat": 13.7666667,
      "lng": 4.9833333
    },
    {
      "cityName": "Laba",
      "lat": 14.6247222,
      "lng": 5.9419444
    },
    {
      "cityName": "Labanda",
      "lat": 14.9391667,
      "lng": 6.0272222
    },
    {
      "cityName": "Labbezanga",
      "lat": 15,
      "lng": 1
    },
    {
      "cityName": "Labié",
      "lat": 14.4166667,
      "lng": 5.8666667
    },
    {
      "cityName": "Laboda",
      "lat": 13.7666667,
      "lng": 5.0166667
    },
    {
      "cityName": "Ladama",
      "lat": 14.2166667,
      "lng": 5.7333333
    },
    {
      "cityName": "Laouei",
      "lat": 14.0230556,
      "lng": 5.4322222
    },
    {
      "cityName": "Leïga",
      "lat": 14,
      "lng": 6.2
    },
    {
      "cityName": "Leima",
      "lat": 14.2313889,
      "lng": 6.0922222
    },
    {
      "cityName": "Libatam",
      "lat": 14.3666667,
      "lng": 5.0333333
    },
    {
      "cityName": "Lilingo",
      "lat": 14.7,
      "lng": 5.3833333
    },
    {
      "cityName": "Linkei",
      "lat": 14.3,
      "lng": 5.9666667
    },
    {
      "cityName": "Loubé",
      "lat": 14.6166667,
      "lng": 6.0333333
    },
    {
      "cityName": "Loudou i-n-Bagatène",
      "lat": 14.9386111,
      "lng": 5.9088889
    },
    {
      "cityName": "Loudou Sabon Guida",
      "lat": 14.95,
      "lng": 5.9
    },
    {
      "cityName": "Loufoudou",
      "lat": 14.1,
      "lng": 5.6333333
    },
    {
      "cityName": "Madao",
      "lat": 14.1,
      "lng": 6.4333333
    },
    {
      "cityName": "Madaoua",
      "lat": 14.0758333,
      "lng": 5.9586111
    },
    {
      "cityName": "Madatta",
      "lat": 14.2666667,
      "lng": 6.0166667
    },
    {
      "cityName": "Magaria",
      "lat": 14.0333333,
      "lng": 5.7833333
    },
    {
      "cityName": "Mahaleïki",
      "lat": 14.5333333,
      "lng": 6.3666667
    },
    {
      "cityName": "Mahawa",
      "lat": 13.7833333,
      "lng": 6.2
    },
    {
      "cityName": "Maï Magaria",
      "lat": 14.4666667,
      "lng": 6.4666667
    },
    {
      "cityName": "Maiouata",
      "lat": 14.0833333,
      "lng": 5.8
    },
    {
      "cityName": "Maïseka",
      "lat": 13.8,
      "lng": 4.65
    },
    {
      "cityName": "Makal",
      "lat": 13.9333333,
      "lng": 4.9666667
    },
    {
      "cityName": "Malbaxa",
      "lat": 13.945,
      "lng": 5.5222222
    },
    {
      "cityName": "Malélébi",
      "lat": 13.8166667,
      "lng": 6.05
    },
    {
      "cityName": "Maley",
      "lat": 13.9,
      "lng": 6.15
    },
    {
      "cityName": "Mandaba",
      "lat": 14.0166667,
      "lng": 5.2333333
    },
    {
      "cityName": "Mansala",
      "lat": 14.6,
      "lng": 5.8333333
    },
    {
      "cityName": "Mantao",
      "lat": 14.1333333,
      "lng": 6.5
    },
    {
      "cityName": "Manzou",
      "lat": 14.0416667,
      "lng": 6.3172222
    },
    {
      "cityName": "Maraké",
      "lat": 13.7166667,
      "lng": 6.1
    },
    {
      "cityName": "Marmaro",
      "lat": 14.1833333,
      "lng": 6.2666667
    },
    {
      "cityName": "Masalata",
      "lat": 13.7833333,
      "lng": 5.2
    },
    {
      "cityName": "Matiéra",
      "lat": 13.8,
      "lng": 6.2
    },
    {
      "cityName": "May Foula",
      "lat": 13.9333333,
      "lng": 5.2833333
    },
    {
      "cityName": "May Gozo",
      "lat": 13.85,
      "lng": 5.2666667
    },
    {
      "cityName": "May Sabi",
      "lat": 13.8,
      "lng": 6.2833333
    },
    {
      "cityName": "Mazaraoua",
      "lat": 14.0833333,
      "lng": 5.8166667
    },
    {
      "cityName": "Mazzia",
      "lat": 14.3,
      "lng": 4.9333333
    },
    {
      "cityName": "Meydoubou",
      "lat": 15.1166667,
      "lng": 6.3166667
    },
    {
      "cityName": "Mitissaha",
      "lat": 14.75,
      "lng": 6.3333333
    },
    {
      "cityName": "Mogeur",
      "lat": 14.65,
      "lng": 5.2833333
    },
    {
      "cityName": "Mougou",
      "lat": 13.9833333,
      "lng": 5.05
    },
    {
      "cityName": "Moujia",
      "lat": 14.3683333,
      "lng": 5.3761111
    },
    {
      "cityName": "Mouléla",
      "lat": 13.9,
      "lng": 5.45
    },
    {
      "cityName": "Moulléla",
      "lat": 14.1666667,
      "lng": 6.1
    },
    {
      "cityName": "Mountogui",
      "lat": 14.3,
      "lng": 6.4833333
    },
    {
      "cityName": "Nadara",
      "lat": 14.4833333,
      "lng": 5.3166667
    },
    {
      "cityName": "Nakonawa",
      "lat": 13.7666667,
      "lng": 6.1166667
    },
    {
      "cityName": "Nakonawa Sami",
      "lat": 16.8,
      "lng": 6.0666667
    },
    {
      "cityName": "Nakoni",
      "lat": 14.1166667,
      "lng": 5.9166667
    },
    {
      "cityName": "Ouakazoua",
      "lat": 13.7666667,
      "lng": 4.7666667
    },
    {
      "cityName": "Ouakou",
      "lat": 15.1183333,
      "lng": 5.2475
    },
    {
      "cityName": "Ouassoro Mambé",
      "lat": 14.4,
      "lng": 6.1
    },
    {
      "cityName": "Oubandawaki",
      "lat": 13.8,
      "lng": 6.1666667
    },
    {
      "cityName": "Ouorzou",
      "lat": 14.4833333,
      "lng": 6.4
    },
    {
      "cityName": "Ourno",
      "lat": 14.3,
      "lng": 6.45
    },
    {
      "cityName": "Outchia",
      "lat": 13.8,
      "lng": 5.75
    },
    {
      "cityName": "Rabami",
      "lat": 13.95,
      "lng": 6
    },
    {
      "cityName": "Rafawa",
      "lat": 13.7,
      "lng": 6.25
    },
    {
      "cityName": "Raha",
      "lat": 14.4666667,
      "lng": 5.5833333
    },
    {
      "cityName": "Rego",
      "lat": 14.3666667,
      "lng": 6.2833333
    },
    {
      "cityName": "Rinaé",
      "lat": 13.8,
      "lng": 6.0166667
    },
    {
      "cityName": "Rouan Zafi",
      "lat": 14,
      "lng": 6.1
    },
    {
      "cityName": "Roubouki",
      "lat": 13.95,
      "lng": 5.7666667
    },
    {
      "cityName": "Rouga",
      "lat": 13.8833333,
      "lng": 5.4666667
    },
    {
      "cityName": "Roukouzoum",
      "lat": 14.4333333,
      "lng": 5.5166667
    },
    {
      "cityName": "Roumboukawa",
      "lat": 13.75,
      "lng": 6.0333333
    },
    {
      "cityName": "Rwafi",
      "lat": 13.8333333,
      "lng": 5.1166667
    },
    {
      "cityName": "Saban Sara",
      "lat": 14.3833333,
      "lng": 6.2
    },
    {
      "cityName": "Sabon Gari",
      "lat": 14.7933333,
      "lng": 5.4177778
    },
    {
      "cityName": "Sabonga",
      "lat": 14.1816667,
      "lng": 5.6508333
    },
    {
      "cityName": "Sabon Gidan",
      "lat": 13.9166667,
      "lng": 5.5333333
    },
    {
      "cityName": "Sabori-Guida",
      "lat": 13.9333333,
      "lng": 5.9
    },
    {
      "cityName": "Sabré",
      "lat": 13.8333333,
      "lng": 6.2166667
    },
    {
      "cityName": "Safia",
      "lat": 14.2527778,
      "lng": 4.7316667
    },
    {
      "cityName": "Sagoumou",
      "lat": 14.5,
      "lng": 5.3666667
    },
    {
      "cityName": "Sahabi",
      "lat": 13.8166667,
      "lng": 6.3166667
    },
    {
      "cityName": "Sahalla",
      "lat": 14.65,
      "lng": 6.2
    },
    {
      "cityName": "Saïdaoua",
      "lat": 14.0833333,
      "lng": 6.0166667
    },
    {
      "cityName": "Sakitaoua",
      "lat": 14.05,
      "lng": 5.8833333
    },
    {
      "cityName": "Sakouda",
      "lat": 13.8666667,
      "lng": 5.0333333
    },
    {
      "cityName": "Saléoua",
      "lat": 14.1166667,
      "lng": 5.3333333
    },
    {
      "cityName": "Samaé",
      "lat": 14.1333333,
      "lng": 6.2833333
    },
    {
      "cityName": "Sama",
      "lat": 13.85,
      "lng": 5.9666667
    },
    {
      "cityName": "Samia",
      "lat": 14.0166667,
      "lng": 6.4666667
    },
    {
      "cityName": "Saouna Goma",
      "lat": 13.9833333,
      "lng": 5.3333333
    },
    {
      "cityName": "Saourara",
      "lat": 13.9333333,
      "lng": 4.7333333
    },
    {
      "cityName": "Sara Kotey",
      "lat": 13.7833333,
      "lng": 6.0333333
    },
    {
      "cityName": "Sarkafa",
      "lat": 13.8333333,
      "lng": 6.1666667
    },
    {
      "cityName": "Sataro",
      "lat": 13.8666667,
      "lng": 6.2666667
    },
    {
      "cityName": "Satourou",
      "lat": 13.9833333,
      "lng": 5.25
    },
    {
      "cityName": "Saydawa",
      "lat": 13.9166667,
      "lng": 5.65
    },
    {
      "cityName": "Sayna",
      "lat": 13.9833333,
      "lng": 5.0333333
    },
    {
      "cityName": "Siria",
      "lat": 14.3391667,
      "lng": 5.4252778
    },
    {
      "cityName": "Sokolé",
      "lat": 14.8333333,
      "lng": 5.7
    },
    {
      "cityName": "Sougougi",
      "lat": 13.9666667,
      "lng": 4.9833333
    },
    {
      "cityName": "Soungali",
      "lat": 13.9166667,
      "lng": 6.3166667
    },
    {
      "cityName": "Sourout",
      "lat": 14.55,
      "lng": 6.15
    },
    {
      "cityName": "Tabalakh",
      "lat": 15.1,
      "lng": 5.6666667
    },
    {
      "cityName": "Tabani",
      "lat": 13.7666667,
      "lng": 6.0666667
    },
    {
      "cityName": "Tabaranga",
      "lat": 14.2833333,
      "lng": 5.7833333
    },
    {
      "cityName": "Tabkin Matchiji",
      "lat": 13.9166667,
      "lng": 6.1166667
    },
    {
      "cityName": "Tabkin Seybou",
      "lat": 13.8666667,
      "lng": 5.9
    },
    {
      "cityName": "Tabotaki Bayan Doutchi",
      "lat": 14.6166667,
      "lng": 6.15
    },
    {
      "cityName": "Tabotaki",
      "lat": 14.6213889,
      "lng": 6.1572222
    },
    {
      "cityName": "Taboué",
      "lat": 14.2166667,
      "lng": 5.75
    },
    {
      "cityName": "Tachalawa Leymi",
      "lat": 13.9166667,
      "lng": 6.2833333
    },
    {
      "cityName": "Tache",
      "lat": 15.0602778,
      "lng": 5.6683333
    },
    {
      "cityName": "Tadetta",
      "lat": 14.3333333,
      "lng": 6.5
    },
    {
      "cityName": "Tadjaé",
      "lat": 14.2094444,
      "lng": 5.2711111
    },
    {
      "cityName": "Tadoubta",
      "lat": 14.6191667,
      "lng": 5.7547222
    },
    {
      "cityName": "Tadoupta",
      "lat": 14.5333333,
      "lng": 5.8
    },
    {
      "cityName": "Tafobayo",
      "lat": 15.0333333,
      "lng": 6.1833333
    },
    {
      "cityName": "Tagatil",
      "lat": 14.7833333,
      "lng": 6.3166667
    },
    {
      "cityName": "Tahoua",
      "lat": 14.8902778,
      "lng": 5.2677778
    },
    {
      "cityName": "Tajaé",
      "lat": 13.9833333,
      "lng": 5.3833333
    },
    {
      "cityName": "Takanamat",
      "lat": 15.135,
      "lng": 4.7813889
    },
    {
      "cityName": "Takaraoua",
      "lat": 14.3,
      "lng": 6.1666667
    },
    {
      "cityName": "Takar",
      "lat": 13.8666667,
      "lng": 5.2666667
    },
    {
      "cityName": "Takochi",
      "lat": 14.6208333,
      "lng": 5.8016667
    },
    {
      "cityName": "Takorka",
      "lat": 13.9255556,
      "lng": 6.1794444
    },
    {
      "cityName": "Takoro",
      "lat": 13.9833333,
      "lng": 5.2833333
    },
    {
      "cityName": "Takoussa",
      "lat": 14.5833333,
      "lng": 5.3166667
    },
    {
      "cityName": "Talé Alforma",
      "lat": 13.9666667,
      "lng": 5.25
    },
    {
      "cityName": "Talémout",
      "lat": 13.8333333,
      "lng": 5.85
    },
    {
      "cityName": "Talé-Zengina",
      "lat": 13.95,
      "lng": 5.2333333
    },
    {
      "cityName": "Tamaka",
      "lat": 13.8833333,
      "lng": 5.35
    },
    {
      "cityName": "Tamaské",
      "lat": 14.8322222,
      "lng": 5.6625
    },
    {
      "cityName": "Tama",
      "lat": 14.2833333,
      "lng": 5.7666667
    },
    {
      "cityName": "Tambas",
      "lat": 14.5166667,
      "lng": 5.4166667
    },
    {
      "cityName": "Tambey",
      "lat": 13.9166667,
      "lng": 5.8
    },
    {
      "cityName": "Tambey Touareg",
      "lat": 13.9333333,
      "lng": 5.7833333
    },
    {
      "cityName": "Tambzitas",
      "lat": 14.7833333,
      "lng": 6.3333333
    },
    {
      "cityName": "Tamzak",
      "lat": 14.4166667,
      "lng": 6.3833333
    },
    {
      "cityName": "Tangon",
      "lat": 15.0166667,
      "lng": 6.2
    },
    {
      "cityName": "Tankadémi",
      "lat": 15.75,
      "lng": 3.9
    },
    {
      "cityName": "Tasara",
      "lat": 16.8047222,
      "lng": 5.6441667
    },
    {
      "cityName": "Tatourou",
      "lat": 13.9666667,
      "lng": 5.4666667
    },
    {
      "cityName": "Taza",
      "lat": 15.3544444,
      "lng": 5.2086111
    },
    {
      "cityName": "Tchégoum",
      "lat": 13.95,
      "lng": 5.95
    },
    {
      "cityName": "Tchingaran",
      "lat": 14.8166667,
      "lng": 6.4166667
    },
    {
      "cityName": "Tchinkaki",
      "lat": 14.8,
      "lng": 5.45
    },
    {
      "cityName": "Tchin-Tabaradene",
      "lat": 15.8869444,
      "lng": 5.7766667
    },
    {
      "cityName": "Tchourout",
      "lat": 14.15,
      "lng": 5.4333333
    },
    {
      "cityName": "Tébaram",
      "lat": 14.8325,
      "lng": 4.4622222
    },
    {
      "cityName": "Téguéféguel",
      "lat": 14.7833333,
      "lng": 5.95
    },
    {
      "cityName": "Télemsès",
      "lat": 15.6225,
      "lng": 4.7841667
    },
    {
      "cityName": "Tessak",
      "lat": 14.75,
      "lng": 6.1333333
    },
    {
      "cityName": "Tilgo",
      "lat": 13.9333333,
      "lng": 5.2166667
    },
    {
      "cityName": "Tilia",
      "lat": 16.1261111,
      "lng": 4.7869444
    },
    {
      "cityName": "Tosa",
      "lat": 13.7666667,
      "lng": 6.15
    },
    {
      "cityName": "Toudou Adaraba",
      "lat": 13.95,
      "lng": 5.6
    },
    {
      "cityName": "Toudouni",
      "lat": 14.7333333,
      "lng": 5.45
    },
    {
      "cityName": "Toudoun Sako",
      "lat": 14.4,
      "lng": 6.3666667
    },
    {
      "cityName": "Toukoulou",
      "lat": 13.9,
      "lng": 6.2333333
    },
    {
      "cityName": "Toullou",
      "lat": 14.1666667,
      "lng": 5.2
    },
    {
      "cityName": "Touloumagé",
      "lat": 13.9333333,
      "lng": 6.3166667
    },
    {
      "cityName": "Toumboula",
      "lat": 13.8,
      "lng": 5.0333333
    },
    {
      "cityName": "Toumfafi",
      "lat": 14.0333333,
      "lng": 5.9833333
    },
    {
      "cityName": "Tounga Makoki",
      "lat": 13.8833333,
      "lng": 5.4166667
    },
    {
      "cityName": "Toungatji",
      "lat": 13.9833333,
      "lng": 6.3
    },
    {
      "cityName": "Tounga Yakouba",
      "lat": 13.9166667,
      "lng": 5.4333333
    },
    {
      "cityName": "Tounkouré",
      "lat": 14.1666667,
      "lng": 6.0666667
    },
    {
      "cityName": "Tountoubé",
      "lat": 14.25,
      "lng": 5.9833333
    },
    {
      "cityName": "Tourouf",
      "lat": 15.0666667,
      "lng": 6.1
    },
    {
      "cityName": "Tousout",
      "lat": 13.8333333,
      "lng": 6.2833333
    },
    {
      "cityName": "Tyerasa-Goune",
      "lat": 13.8333333,
      "lng": 5.3
    },
    {
      "cityName": "Voyvoya",
      "lat": 13.7333333,
      "lng": 6.2666667
    },
    {
      "cityName": "Warga",
      "lat": 13.9666667,
      "lng": 5.5666667
    },
    {
      "cityName": "Warzaka",
      "lat": 13.7,
      "lng": 6.1833333
    },
    {
      "cityName": "Watchia",
      "lat": 13.95,
      "lng": 5.8666667
    },
    {
      "cityName": "Yaama",
      "lat": 14.3608333,
      "lng": 5.4936111
    },
    {
      "cityName": "Yaya",
      "lat": 13.8333333,
      "lng": 4.7666667
    },
    {
      "cityName": "Yégalalane",
      "lat": 14.5333333,
      "lng": 6.0833333
    },
    {
      "cityName": "Yeloua",
      "lat": 13.8333333,
      "lng": 5.0833333
    },
    {
      "cityName": "Zabouré",
      "lat": 13.7666667,
      "lng": 6.2666667
    },
    {
      "cityName": "Zamatawa",
      "lat": 13.7166667,
      "lng": 6.0666667
    },
    {
      "cityName": "Zango Amadou",
      "lat": 14.7333333,
      "lng": 6
    },
    {
      "cityName": "Zangouma",
      "lat": 14.2833333,
      "lng": 6.2833333
    },
    {
      "cityName": "Zango",
      "lat": 13.9,
      "lng": 5.4833333
    },
    {
      "cityName": "Zango Zodi",
      "lat": 13.8166667,
      "lng": 6.1
    },
    {
      "cityName": "Zano",
      "lat": 13.9833333,
      "lng": 5.8
    },
    {
      "cityName": "Zaouraré",
      "lat": 14.2333333,
      "lng": 5.4
    },
    {
      "cityName": "Zata",
      "lat": 13.95,
      "lng": 5.0833333
    },
    {
      "cityName": "Zirga",
      "lat": 14.1333333,
      "lng": 6.4166667
    },
    {
      "cityName": "Zongo Akanawa",
      "lat": 13.6833333,
      "lng": 6.1666667
    },
    {
      "cityName": "Zongo",
      "lat": 13.8166667,
      "lng": 5.8
    },
    {
      "cityName": "Zoukout",
      "lat": 13.8833333,
      "lng": 5.8166667
    },
    {
      "cityName": "Zourdi",
      "lat": 13.9333333,
      "lng": 6.2666667
    }
  ]
}