{
  "name": "Baranya",
  "cities": [
    {
      "cityName": "Abaliget",
      "lat": 46.15,
      "lng": 18.1166667
    },
    {
      "cityName": "Adorjánpuszta",
      "lat": 46.1,
      "lng": 17.7333333
    },
    {
      "cityName": "Adorjántanya",
      "lat": 45.7833333,
      "lng": 18.4333333
    },
    {
      "cityName": "Adorjás",
      "lat": 45.8505556,
      "lng": 18.0627778
    },
    {
      "cityName": "Ág",
      "lat": 46.2833333,
      "lng": 18.2
    },
    {
      "cityName": "Agaserdo",
      "lat": 46.0833333,
      "lng": 18.7833333
    },
    {
      "cityName": "Akasztofadulo",
      "lat": 45.85,
      "lng": 18.3
    },
    {
      "cityName": "Akol",
      "lat": 45.8166667,
      "lng": 18.3333333
    },
    {
      "cityName": "Aligváritanya",
      "lat": 45.95,
      "lng": 17.9
    },
    {
      "cityName": "Almamellék",
      "lat": 46.15,
      "lng": 17.8833333
    },
    {
      "cityName": "Almás",
      "lat": 45.8166667,
      "lng": 18.25
    },
    {
      "cityName": "Almásgödör",
      "lat": 46.1666667,
      "lng": 18.4166667
    },
    {
      "cityName": "Almáskeresztúr",
      "lat": 46.1166667,
      "lng": 17.9
    },
    {
      "cityName": "Almáspuszta",
      "lat": 45.8747222,
      "lng": 18.0527778
    },
    {
      "cityName": "Alsócún",
      "lat": 45.7833333,
      "lng": 18.0833333
    },
    {
      "cityName": "Alsóerzsébetpuszta",
      "lat": 45.8166667,
      "lng": 17.8666667
    },
    {
      "cityName": "Alsó Horváthmalom",
      "lat": 45.9833333,
      "lng": 18.35
    },
    {
      "cityName": "Alsókanda",
      "lat": 45.9833333,
      "lng": 18.6833333
    },
    {
      "cityName": "Alsókövesd",
      "lat": 46.2,
      "lng": 17.9666667
    },
    {
      "cityName": "Alsólegencse",
      "lat": 45.9166667,
      "lng": 17.8666667
    },
    {
      "cityName": "Alsomezo",
      "lat": 45.9666667,
      "lng": 18.6666667
    },
    {
      "cityName": "Alsómocsolád",
      "lat": 46.3166667,
      "lng": 18.25
    },
    {
      "cityName": "Alsópalajpuszta",
      "lat": 45.8833333,
      "lng": 18.0833333
    },
    {
      "cityName": "Alsószállás",
      "lat": 46.0666667,
      "lng": 18.7666667
    },
    {
      "cityName": "Alsószentmárton",
      "lat": 45.7891667,
      "lng": 18.3055556
    },
    {
      "cityName": "Alsóvásártér",
      "lat": 45.9666667,
      "lng": 18.5166667
    },
    {
      "cityName": "Altontanya",
      "lat": 45.8166667,
      "lng": 18.0333333
    },
    {
      "cityName": "Angyalóc",
      "lat": 45.8666667,
      "lng": 17.9833333
    },
    {
      "cityName": "Ános",
      "lat": 45.8,
      "lng": 18.2333333
    },
    {
      "cityName": "Antalfalutelep",
      "lat": 46.15,
      "lng": 17.7833333
    },
    {
      "cityName": "Antalmajor",
      "lat": 46.0666667,
      "lng": 17.75
    },
    {
      "cityName": "Antalpuszta",
      "lat": 46.15,
      "lng": 17.7666667
    },
    {
      "cityName": "Apátvarasd",
      "lat": 46.1833333,
      "lng": 18.4833333
    },
    {
      "cityName": "Apátvarasdtelep",
      "lat": 46.2,
      "lng": 18.4666667
    },
    {
      "cityName": "Aranyos",
      "lat": 45.8438889,
      "lng": 18.2733333
    },
    {
      "cityName": "Aranyosgadány",
      "lat": 46,
      "lng": 18.1166667
    },
    {
      "cityName": "Aranyos-puszta",
      "lat": 46.2333333,
      "lng": 18.1
    },
    {
      "cityName": "Arpadteto",
      "lat": 46.1666667,
      "lng": 18.25
    },
    {
      "cityName": "Áta",
      "lat": 45.9363889,
      "lng": 18.2947222
    },
    {
      "cityName": "Átakeleti Malom",
      "lat": 45.9833333,
      "lng": 18.3166667
    },
    {
      "cityName": "Avas",
      "lat": 45.8833333,
      "lng": 18.1666667
    },
    {
      "cityName": "Avaspuszta",
      "lat": 45.9302778,
      "lng": 18.2872222
    },
    {
      "cityName": "Babarc",
      "lat": 45.9980556,
      "lng": 18.5547222
    },
    {
      "cityName": "Babarci Puszta",
      "lat": 46.0333333,
      "lng": 18.5166667
    },
    {
      "cityName": "Babarcszollos",
      "lat": 45.9,
      "lng": 18.1363889
    },
    {
      "cityName": "Babosmalom",
      "lat": 46.0666667,
      "lng": 18.4333333
    },
    {
      "cityName": "Bácsfapuszta",
      "lat": 45.9916667,
      "lng": 18.5894444
    },
    {
      "cityName": "Bácska-puszta",
      "lat": 46.2166667,
      "lng": 18.1
    },
    {
      "cityName": "Bagópuszta",
      "lat": 45.95,
      "lng": 17.6666667
    },
    {
      "cityName": "Bagótanya",
      "lat": 45.7833333,
      "lng": 18.35
    },
    {
      "cityName": "Bakbuzpuszta",
      "lat": 46.2833333,
      "lng": 18.35
    },
    {
      "cityName": "Bakittyaszollo",
      "lat": 46.1333333,
      "lng": 17.8
    },
    {
      "cityName": "Bakóca",
      "lat": 46.2166667,
      "lng": 18
    },
    {
      "cityName": "Bakonya",
      "lat": 46.0833333,
      "lng": 18.0833333
    },
    {
      "cityName": "Baksa",
      "lat": 45.9536111,
      "lng": 18.0888889
    },
    {
      "cityName": "Balázsszállás",
      "lat": 45.9666667,
      "lng": 18.8
    },
    {
      "cityName": "Balázstelep",
      "lat": 45.8833333,
      "lng": 17.8
    },
    {
      "cityName": "Bánfa",
      "lat": 45.9833333,
      "lng": 17.8833333
    },
    {
      "cityName": "Bános",
      "lat": 46.1333333,
      "lng": 18.15
    },
    {
      "cityName": "Bányatelep",
      "lat": 46.25,
      "lng": 18.3666667
    },
    {
      "cityName": "Baranyahidvég",
      "lat": 45.8463889,
      "lng": 18.0233333
    },
    {
      "cityName": "Baranyajeno",
      "lat": 46.2666667,
      "lng": 18.05
    },
    {
      "cityName": "Baranyaszentgyörgy",
      "lat": 46.2333333,
      "lng": 18.0166667
    },
    {
      "cityName": "Barátokméhese",
      "lat": 45.9833333,
      "lng": 18.8
    },
    {
      "cityName": "Barátúr",
      "lat": 46.1833333,
      "lng": 18.1833333
    },
    {
      "cityName": "Bár",
      "lat": 46.05,
      "lng": 18.7166667
    },
    {
      "cityName": "Basal",
      "lat": 46.0666667,
      "lng": 17.7833333
    },
    {
      "cityName": "Bátortanya",
      "lat": 45.9333333,
      "lng": 18.0166667
    },
    {
      "cityName": "Becefa",
      "lat": 46.0666667,
      "lng": 17.85
    },
    {
      "cityName": "Béda",
      "lat": 45.9333333,
      "lng": 18.7666667
    },
    {
      "cityName": "Békáspuszta",
      "lat": 45.9658333,
      "lng": 18.4852778
    },
    {
      "cityName": "Békatópuszta",
      "lat": 46.3833333,
      "lng": 18.1833333
    },
    {
      "cityName": "Bekefa",
      "lat": 46.0833333,
      "lng": 18.35
    },
    {
      "cityName": "Beldvárdgyula",
      "lat": 45.9722222,
      "lng": 18.4338889
    },
    {
      "cityName": "Belenfuz",
      "lat": 46.0333333,
      "lng": 17.7833333
    },
    {
      "cityName": "Belsoriha",
      "lat": 46,
      "lng": 18.75
    },
    {
      "cityName": "Berekaljapuszta",
      "lat": 46.25,
      "lng": 18.55
    },
    {
      "cityName": "Beremend",
      "lat": 45.7852778,
      "lng": 18.4347222
    },
    {
      "cityName": "Beremeni Tanya",
      "lat": 45.85,
      "lng": 18.4
    },
    {
      "cityName": "Beretváspuszta",
      "lat": 46.0166667,
      "lng": 18.3833333
    },
    {
      "cityName": "Berkesd",
      "lat": 46.0666667,
      "lng": 18.4166667
    },
    {
      "cityName": "Berkesdpuszta",
      "lat": 46.05,
      "lng": 18.4333333
    },
    {
      "cityName": "Berkestanya",
      "lat": 46.2166667,
      "lng": 18.0666667
    },
    {
      "cityName": "Besence",
      "lat": 45.9,
      "lng": 17.9666667
    },
    {
      "cityName": "Besenczitanya",
      "lat": 46.2166667,
      "lng": 17.95
    },
    {
      "cityName": "Bezedek",
      "lat": 45.8647222,
      "lng": 18.5863889
    },
    {
      "cityName": "Bezedekpuszta",
      "lat": 45.8666667,
      "lng": 18.5833333
    },
    {
      "cityName": "Bicsérd",
      "lat": 46.0166667,
      "lng": 18.0833333
    },
    {
      "cityName": "Bikal",
      "lat": 46.3333333,
      "lng": 18.2833333
    },
    {
      "cityName": "Birján",
      "lat": 45.9977778,
      "lng": 18.3747222
    },
    {
      "cityName": "Bisse",
      "lat": 45.9077778,
      "lng": 18.2580556
    },
    {
      "cityName": "Boda",
      "lat": 46.0833333,
      "lng": 18.05
    },
    {
      "cityName": "Bóditanya",
      "lat": 45.9833333,
      "lng": 17.7
    },
    {
      "cityName": "Bodolyabér",
      "lat": 46.2,
      "lng": 18.1166667
    },
    {
      "cityName": "Bodorfa",
      "lat": 46.0166667,
      "lng": 17.8666667
    },
    {
      "cityName": "Bogád",
      "lat": 46.0833333,
      "lng": 18.3333333
    },
    {
      "cityName": "Bogádmindszent",
      "lat": 45.9069444,
      "lng": 18.0405556
    },
    {
      "cityName": "Böhmhízlalda",
      "lat": 45.8666667,
      "lng": 17.85
    },
    {
      "cityName": "Bokerdo",
      "lat": 45.9166667,
      "lng": 18.8
    },
    {
      "cityName": "Boldogasszonyfa",
      "lat": 46.1833333,
      "lng": 17.8333333
    },
    {
      "cityName": "Bóly",
      "lat": 45.9672222,
      "lng": 18.5183333
    },
    {
      "cityName": "Borjád",
      "lat": 45.9338889,
      "lng": 18.4672222
    },
    {
      "cityName": "Borosstanya",
      "lat": 45.7833333,
      "lng": 18.2
    },
    {
      "cityName": "Borostyán",
      "lat": 45.8833333,
      "lng": 18
    },
    {
      "cityName": "Borza",
      "lat": 45.9166667,
      "lng": 18.65
    },
    {
      "cityName": "Bosnyáktanya",
      "lat": 46.0166667,
      "lng": 18.3333333
    },
    {
      "cityName": "Bosta",
      "lat": 45.9483333,
      "lng": 18.2091667
    },
    {
      "cityName": "Botykapeterd",
      "lat": 46.05,
      "lng": 17.8666667
    },
    {
      "cityName": "Bükkösd",
      "lat": 46.1,
      "lng": 17.9833333
    },
    {
      "cityName": "Bürüs",
      "lat": 45.9666667,
      "lng": 17.7666667
    },
    {
      "cityName": "Ceglédpuszta",
      "lat": 46.1,
      "lng": 17.7
    },
    {
      "cityName": "Ciframalom",
      "lat": 46.0333333,
      "lng": 17.7333333
    },
    {
      "cityName": "Csanádikert",
      "lat": 46.05,
      "lng": 18.8333333
    },
    {
      "cityName": "Csányoszró",
      "lat": 45.8819444,
      "lng": 17.9019444
    },
    {
      "cityName": "Csarnóta",
      "lat": 45.8952778,
      "lng": 18.2147222
    },
    {
      "cityName": "Csata",
      "lat": 46.0166667,
      "lng": 18.7166667
    },
    {
      "cityName": "Csatahely",
      "lat": 46.0333333,
      "lng": 17.9166667
    },
    {
      "cityName": "Csebény",
      "lat": 46.1833333,
      "lng": 17.9333333
    },
    {
      "cityName": "Csécsi-tanya",
      "lat": 45.8666667,
      "lng": 18.0666667
    },
    {
      "cityName": "Csehipuszta",
      "lat": 45.8,
      "lng": 18.15
    },
    {
      "cityName": "Cseledoboka",
      "lat": 46.0666667,
      "lng": 18.6333333
    },
    {
      "cityName": "Cselehegy",
      "lat": 46.0833333,
      "lng": 18.6666667
    },
    {
      "cityName": "Cser",
      "lat": 45.9833333,
      "lng": 17.8333333
    },
    {
      "cityName": "Cserdi",
      "lat": 46.0666667,
      "lng": 18
    },
    {
      "cityName": "Cserhatdulo",
      "lat": 46.0666667,
      "lng": 18.75
    },
    {
      "cityName": "Cseripuszta",
      "lat": 45.8247222,
      "lng": 18.2797222
    },
    {
      "cityName": "Cserkút",
      "lat": 46.0666667,
      "lng": 18.1333333
    },
    {
      "cityName": "Cserömkata",
      "lat": 45.9,
      "lng": 18.0166667
    },
    {
      "cityName": "Cserto",
      "lat": 46.1,
      "lng": 17.8166667
    },
    {
      "cityName": "Csobokapuszta",
      "lat": 45.95,
      "lng": 17.9166667
    },
    {
      "cityName": "Csóka",
      "lat": 45.8666667,
      "lng": 17.95
    },
    {
      "cityName": "Csokoládé",
      "lat": 46.1333333,
      "lng": 18.3666667
    },
    {
      "cityName": "Csonkamindszent",
      "lat": 46.05,
      "lng": 17.9666667
    },
    {
      "cityName": "Csonkarét",
      "lat": 46.1833333,
      "lng": 18.2
    },
    {
      "cityName": "Csontoscsárda",
      "lat": 46,
      "lng": 18.2333333
    },
    {
      "cityName": "Csukma",
      "lat": 45.8561111,
      "lng": 18.2816667
    },
    {
      "cityName": "Csulakmalom",
      "lat": 46.0333333,
      "lng": 17.6666667
    },
    {
      "cityName": "Cún",
      "lat": 45.8125,
      "lng": 18.0669444
    },
    {
      "cityName": "Daróczihalma",
      "lat": 45.8,
      "lng": 17.9666667
    },
    {
      "cityName": "Daruvár",
      "lat": 46.3166667,
      "lng": 18.1
    },
    {
      "cityName": "Dencsháza",
      "lat": 46,
      "lng": 17.8333333
    },
    {
      "cityName": "Dinnyeberki",
      "lat": 46.0833333,
      "lng": 17.95
    },
    {
      "cityName": "Dinnyeföld",
      "lat": 45.9,
      "lng": 18.0333333
    },
    {
      "cityName": "Dióspuszta",
      "lat": 46.1333333,
      "lng": 17.7333333
    },
    {
      "cityName": "Diósviszló",
      "lat": 45.8772222,
      "lng": 18.1633333
    },
    {
      "cityName": "Dobina",
      "lat": 45.8666667,
      "lng": 17.8166667
    },
    {
      "cityName": "Dóczimajor",
      "lat": 45.95,
      "lng": 17.95
    },
    {
      "cityName": "Domolospuszta",
      "lat": 46.0666667,
      "lng": 17.8666667
    },
    {
      "cityName": "Drávacsehi",
      "lat": 45.8127778,
      "lng": 18.1672222
    },
    {
      "cityName": "Drávacsepely",
      "lat": 45.8291667,
      "lng": 18.1386111
    },
    {
      "cityName": "Drávafok",
      "lat": 45.8863889,
      "lng": 17.76
    },
    {
      "cityName": "Drávaiványi",
      "lat": 45.85,
      "lng": 17.8166667
    },
    {
      "cityName": "Drávakeresztúr",
      "lat": 45.8333333,
      "lng": 17.7666667
    },
    {
      "cityName": "Drávapalkonya",
      "lat": 45.8030556,
      "lng": 18.1788889
    },
    {
      "cityName": "Drávapiski",
      "lat": 45.84,
      "lng": 18.1011111
    },
    {
      "cityName": "Drávaszabolcs",
      "lat": 45.8058333,
      "lng": 18.2113889
    },
    {
      "cityName": "Drávaszerdahely",
      "lat": 45.8358333,
      "lng": 18.1633333
    },
    {
      "cityName": "Drávasztára",
      "lat": 45.8166667,
      "lng": 17.8166667
    },
    {
      "cityName": "Dunaszekcso",
      "lat": 46.0833333,
      "lng": 18.7666667
    },
    {
      "cityName": "Egerág",
      "lat": 45.9838889,
      "lng": 18.3047222
    },
    {
      "cityName": "Egermalom",
      "lat": 46.1666667,
      "lng": 18.5666667
    },
    {
      "cityName": "Egerszegimalom",
      "lat": 45.9,
      "lng": 18.0833333
    },
    {
      "cityName": "Egerszegitanya",
      "lat": 45.9,
      "lng": 18.0666667
    },
    {
      "cityName": "Egerszegpuszta",
      "lat": 46.2333333,
      "lng": 18.1333333
    },
    {
      "cityName": "Egyházasharaszti",
      "lat": 45.8094444,
      "lng": 18.3336111
    },
    {
      "cityName": "Egyházaskozár",
      "lat": 46.3333333,
      "lng": 18.3166667
    },
    {
      "cityName": "Elekpuszta",
      "lat": 45.9666667,
      "lng": 17.85
    },
    {
      "cityName": "Elemérpuszta",
      "lat": 46.2,
      "lng": 17.8166667
    },
    {
      "cityName": "Élesd Csárda",
      "lat": 46.0166667,
      "lng": 18.7666667
    },
    {
      "cityName": "Ellend",
      "lat": 46.05,
      "lng": 18.3833333
    },
    {
      "cityName": "Ellendpuszta",
      "lat": 46.0666667,
      "lng": 18.3833333
    },
    {
      "cityName": "Endroc",
      "lat": 45.9294444,
      "lng": 17.7586111
    },
    {
      "cityName": "Endrocpuszta",
      "lat": 45.9333333,
      "lng": 17.7833333
    },
    {
      "cityName": "Eperjes",
      "lat": 45.7602778,
      "lng": 18.3375
    },
    {
      "cityName": "Erdoalja",
      "lat": 46.2833333,
      "lng": 18.1833333
    },
    {
      "cityName": "Erdo",
      "lat": 46.1,
      "lng": 17.9666667
    },
    {
      "cityName": "Erdofu",
      "lat": 45.9077778,
      "lng": 18.7619444
    },
    {
      "cityName": "Erdofupusztai Szivattyutelep",
      "lat": 45.95,
      "lng": 18.7166667
    },
    {
      "cityName": "Erdosmarok",
      "lat": 46.05,
      "lng": 18.55
    },
    {
      "cityName": "Erdosmecske",
      "lat": 46.1833333,
      "lng": 18.5166667
    },
    {
      "cityName": "Ereszvény",
      "lat": 45.8344444,
      "lng": 18.1069444
    },
    {
      "cityName": "Erzsébet",
      "lat": 46.1,
      "lng": 18.4666667
    },
    {
      "cityName": "Eszterág",
      "lat": 45.9363889,
      "lng": 18.2469444
    },
    {
      "cityName": "Etelmajor",
      "lat": 46,
      "lng": 18.5666667
    },
    {
      "cityName": "Euchtanya",
      "lat": 45.9333333,
      "lng": 18.4666667
    },
    {
      "cityName": "Faluvég",
      "lat": 45.9666667,
      "lng": 17.6666667
    },
    {
      "cityName": "Fánipuszta",
      "lat": 45.8991667,
      "lng": 18.4083333
    },
    {
      "cityName": "Fazekasboda",
      "lat": 46.1166667,
      "lng": 18.4833333
    },
    {
      "cityName": "Feketekapu",
      "lat": 45.95,
      "lng": 18.6666667
    },
    {
      "cityName": "Felsocun",
      "lat": 45.8,
      "lng": 18.0716667
    },
    {
      "cityName": "Felsoegerszeg",
      "lat": 46.25,
      "lng": 18.1333333
    },
    {
      "cityName": "Felsolegencse",
      "lat": 45.9166667,
      "lng": 17.8166667
    },
    {
      "cityName": "Felsomalom",
      "lat": 45.9333333,
      "lng": 18.2666667
    },
    {
      "cityName": "Felsoszentmarton",
      "lat": 45.8522222,
      "lng": 17.7
    },
    {
      "cityName": "Fenyos",
      "lat": 46.05,
      "lng": 18.05
    },
    {
      "cityName": "Fernapuszta",
      "lat": 46.05,
      "lng": 17.75
    },
    {
      "cityName": "Flasitsszollo",
      "lat": 46.35,
      "lng": 18.2333333
    },
    {
      "cityName": "Fodortanya",
      "lat": 46.2,
      "lng": 18.0833333
    },
    {
      "cityName": "Földi-tanya",
      "lat": 45.8,
      "lng": 18.3
    },
    {
      "cityName": "Fontányipuszta",
      "lat": 45.7666667,
      "lng": 18.3
    },
    {
      "cityName": "Fortyogo Vizmu",
      "lat": 46.05,
      "lng": 18.1
    },
    {
      "cityName": "Fuzfakutidulo",
      "lat": 46.2666667,
      "lng": 18.1333333
    },
    {
      "cityName": "Gáborpuszta",
      "lat": 45.9166667,
      "lng": 18
    },
    {
      "cityName": "Gáfimalom",
      "lat": 46.0666667,
      "lng": 18.1166667
    },
    {
      "cityName": "Galambos",
      "lat": 45.95,
      "lng": 17.8166667
    },
    {
      "cityName": "Gálvölgytanya",
      "lat": 46.1833333,
      "lng": 17.85
    },
    {
      "cityName": "Garé",
      "lat": 45.9188889,
      "lng": 18.1933333
    },
    {
      "cityName": "Gerde",
      "lat": 45.9897222,
      "lng": 18.0241667
    },
    {
      "cityName": "Gerechát",
      "lat": 45.9,
      "lng": 18.8
    },
    {
      "cityName": "Gerényes",
      "lat": 46.3,
      "lng": 18.1833333
    },
    {
      "cityName": "Geresd",
      "lat": 46.1,
      "lng": 18.5333333
    },
    {
      "cityName": "Gesnyeerdo",
      "lat": 45.9,
      "lng": 17.85
    },
    {
      "cityName": "Gilvánfa",
      "lat": 45.9166667,
      "lng": 17.9666667
    },
    {
      "cityName": "Gödre",
      "lat": 46.2833333,
      "lng": 17.9833333
    },
    {
      "cityName": "Gödrekeresztúr",
      "lat": 46.3,
      "lng": 17.9833333
    },
    {
      "cityName": "Gödreszentmárton",
      "lat": 46.2666667,
      "lng": 18.0166667
    },
    {
      "cityName": "Gödreszentmártonpuszta",
      "lat": 46.2666667,
      "lng": 18
    },
    {
      "cityName": "Gólyavár",
      "lat": 46.3333333,
      "lng": 18.1333333
    },
    {
      "cityName": "Gombkotoi Malom",
      "lat": 46.0666667,
      "lng": 17.7166667
    },
    {
      "cityName": "Göntér",
      "lat": 45.8580556,
      "lng": 18.325
    },
    {
      "cityName": "Görcsönydobokai Tanya",
      "lat": 46.1,
      "lng": 18.6166667
    },
    {
      "cityName": "Görcsöny",
      "lat": 45.9694444,
      "lng": 18.1358333
    },
    {
      "cityName": "Gordisa",
      "lat": 45.7963889,
      "lng": 18.2333333
    },
    {
      "cityName": "Gordisai Puszta",
      "lat": 45.8,
      "lng": 18.25
    },
    {
      "cityName": "Görösgal",
      "lat": 46.0333333,
      "lng": 17.7166667
    },
    {
      "cityName": "Grécipuszta",
      "lat": 45.9166667,
      "lng": 18.3666667
    },
    {
      "cityName": "Gusztavmuve",
      "lat": 45.9833333,
      "lng": 17.9833333
    },
    {
      "cityName": "Gyepmestertelep",
      "lat": 46.05,
      "lng": 17.8
    },
    {
      "cityName": "Gyód",
      "lat": 45.9958333,
      "lng": 18.1786111
    },
    {
      "cityName": "Gyöngyfa",
      "lat": 45.9666667,
      "lng": 17.95
    },
    {
      "cityName": "Györgyimajor",
      "lat": 46.4,
      "lng": 18.2333333
    },
    {
      "cityName": "Gyulapuszta",
      "lat": 45.9902778,
      "lng": 18.41
    },
    {
      "cityName": "Gyümölcsényi Puszta",
      "lat": 46.25,
      "lng": 18.05
    },
    {
      "cityName": "Gyurufu",
      "lat": 46.15,
      "lng": 17.9166667
    },
    {
      "cityName": "Gyurus",
      "lat": 45.7680556,
      "lng": 18.2872222
    },
    {
      "cityName": "Gyuszipuszta",
      "lat": 46.1833333,
      "lng": 17.7333333
    },
    {
      "cityName": "Hábihegy",
      "lat": 46.3333333,
      "lng": 18.1833333
    },
    {
      "cityName": "Hábpuszta",
      "lat": 46.3333333,
      "lng": 18.2
    },
    {
      "cityName": "Hagyóitanya",
      "lat": 46,
      "lng": 17.7
    },
    {
      "cityName": "Halastó",
      "lat": 45.7833333,
      "lng": 18.3833333
    },
    {
      "cityName": "Harkány",
      "lat": 45.8477778,
      "lng": 18.2375
    },
    {
      "cityName": "Harkányi Tanyák",
      "lat": 45.85,
      "lng": 18.2333333
    },
    {
      "cityName": "Háromháza",
      "lat": 46.1833333,
      "lng": 18.0833333
    },
    {
      "cityName": "Háromhid",
      "lat": 46.2666667,
      "lng": 18.5
    },
    {
      "cityName": "Hársastelep",
      "lat": 46.15,
      "lng": 18.3333333
    },
    {
      "cityName": "Hársfapuszta",
      "lat": 46.0833333,
      "lng": 17.8333333
    },
    {
      "cityName": "Hásságy",
      "lat": 46.0333333,
      "lng": 18.3833333
    },
    {
      "cityName": "Hattelek",
      "lat": 45.9333333,
      "lng": 18.2833333
    },
    {
      "cityName": "Hegyhátmaróc",
      "lat": 46.3166667,
      "lng": 18.3333333
    },
    {
      "cityName": "Hegyszentmárton",
      "lat": 45.9038889,
      "lng": 18.09
    },
    {
      "cityName": "Helesfa",
      "lat": 46.0833333,
      "lng": 17.9833333
    },
    {
      "cityName": "Henger-malom",
      "lat": 45.9166667,
      "lng": 18.35
    },
    {
      "cityName": "Hercegszabar",
      "lat": 46.05,
      "lng": 18.6
    },
    {
      "cityName": "Hercegszentmárton",
      "lat": 45.8852778,
      "lng": 18.4955556
    },
    {
      "cityName": "Hercegtottos",
      "lat": 45.9155556,
      "lng": 18.5422222
    },
    {
      "cityName": "Hetvehely",
      "lat": 46.1333333,
      "lng": 18.05
    },
    {
      "cityName": "Hidor",
      "lat": 46.0166667,
      "lng": 18.4166667
    },
    {
      "cityName": "Himesháza",
      "lat": 46.0833333,
      "lng": 18.5666667
    },
    {
      "cityName": "Hirics",
      "lat": 45.8166667,
      "lng": 18
    },
    {
      "cityName": "Hobol",
      "lat": 46.0166667,
      "lng": 17.7666667
    },
    {
      "cityName": "Hoffmann Malom",
      "lat": 45.9666667,
      "lng": 18.2833333
    },
    {
      "cityName": "Homokbánya",
      "lat": 45.9833333,
      "lng": 17.6833333
    },
    {
      "cityName": "Homokmajor",
      "lat": 46.35,
      "lng": 18.1166667
    },
    {
      "cityName": "Homorúd",
      "lat": 45.9813889,
      "lng": 18.7922222
    },
    {
      "cityName": "Horváthertelend",
      "lat": 46.1666667,
      "lng": 17.9166667
    },
    {
      "cityName": "Hosszúhetény",
      "lat": 46.15,
      "lng": 18.35
    },
    {
      "cityName": "Husztót",
      "lat": 46.1666667,
      "lng": 18.0833333
    },
    {
      "cityName": "Idamajor",
      "lat": 45.8075,
      "lng": 18.4775
    },
    {
      "cityName": "Idapuszta",
      "lat": 46.15,
      "lng": 18.0333333
    },
    {
      "cityName": "Ilkamajor",
      "lat": 46,
      "lng": 17.65
    },
    {
      "cityName": "Illocska",
      "lat": 45.8002778,
      "lng": 18.5225
    },
    {
      "cityName": "Ilmapuszta",
      "lat": 45.7772222,
      "lng": 18.0858333
    },
    {
      "cityName": "Ilonamajor",
      "lat": 47.6166667,
      "lng": 16.7166667
    },
    {
      "cityName": "Ipacsfa",
      "lat": 45.8347222,
      "lng": 18.2033333
    },
    {
      "cityName": "Irmapuszta",
      "lat": 45.9166667,
      "lng": 17.75
    },
    {
      "cityName": "Istvándimajor",
      "lat": 46.2833333,
      "lng": 18.2666667
    },
    {
      "cityName": "Ivánbattyán",
      "lat": 45.9072222,
      "lng": 18.4180556
    },
    {
      "cityName": "Ivándárda",
      "lat": 45.8305556,
      "lng": 18.5902778
    },
    {
      "cityName": "Ivanszollos",
      "lat": 45.95,
      "lng": 18.4
    },
    {
      "cityName": "Jágercsárda",
      "lat": 46.2,
      "lng": 18.4833333
    },
    {
      "cityName": "Jánosipuszta",
      "lat": 46.2166667,
      "lng": 18.2833333
    },
    {
      "cityName": "Jedinkaihegy",
      "lat": 46.1333333,
      "lng": 17.8666667
    },
    {
      "cityName": "Jeneserdopuszta",
      "lat": 46.1333333,
      "lng": 18.65
    },
    {
      "cityName": "Jeszenik",
      "lat": 45.7833333,
      "lng": 18.4
    },
    {
      "cityName": "Józsefmajor",
      "lat": 46.0166667,
      "lng": 18.3666667
    },
    {
      "cityName": "Kacsóta",
      "lat": 46.0333333,
      "lng": 17.95
    },
    {
      "cityName": "Kákics",
      "lat": 45.9025,
      "lng": 17.8527778
    },
    {
      "cityName": "Kanda",
      "lat": 46.0333333,
      "lng": 18.7333333
    },
    {
      "cityName": "Kápolna",
      "lat": 45.85,
      "lng": 17.9166667
    },
    {
      "cityName": "Kaptalani Erdo",
      "lat": 45.9666667,
      "lng": 17.9166667
    },
    {
      "cityName": "Karácodfa",
      "lat": 46.1666667,
      "lng": 18.05
    },
    {
      "cityName": "Kárász",
      "lat": 46.2666667,
      "lng": 18.3166667
    },
    {
      "cityName": "Kárászpuszta",
      "lat": 45.95,
      "lng": 17.8666667
    },
    {
      "cityName": "Károlymajor",
      "lat": 45.8333333,
      "lng": 18.55
    },
    {
      "cityName": "Kásád",
      "lat": 45.7783333,
      "lng": 18.3988889
    },
    {
      "cityName": "Katádfa",
      "lat": 46,
      "lng": 17.8666667
    },
    {
      "cityName": "Katalinmajor",
      "lat": 45.9216667,
      "lng": 18.2352778
    },
    {
      "cityName": "Kátoly",
      "lat": 46.0666667,
      "lng": 18.45
    },
    {
      "cityName": "Kelemenliget",
      "lat": 45.8033333,
      "lng": 18.0008333
    },
    {
      "cityName": "Keménygadány",
      "lat": 45.9833333,
      "lng": 18.15
    },
    {
      "cityName": "Kémes",
      "lat": 45.8241667,
      "lng": 18.1011111
    },
    {
      "cityName": "Kemse",
      "lat": 45.8166667,
      "lng": 17.9166667
    },
    {
      "cityName": "Képespuszta",
      "lat": 46.1666667,
      "lng": 18.0333333
    },
    {
      "cityName": "Kerecsenyi Tanya",
      "lat": 46.1833333,
      "lng": 18.15
    },
    {
      "cityName": "Kereszt-dulo",
      "lat": 45.9833333,
      "lng": 18.1333333
    },
    {
      "cityName": "Keresztes",
      "lat": 45.9919444,
      "lng": 18.1538889
    },
    {
      "cityName": "Kernercsárda",
      "lat": 46.0333333,
      "lng": 18.4
    },
    {
      "cityName": "Keselosfa",
      "lat": 45.7688889,
      "lng": 18.28
    },
    {
      "cityName": "Keskenypuszta",
      "lat": 45.8247222,
      "lng": 18.4369444
    },
    {
      "cityName": "Kesnyekdulo",
      "lat": 46.25,
      "lng": 18.0166667
    },
    {
      "cityName": "Keszenvaridulo",
      "lat": 46.0833333,
      "lng": 17.7833333
    },
    {
      "cityName": "Keszü",
      "lat": 46.0166667,
      "lng": 18.1833333
    },
    {
      "cityName": "Kétújfalu",
      "lat": 45.9669444,
      "lng": 17.705
    },
    {
      "cityName": "Királyegyháza",
      "lat": 46,
      "lng": 17.9666667
    },
    {
      "cityName": "Kiság",
      "lat": 45.8619444,
      "lng": 18.0155556
    },
    {
      "cityName": "Kisasszonyfai Puszta",
      "lat": 45.95,
      "lng": 18
    },
    {
      "cityName": "Kisasszonyfa",
      "lat": 45.9466667,
      "lng": 18.0061111
    },
    {
      "cityName": "Kisbattyán",
      "lat": 46.2333333,
      "lng": 18.2666667
    },
    {
      "cityName": "Kisbesztercei Tanya",
      "lat": 46.2,
      "lng": 18.0333333
    },
    {
      "cityName": "Kisbodolya",
      "lat": 46.2,
      "lng": 18.1
    },
    {
      "cityName": "Kisbudmér",
      "lat": 45.9125,
      "lng": 18.4475
    },
    {
      "cityName": "Kisdér",
      "lat": 45.9405556,
      "lng": 18.1280556
    },
    {
      "cityName": "Kisgeresd",
      "lat": 46.1333333,
      "lng": 18.5333333
    },
    {
      "cityName": "Kisgórica",
      "lat": 46.1166667,
      "lng": 18.0333333
    },
    {
      "cityName": "Kisgyula",
      "lat": 45.995,
      "lng": 18.4166667
    },
    {
      "cityName": "Kisharány",
      "lat": 45.8586111,
      "lng": 18.3641667
    },
    {
      "cityName": "Kishárságy",
      "lat": 46.1833333,
      "lng": 17.7833333
    },
    {
      "cityName": "Kishegy",
      "lat": 46.1,
      "lng": 18
    },
    {
      "cityName": "Kisherend",
      "lat": 45.9661111,
      "lng": 18.3297222
    },
    {
      "cityName": "Kishertelend",
      "lat": 46.2,
      "lng": 18.2
    },
    {
      "cityName": "Kisibafa",
      "lat": 46.15,
      "lng": 17.95
    },
    {
      "cityName": "Kisjakabfalva",
      "lat": 45.8958333,
      "lng": 18.4347222
    },
    {
      "cityName": "Kiskassa",
      "lat": 45.9530556,
      "lng": 18.3977778
    },
    {
      "cityName": "Kislippó",
      "lat": 45.8272222,
      "lng": 18.5297222
    },
    {
      "cityName": "Kisnyárád",
      "lat": 46.0333333,
      "lng": 18.5666667
    },
    {
      "cityName": "Kispeterd",
      "lat": 46.0666667,
      "lng": 17.8833333
    },
    {
      "cityName": "Kisstanya",
      "lat": 45.75,
      "lng": 18.4333333
    },
    {
      "cityName": "Kisszentlászló",
      "lat": 46.1833333,
      "lng": 17.8
    },
    {
      "cityName": "Kisszentmárton",
      "lat": 45.8241667,
      "lng": 18.0241667
    },
    {
      "cityName": "Kistamási",
      "lat": 46.0166667,
      "lng": 17.7333333
    },
    {
      "cityName": "Kistapolca",
      "lat": 45.8219444,
      "lng": 18.3847222
    },
    {
      "cityName": "Kistótfalu",
      "lat": 45.9075,
      "lng": 18.3075
    },
    {
      "cityName": "Kisvaszar",
      "lat": 46.2833333,
      "lng": 18.2166667
    },
    {
      "cityName": "Kisvidákpuszta",
      "lat": 46.25,
      "lng": 17.95
    },
    {
      "cityName": "Kisvizslak",
      "lat": 45.95,
      "lng": 18.5833333
    },
    {
      "cityName": "Kobanya",
      "lat": 46.1166667,
      "lng": 18.5333333
    },
    {
      "cityName": "Köblény",
      "lat": 46.3,
      "lng": 18.3
    },
    {
      "cityName": "Kökényi Puszta",
      "lat": 46.0166667,
      "lng": 18.2166667
    },
    {
      "cityName": "Kökény",
      "lat": 45.9969444,
      "lng": 18.2027778
    },
    {
      "cityName": "Kölked",
      "lat": 45.9502778,
      "lng": 18.7077778
    },
    {
      "cityName": "Komló",
      "lat": 46.2,
      "lng": 18.2666667
    },
    {
      "cityName": "Konstanczermalom",
      "lat": 46.2166667,
      "lng": 18.4166667
    },
    {
      "cityName": "Kopárhát",
      "lat": 46.0833333,
      "lng": 18.8333333
    },
    {
      "cityName": "Korcsánypuszta",
      "lat": 46.1833333,
      "lng": 17.8666667
    },
    {
      "cityName": "Kórós",
      "lat": 45.8669444,
      "lng": 18.0844444
    },
    {
      "cityName": "Kovácshida",
      "lat": 45.8341667,
      "lng": 18.1813889
    },
    {
      "cityName": "Kovácsmalom",
      "lat": 46.0166667,
      "lng": 18.1
    },
    {
      "cityName": "Kovácsszénája",
      "lat": 46.1666667,
      "lng": 18.1166667
    },
    {
      "cityName": "Kovácstanya",
      "lat": 45.7666667,
      "lng": 18.45
    },
    {
      "cityName": "Kovagoszollos",
      "lat": 46.0833333,
      "lng": 18.1333333
    },
    {
      "cityName": "Kovesteto",
      "lat": 46.1666667,
      "lng": 18.35
    },
    {
      "cityName": "Kozármisleny",
      "lat": 46.0333333,
      "lng": 18.3
    },
    {
      "cityName": "Középmalom",
      "lat": 45.9166667,
      "lng": 18.2833333
    },
    {
      "cityName": "Kozepso Horvathmalom",
      "lat": 46,
      "lng": 18.3666667
    },
    {
      "cityName": "Kurucpuszta",
      "lat": 45.9166667,
      "lng": 18.3166667
    },
    {
      "cityName": "Kutas",
      "lat": 46,
      "lng": 18.7833333
    },
    {
      "cityName": "Lajosfapuszta",
      "lat": 46.0333333,
      "lng": 17.7666667
    },
    {
      "cityName": "Lajosháza",
      "lat": 45.8330556,
      "lng": 18.2325
    },
    {
      "cityName": "Lajosmajor",
      "lat": 45.9652778,
      "lng": 18.5622222
    },
    {
      "cityName": "Lajospuszta",
      "lat": 46.1,
      "lng": 18.4166667
    },
    {
      "cityName": "Lajostanya",
      "lat": 45.7833333,
      "lng": 17.8666667
    },
    {
      "cityName": "Lanka",
      "lat": 45.8,
      "lng": 18.1
    },
    {
      "cityName": "Lánycsók",
      "lat": 46,
      "lng": 18.6333333
    },
    {
      "cityName": "Lapáncsa",
      "lat": 45.8191667,
      "lng": 18.4977778
    },
    {
      "cityName": "Laposmezo",
      "lat": 46.25,
      "lng": 18.2333333
    },
    {
      "cityName": "Lászlómalom",
      "lat": 45.8333333,
      "lng": 17.8666667
    },
    {
      "cityName": "Levenyetanya",
      "lat": 45.9,
      "lng": 17.8666667
    },
    {
      "cityName": "Ligeti Puszta",
      "lat": 46.2333333,
      "lng": 18.2
    },
    {
      "cityName": "Ligettelep",
      "lat": 46.1333333,
      "lng": 18.3166667
    },
    {
      "cityName": "Lippó",
      "lat": 45.8627778,
      "lng": 18.57
    },
    {
      "cityName": "Liptód",
      "lat": 46.05,
      "lng": 18.5166667
    },
    {
      "cityName": "Liptódpuszta",
      "lat": 46.0333333,
      "lng": 18.5
    },
    {
      "cityName": "Lothárd",
      "lat": 45.9988889,
      "lng": 18.3525
    },
    {
      "cityName": "Lovászhetány",
      "lat": 46.1666667,
      "lng": 18.4833333
    },
    {
      "cityName": "Lulu",
      "lat": 45.8416667,
      "lng": 18.2569444
    },
    {
      "cityName": "Lúzsok",
      "lat": 45.8333333,
      "lng": 17.95
    },
    {
      "cityName": "Magyarbóly",
      "lat": 45.8419444,
      "lng": 18.4913889
    },
    {
      "cityName": "Magyaregregy",
      "lat": 46.25,
      "lng": 18.3166667
    },
    {
      "cityName": "Magyarlukafa",
      "lat": 46.1666667,
      "lng": 17.7666667
    },
    {
      "cityName": "Magyarmecske",
      "lat": 45.95,
      "lng": 17.9666667
    },
    {
      "cityName": "Magyarsarlós",
      "lat": 46.0333333,
      "lng": 18.3666667
    },
    {
      "cityName": "Magyartelek",
      "lat": 45.9333333,
      "lng": 17.9833333
    },
    {
      "cityName": "Mailáthpuszta",
      "lat": 45.7886111,
      "lng": 18.0475
    },
    {
      "cityName": "Majs",
      "lat": 45.9091667,
      "lng": 18.6002778
    },
    {
      "cityName": "Malmok",
      "lat": 46.2333333,
      "lng": 18.4666667
    },
    {
      "cityName": "Maráza",
      "lat": 46.0666667,
      "lng": 18.5166667
    },
    {
      "cityName": "Marázapuszta",
      "lat": 46.0833333,
      "lng": 18.5333333
    },
    {
      "cityName": "Márévár",
      "lat": 46.2333333,
      "lng": 18.3333333
    },
    {
      "cityName": "Márfa",
      "lat": 45.86,
      "lng": 18.1852778
    },
    {
      "cityName": "Mariagyudi Tanya",
      "lat": 45.8666667,
      "lng": 18.2666667
    },
    {
      "cityName": "Mariagyud",
      "lat": 45.8552778,
      "lng": 18.2986111
    },
    {
      "cityName": "Máriahegy",
      "lat": 45.9833333,
      "lng": 18.5166667
    },
    {
      "cityName": "Máriakéménd",
      "lat": 46.0333333,
      "lng": 18.4666667
    },
    {
      "cityName": "Máriamajor",
      "lat": 45.8666667,
      "lng": 18.05
    },
    {
      "cityName": "Markóc",
      "lat": 45.8666667,
      "lng": 17.7666667
    },
    {
      "cityName": "Márok",
      "lat": 45.8736111,
      "lng": 18.5086111
    },
    {
      "cityName": "Martonfa",
      "lat": 46.1166667,
      "lng": 18.3833333
    },
    {
      "cityName": "Matildmajor",
      "lat": 46.35,
      "lng": 18.2
    },
    {
      "cityName": "Mattyi Tanyák",
      "lat": 45.8,
      "lng": 18.2666667
    },
    {
      "cityName": "Matty",
      "lat": 45.7980556,
      "lng": 18.2661111
    },
    {
      "cityName": "Máza",
      "lat": 46.2666667,
      "lng": 18.4
    },
    {
      "cityName": "Mázaszászvár",
      "lat": 46.2666667,
      "lng": 18.3666667
    },
    {
      "cityName": "Mecsekfalu",
      "lat": 46.2,
      "lng": 18.2333333
    },
    {
      "cityName": "Mecsekjánosi",
      "lat": 46.2166667,
      "lng": 18.25
    },
    {
      "cityName": "Mecseknádasd",
      "lat": 46.2166667,
      "lng": 18.4666667
    },
    {
      "cityName": "Mecsekpölöske",
      "lat": 46.2166667,
      "lng": 18.2166667
    },
    {
      "cityName": "Meggyesytanya",
      "lat": 45.75,
      "lng": 18.4166667
    },
    {
      "cityName": "Megyefa",
      "lat": 46.1166667,
      "lng": 18
    },
    {
      "cityName": "Mekényesi Tanya",
      "lat": 46.3833333,
      "lng": 18.3333333
    },
    {
      "cityName": "Merenye",
      "lat": 46.0666667,
      "lng": 17.7
    },
    {
      "cityName": "Mezodipuszta",
      "lat": 46.2666667,
      "lng": 18.0833333
    },
    {
      "cityName": "Mezodi Tanya",
      "lat": 46.2833333,
      "lng": 18.1
    },
    {
      "cityName": "Mihálymajor",
      "lat": 46.0166667,
      "lng": 18.4
    },
    {
      "cityName": "Miklóstanya",
      "lat": 45.8833333,
      "lng": 17.7666667
    },
    {
      "cityName": "Mikóháza",
      "lat": 48.45,
      "lng": 21.6
    },
    {
      "cityName": "Miskaháza",
      "lat": 45.85,
      "lng": 18.25
    },
    {
      "cityName": "Mogyorosdulo",
      "lat": 45.8833333,
      "lng": 18.4
    },
    {
      "cityName": "Mohács",
      "lat": 45.9930556,
      "lng": 18.6830556
    },
    {
      "cityName": "Molvány",
      "lat": 46.0333333,
      "lng": 17.75
    },
    {
      "cityName": "Mónosokori Tanya",
      "lat": 45.9166667,
      "lng": 17.9
    },
    {
      "cityName": "Mónosokor",
      "lat": 45.9166667,
      "lng": 17.8833333
    },
    {
      "cityName": "Monyoród",
      "lat": 46,
      "lng": 18.4833333
    },
    {
      "cityName": "Monyoródpuszta",
      "lat": 46.0166667,
      "lng": 18.4833333
    },
    {
      "cityName": "Monyoróska",
      "lat": 45.8333333,
      "lng": 18.0666667
    },
    {
      "cityName": "Mozsgó",
      "lat": 46.1166667,
      "lng": 17.85
    },
    {
      "cityName": "Nagybudmér",
      "lat": 45.9361111,
      "lng": 18.4455556
    },
    {
      "cityName": "Nagyharsány",
      "lat": 45.8463889,
      "lng": 18.3922222
    },
    {
      "cityName": "Nagykozár",
      "lat": 46.0666667,
      "lng": 18.3333333
    },
    {
      "cityName": "Nagymátétanya",
      "lat": 46.2,
      "lng": 18
    },
    {
      "cityName": "Nagymezo",
      "lat": 45.85,
      "lng": 17.8
    },
    {
      "cityName": "Nagynyárád",
      "lat": 45.9433333,
      "lng": 18.5780556
    },
    {
      "cityName": "Nagypall",
      "lat": 46.15,
      "lng": 18.45
    },
    {
      "cityName": "Nagypeterd",
      "lat": 46.05,
      "lng": 17.9
    },
    {
      "cityName": "Nagysárostó",
      "lat": 45.8438889,
      "lng": 18.1269444
    },
    {
      "cityName": "Nagyszigettanya",
      "lat": 45.8666667,
      "lng": 17.8333333
    },
    {
      "cityName": "Nagytótfalu",
      "lat": 45.8638889,
      "lng": 18.3452778
    },
    {
      "cityName": "Nagyváty",
      "lat": 46.0666667,
      "lng": 17.9333333
    },
    {
      "cityName": "Nándorliget",
      "lat": 45.9805556,
      "lng": 18.2363889
    },
    {
      "cityName": "Neidharttanya",
      "lat": 46.0166667,
      "lng": 17.7166667
    },
    {
      "cityName": "Nemero",
      "lat": 46.3666667,
      "lng": 18.2666667
    },
    {
      "cityName": "Németi",
      "lat": 45.9486111,
      "lng": 18.2375
    },
    {
      "cityName": "Németpalkonyai Puszta",
      "lat": 45.9166667,
      "lng": 18.3833333
    },
    {
      "cityName": "Németpalkonya",
      "lat": 45.8966667,
      "lng": 18.3897222
    },
    {
      "cityName": "Nyomja",
      "lat": 45.9969444,
      "lng": 18.4577778
    },
    {
      "cityName": "Nyugotszenterzsébet",
      "lat": 46.0833333,
      "lng": 17.9166667
    },
    {
      "cityName": "Ócsárd",
      "lat": 45.9341667,
      "lng": 18.1519444
    },
    {
      "cityName": "Ödönvölgypuszta",
      "lat": 46.1166667,
      "lng": 17.8333333
    },
    {
      "cityName": "Ófalu",
      "lat": 46.2166667,
      "lng": 18.5333333
    },
    {
      "cityName": "Okorvölgy",
      "lat": 46.15,
      "lng": 18.0666667
    },
    {
      "cityName": "Old",
      "lat": 45.7880556,
      "lng": 18.3522222
    },
    {
      "cityName": "Ólvölgy",
      "lat": 46.2833333,
      "lng": 18.3833333
    },
    {
      "cityName": "Ontimajor",
      "lat": 45.95,
      "lng": 17.7833333
    },
    {
      "cityName": "Ormánypuszta",
      "lat": 45.8880556,
      "lng": 18.5944444
    },
    {
      "cityName": "Oroszló",
      "lat": 46.2166667,
      "lng": 18.1333333
    },
    {
      "cityName": "Ottmajo",
      "lat": 45.9802778,
      "lng": 18.2102778
    },
    {
      "cityName": "Ózdfalu",
      "lat": 45.9291667,
      "lng": 18.0216667
    },
    {
      "cityName": "Páfrányos",
      "lat": 45.95,
      "lng": 17.7333333
    },
    {
      "cityName": "Palé",
      "lat": 46.2666667,
      "lng": 18.0666667
    },
    {
      "cityName": "Pálmalom",
      "lat": 46.1666667,
      "lng": 18.15
    },
    {
      "cityName": "Páprádipuszta",
      "lat": 45.8833333,
      "lng": 18.0166667
    },
    {
      "cityName": "Páprád",
      "lat": 45.8925,
      "lng": 18.0097222
    },
    {
      "cityName": "Patakmalom",
      "lat": 45.9,
      "lng": 18.3166667
    },
    {
      "cityName": "Pázdány",
      "lat": 46.0166667,
      "lng": 18.1166667
    },
    {
      "cityName": "Pazséri Malom",
      "lat": 45.9,
      "lng": 18.2333333
    },
    {
      "cityName": "Pazsér-szállás",
      "lat": 45.9,
      "lng": 18.2166667
    },
    {
      "cityName": "Pécsbagota",
      "lat": 45.9902778,
      "lng": 18.0733333
    },
    {
      "cityName": "Pécsdevecser",
      "lat": 45.9566667,
      "lng": 18.3841667
    },
    {
      "cityName": "Pécsudvard",
      "lat": 46.0166667,
      "lng": 18.2833333
    },
    {
      "cityName": "Pécsvárad",
      "lat": 46.15,
      "lng": 18.4166667
    },
    {
      "cityName": "Pellérd",
      "lat": 46.0333333,
      "lng": 18.15
    },
    {
      "cityName": "Pereked",
      "lat": 46.1,
      "lng": 18.3833333
    },
    {
      "cityName": "Pergertanya",
      "lat": 46.1,
      "lng": 17.75
    },
    {
      "cityName": "Peterdipuszta",
      "lat": 45.9797222,
      "lng": 18.3505556
    },
    {
      "cityName": "Peterd",
      "lat": 45.9741667,
      "lng": 18.3588889
    },
    {
      "cityName": "Péterfa",
      "lat": 46.0166667,
      "lng": 17.85
    },
    {
      "cityName": "Petoc-puszta",
      "lat": 46.1166667,
      "lng": 18.1166667
    },
    {
      "cityName": "Piskó",
      "lat": 45.8166667,
      "lng": 17.95
    },
    {
      "cityName": "Pócsa",
      "lat": 45.9097222,
      "lng": 18.4708333
    },
    {
      "cityName": "Pogány",
      "lat": 45.98,
      "lng": 18.26
    },
    {
      "cityName": "Polgárpuszta",
      "lat": 46.1333333,
      "lng": 18.1166667
    },
    {
      "cityName": "Postaszállás",
      "lat": 45.8383333,
      "lng": 18.2933333
    },
    {
      "cityName": "Pöszéripuszta",
      "lat": 46.0333333,
      "lng": 17.9666667
    },
    {
      "cityName": "Psikpuszta",
      "lat": 45.8333333,
      "lng": 18.2333333
    },
    {
      "cityName": "Püspökbóly",
      "lat": 45.8052778,
      "lng": 18.4377778
    },
    {
      "cityName": "Püspökszentlászló",
      "lat": 46.1833333,
      "lng": 18.3666667
    },
    {
      "cityName": "Pusztakisfalu",
      "lat": 46.1666667,
      "lng": 18.4666667
    },
    {
      "cityName": "Pusztamalom",
      "lat": 45.945,
      "lng": 18.2752778
    },
    {
      "cityName": "Rádfalva",
      "lat": 45.8597222,
      "lng": 18.1258333
    },
    {
      "cityName": "Rádfapuszta",
      "lat": 45.95,
      "lng": 18.1
    },
    {
      "cityName": "Rafai-tanya",
      "lat": 46.3833333,
      "lng": 18.2
    },
    {
      "cityName": "Ranódfapuszta",
      "lat": 46,
      "lng": 17.9
    },
    {
      "cityName": "Regenye",
      "lat": 45.9691667,
      "lng": 18.1680556
    },
    {
      "cityName": "Retidulo",
      "lat": 45.9666667,
      "lng": 18.7
    },
    {
      "cityName": "Révfalu",
      "lat": 45.8166667,
      "lng": 17.7833333
    },
    {
      "cityName": "Riticspuszta",
      "lat": 46.15,
      "lng": 17.8166667
    },
    {
      "cityName": "Rózsafa",
      "lat": 46.0166667,
      "lng": 17.8833333
    },
    {
      "cityName": "Rózsa-major",
      "lat": 45.9,
      "lng": 17.75
    },
    {
      "cityName": "Sámod",
      "lat": 45.8544444,
      "lng": 18.0375
    },
    {
      "cityName": "Sandordulo",
      "lat": 45.8666667,
      "lng": 18.35
    },
    {
      "cityName": "Saras",
      "lat": 46.35,
      "lng": 18.3833333
    },
    {
      "cityName": "Sárgödre",
      "lat": 46.2333333,
      "lng": 18
    },
    {
      "cityName": "Sárhát",
      "lat": 46.0166667,
      "lng": 18.7833333
    },
    {
      "cityName": "Sáripuszta",
      "lat": 45.8422222,
      "lng": 18.3547222
    },
    {
      "cityName": "Sárok",
      "lat": 45.8411111,
      "lng": 18.6113889
    },
    {
      "cityName": "Sáros",
      "lat": 45.9841667,
      "lng": 18.7369444
    },
    {
      "cityName": "Sásd",
      "lat": 46.25,
      "lng": 18.1166667
    },
    {
      "cityName": "Sátorhely",
      "lat": 45.9408333,
      "lng": 18.6344444
    },
    {
      "cityName": "Schneeberg",
      "lat": 46.0666667,
      "lng": 18.6666667
    },
    {
      "cityName": "Schrempfmalom",
      "lat": 45.9166667,
      "lng": 18.55
    },
    {
      "cityName": "Sellye",
      "lat": 45.8747222,
      "lng": 17.8438889
    },
    {
      "cityName": "Siklósbodony",
      "lat": 45.9102778,
      "lng": 18.1202778
    },
    {
      "cityName": "Siklósnagyfalu",
      "lat": 45.8197222,
      "lng": 18.3613889
    },
    {
      "cityName": "Sikondagyogyfurdo",
      "lat": 46.1833333,
      "lng": 18.2333333
    },
    {
      "cityName": "Sikotapuszta",
      "lat": 45.9833333,
      "lng": 17.7666667
    },
    {
      "cityName": "Sömlény",
      "lat": 45.8333333,
      "lng": 18.3166667
    },
    {
      "cityName": "Somogyapáti",
      "lat": 46.0833333,
      "lng": 17.75
    },
    {
      "cityName": "Somogyhárságy",
      "lat": 46.1666667,
      "lng": 17.7833333
    },
    {
      "cityName": "Somogyhatvan",
      "lat": 46.1166667,
      "lng": 17.7166667
    },
    {
      "cityName": "Somogyviszló",
      "lat": 46.1166667,
      "lng": 17.7666667
    },
    {
      "cityName": "Sorkád",
      "lat": 46.2666667,
      "lng": 18.2166667
    },
    {
      "cityName": "Sumony",
      "lat": 45.9713889,
      "lng": 17.9058333
    },
    {
      "cityName": "Szabadja",
      "lat": 46.0166667,
      "lng": 18.0333333
    },
    {
      "cityName": "Szabadszállástanya",
      "lat": 45.85,
      "lng": 17.8666667
    },
    {
      "cityName": "Szabás",
      "lat": 46.2,
      "lng": 17.9333333
    },
    {
      "cityName": "Szágy",
      "lat": 46.2333333,
      "lng": 17.95
    },
    {
      "cityName": "Szajk",
      "lat": 45.9905556,
      "lng": 18.5313889
    },
    {
      "cityName": "Szalatnak",
      "lat": 46.2833333,
      "lng": 18.2833333
    },
    {
      "cityName": "Szaporca",
      "lat": 45.8136111,
      "lng": 18.1044444
    },
    {
      "cityName": "Szászvári Tanyák",
      "lat": 46.2666667,
      "lng": 18.3833333
    },
    {
      "cityName": "Szatina",
      "lat": 46.2166667,
      "lng": 18.0833333
    },
    {
      "cityName": "Szava",
      "lat": 45.9022222,
      "lng": 18.1761111
    },
    {
      "cityName": "Szebény",
      "lat": 46.1333333,
      "lng": 18.6
    },
    {
      "cityName": "Szekerekpuszta",
      "lat": 45.8652778,
      "lng": 18.0411111
    },
    {
      "cityName": "Szello",
      "lat": 46.0666667,
      "lng": 18.4666667
    },
    {
      "cityName": "Szentdénes",
      "lat": 46,
      "lng": 17.9333333
    },
    {
      "cityName": "Szentdomján",
      "lat": 46.1,
      "lng": 18.0166667
    },
    {
      "cityName": "Szentegát",
      "lat": 45.9666667,
      "lng": 17.8333333
    },
    {
      "cityName": "Szentegyedpuszta",
      "lat": 46.15,
      "lng": 17.85
    },
    {
      "cityName": "Szentimre Alsópuszta",
      "lat": 46.1166667,
      "lng": 18.7333333
    },
    {
      "cityName": "Szentkútipuszta",
      "lat": 46.05,
      "lng": 18.3333333
    },
    {
      "cityName": "Szentlászló",
      "lat": 46.15,
      "lng": 17.8333333
    },
    {
      "cityName": "Szentlélekpuszta",
      "lat": 46.1333333,
      "lng": 17.9333333
    },
    {
      "cityName": "Szentlorinc",
      "lat": 46.05,
      "lng": 17.9833333
    },
    {
      "cityName": "Szentmargittapuszta",
      "lat": 46.2,
      "lng": 17.8
    },
    {
      "cityName": "Szentmárton-puszta",
      "lat": 45.8833333,
      "lng": 18.5166667
    },
    {
      "cityName": "Szentmártonpuszta",
      "lat": 46.1833333,
      "lng": 17.8833333
    },
    {
      "cityName": "Szentmihályfapuszta",
      "lat": 45.9666667,
      "lng": 17.7333333
    },
    {
      "cityName": "Szentmiklóspuszta",
      "lat": 46.1,
      "lng": 17.8333333
    },
    {
      "cityName": "Szentpálpuszta",
      "lat": 45.9833333,
      "lng": 18.1886111
    },
    {
      "cityName": "Szilaspuszta",
      "lat": 45.9,
      "lng": 17.8833333
    },
    {
      "cityName": "Szilháttelep",
      "lat": 45.8166667,
      "lng": 18.0666667
    },
    {
      "cityName": "Szilvás",
      "lat": 45.9622222,
      "lng": 18.2
    },
    {
      "cityName": "Szokedi Puszta",
      "lat": 45.9513889,
      "lng": 18.2875
    },
    {
      "cityName": "Szoked",
      "lat": 45.9666667,
      "lng": 18.2869444
    },
    {
      "cityName": "Szoke",
      "lat": 45.96,
      "lng": 18.1858333
    },
    {
      "cityName": "Szórádmalom",
      "lat": 46.1,
      "lng": 18.45
    },
    {
      "cityName": "Szörény",
      "lat": 45.9666667,
      "lng": 17.6833333
    },
    {
      "cityName": "Szur",
      "lat": 46.1,
      "lng": 18.5833333
    },
    {
      "cityName": "Tarcsapuszta",
      "lat": 46.0333333,
      "lng": 18.0333333
    },
    {
      "cityName": "Tarrós",
      "lat": 46.2833333,
      "lng": 18.15
    },
    {
      "cityName": "Tékes",
      "lat": 46.2833333,
      "lng": 18.1666667
    },
    {
      "cityName": "Telegér",
      "lat": 45.9522222,
      "lng": 18.3036111
    },
    {
      "cityName": "Telekipuszta",
      "lat": 45.8166667,
      "lng": 18.45
    },
    {
      "cityName": "Tengeri",
      "lat": 45.9261111,
      "lng": 18.0880556
    },
    {
      "cityName": "Terecsenypuszta",
      "lat": 46.2,
      "lng": 17.8666667
    },
    {
      "cityName": "Terehegyi Puszta",
      "lat": 45.8666667,
      "lng": 18.2166667
    },
    {
      "cityName": "Terehegy",
      "lat": 45.8602778,
      "lng": 18.2108333
    },
    {
      "cityName": "Tésenfa",
      "lat": 45.8130556,
      "lng": 18.1183333
    },
    {
      "cityName": "Tisztasdulo",
      "lat": 45.85,
      "lng": 18.0666667
    },
    {
      "cityName": "Tofu",
      "lat": 46.3166667,
      "lng": 18.3666667
    },
    {
      "cityName": "Tótokföldje",
      "lat": 45.7655556,
      "lng": 18.3158333
    },
    {
      "cityName": "Tótszentgyögy",
      "lat": 46.05,
      "lng": 17.7166667
    },
    {
      "cityName": "Trefortpuszta",
      "lat": 46.1666667,
      "lng": 18.5833333
    },
    {
      "cityName": "Trinitás",
      "lat": 45.9,
      "lng": 18.3333333
    },
    {
      "cityName": "Trischlerpuszta",
      "lat": 46,
      "lng": 18.5166667
    },
    {
      "cityName": "Turbékpuszta",
      "lat": 46.1,
      "lng": 17.85
    },
    {
      "cityName": "Turbék",
      "lat": 46.0666667,
      "lng": 17.8333333
    },
    {
      "cityName": "Túrony",
      "lat": 45.9044444,
      "lng": 18.2316667
    },
    {
      "cityName": "Tüskés",
      "lat": 45.8763889,
      "lng": 18.1152778
    },
    {
      "cityName": "Udvar",
      "lat": 45.9005556,
      "lng": 18.6597222
    },
    {
      "cityName": "Újakna-telep",
      "lat": 46.1833333,
      "lng": 18.2833333
    },
    {
      "cityName": "Újmajor",
      "lat": 45.8188889,
      "lng": 18.4561111
    },
    {
      "cityName": "Újpetre",
      "lat": 45.9366667,
      "lng": 18.3625
    },
    {
      "cityName": "Újpogány",
      "lat": 45.9833333,
      "lng": 18.2666667
    },
    {
      "cityName": "Újpuszta",
      "lat": 45.9666667,
      "lng": 17.75
    },
    {
      "cityName": "Üszögpuszta",
      "lat": 46.05,
      "lng": 18.2833333
    },
    {
      "cityName": "Vágotpuszta",
      "lat": 46.15,
      "lng": 18.2
    },
    {
      "cityName": "Vajszló",
      "lat": 45.8633333,
      "lng": 17.9761111
    },
    {
      "cityName": "Vargapuszta",
      "lat": 46.2333333,
      "lng": 18.1666667
    },
    {
      "cityName": "Varga",
      "lat": 46.2333333,
      "lng": 18.15
    },
    {
      "cityName": "Vásárosdombó",
      "lat": 46.3,
      "lng": 18.15
    },
    {
      "cityName": "Vaskapupuszta",
      "lat": 45.9188889,
      "lng": 18.1630556
    },
    {
      "cityName": "Vejtirév",
      "lat": 45.8,
      "lng": 17.9833333
    },
    {
      "cityName": "Vejti",
      "lat": 45.8166667,
      "lng": 17.9666667
    },
    {
      "cityName": "Vékény",
      "lat": 46.2666667,
      "lng": 18.35
    },
    {
      "cityName": "Velény",
      "lat": 45.9802778,
      "lng": 18.0533333
    },
    {
      "cityName": "Véménd",
      "lat": 46.15,
      "lng": 18.6166667
    },
    {
      "cityName": "Versend",
      "lat": 45.9952778,
      "lng": 18.5113889
    },
    {
      "cityName": "Vidákpuszta",
      "lat": 46.2666667,
      "lng": 17.9666667
    },
    {
      "cityName": "Villánykövesd",
      "lat": 45.8822222,
      "lng": 18.4252778
    },
    {
      "cityName": "Villány",
      "lat": 45.8688889,
      "lng": 18.4538889
    },
    {
      "cityName": "Virágos",
      "lat": 45.8755556,
      "lng": 18.4725
    },
    {
      "cityName": "Vitézipuszta",
      "lat": 45.9333333,
      "lng": 17.7333333
    },
    {
      "cityName": "Vitézitelek",
      "lat": 46.0166667,
      "lng": 17.8
    },
    {
      "cityName": "Vitéztelep",
      "lat": 45.9,
      "lng": 18.4
    },
    {
      "cityName": "Vizfo",
      "lat": 46.15,
      "lng": 18.1666667
    },
    {
      "cityName": "Vizslak",
      "lat": 45.9333333,
      "lng": 18.6833333
    },
    {
      "cityName": "Vokányi Hegy",
      "lat": 45.9166667,
      "lng": 18.3333333
    },
    {
      "cityName": "Vokány",
      "lat": 45.9094444,
      "lng": 18.3361111
    },
    {
      "cityName": "Vo Malom",
      "lat": 46.0833333,
      "lng": 18.4666667
    },
    {
      "cityName": "Vörösipuszta",
      "lat": 45.85,
      "lng": 17.7833333
    },
    {
      "cityName": "Vöröspuszta",
      "lat": 45.8,
      "lng": 18.4166667
    },
    {
      "cityName": "Vörösvölgy",
      "lat": 45.9666667,
      "lng": 17.8833333
    },
    {
      "cityName": "Wágnermalom",
      "lat": 46.1,
      "lng": 18.4833333
    },
    {
      "cityName": "Zádor",
      "lat": 45.9666667,
      "lng": 17.6652778
    },
    {
      "cityName": "Zaláta",
      "lat": 45.8166667,
      "lng": 17.8833333
    },
    {
      "cityName": "Zálogospuszta",
      "lat": 45.795,
      "lng": 18.3852778
    },
    {
      "cityName": "Zehipuszta",
      "lat": 45.8,
      "lng": 17.9166667
    },
    {
      "cityName": "Zengovarkony",
      "lat": 46.1666667,
      "lng": 18.4333333
    },
    {
      "cityName": "Zobákpuszta",
      "lat": 46.1833333,
      "lng": 18.3166667
    },
    {
      "cityName": "Zöcsketelep",
      "lat": 46.1333333,
      "lng": 17.8333333
    },
    {
      "cityName": "Zók",
      "lat": 46,
      "lng": 18.1
    },
    {
      "cityName": "Zsibotiszolohegy",
      "lat": 46.0833333,
      "lng": 17.8666667
    }
  ]
}