{
  "name": "Presov",
  "cities": [
    {
      "cityName": "Abrahamovce",
      "lat": 49.05,
      "lng": 20.45
    },
    {
      "cityName": "Abranovce",
      "lat": 48.9333333,
      "lng": 21.35
    },
    {
      "cityName": "Adidovce",
      "lat": 49.0166667,
      "lng": 22.05
    },
    {
      "cityName": "Alte Meierei",
      "lat": 49.4,
      "lng": 20.3666667
    },
    {
      "cityName": "Altendorf",
      "lat": 49.3833333,
      "lng": 20.3666667
    },
    {
      "cityName": "Alt Schmecks",
      "lat": 49.15,
      "lng": 20.2333333
    },
    {
      "cityName": "Alt-Walddorf",
      "lat": 49.1333333,
      "lng": 20.3166667
    },
    {
      "cityName": "Ambrusovce",
      "lat": 49.1666667,
      "lng": 21.1666667
    },
    {
      "cityName": "Andrejová",
      "lat": 49.3333333,
      "lng": 21.35
    },
    {
      "cityName": "Andrejovka",
      "lat": 49.2833333,
      "lng": 20.9
    },
    {
      "cityName": "Arnutovce",
      "lat": 48.9833333,
      "lng": 20.5
    },
    {
      "cityName": "Babie",
      "lat": 49.0666667,
      "lng": 21.5
    },
    {
      "cityName": "Babin Potok",
      "lat": 49.1166667,
      "lng": 21.2166667
    },
    {
      "cityName": "Bajerov",
      "lat": 48.95,
      "lng": 21.1166667
    },
    {
      "cityName": "Bajerovce",
      "lat": 49.2166667,
      "lng": 20.8
    },
    {
      "cityName": "Baldovce",
      "lat": 48.9833333,
      "lng": 20.7166667
    },
    {
      "cityName": "Baranie",
      "lat": 49.1666667,
      "lng": 21.15
    },
    {
      "cityName": "Bardejov",
      "lat": 49.2833333,
      "lng": 21.2833333
    },
    {
      "cityName": "Bardejovská Nová Ves",
      "lat": 49.3,
      "lng": 21.2833333
    },
    {
      "cityName": "Bardejovské Kúpele",
      "lat": 49.3333333,
      "lng": 21.2666667
    },
    {
      "cityName": "Bartosovce",
      "lat": 49.2,
      "lng": 21.2833333
    },
    {
      "cityName": "Baskovce",
      "lat": 49.0333333,
      "lng": 21.8333333
    },
    {
      "cityName": "Batizovce",
      "lat": 49.0833333,
      "lng": 20.2
    },
    {
      "cityName": "Becherov",
      "lat": 49.4166667,
      "lng": 21.3166667
    },
    {
      "cityName": "Beharovce",
      "lat": 49,
      "lng": 20.8166667
    },
    {
      "cityName": "Belanské Kúpele",
      "lat": 49.2333333,
      "lng": 20.3166667
    },
    {
      "cityName": "Belejovce",
      "lat": 49.3833333,
      "lng": 21.55
    },
    {
      "cityName": "Beloveza",
      "lat": 49.2833333,
      "lng": 21.3666667
    },
    {
      "cityName": "Benadikovce",
      "lat": 49.2333333,
      "lng": 21.55
    },
    {
      "cityName": "Benkovce",
      "lat": 48.95,
      "lng": 21.7166667
    },
    {
      "cityName": "Bertotovce",
      "lat": 49.0166667,
      "lng": 21.0333333
    },
    {
      "cityName": "Betlanovce",
      "lat": 48.9833333,
      "lng": 20.4
    },
    {
      "cityName": "Bierbrunn",
      "lat": 49.2333333,
      "lng": 20.4
    },
    {
      "cityName": "Bijacovce",
      "lat": 49.0333333,
      "lng": 20.8
    },
    {
      "cityName": "Blatnica",
      "lat": 49.3166667,
      "lng": 21.1333333
    },
    {
      "cityName": "Blazov",
      "lat": 49.15,
      "lng": 20.75
    },
    {
      "cityName": "Bodolak",
      "lat": 49.1166667,
      "lng": 21.1833333
    },
    {
      "cityName": "Bodruzzal",
      "lat": 49.35,
      "lng": 21.7166667
    },
    {
      "cityName": "Bogliarka",
      "lat": 49.2666667,
      "lng": 21.15
    },
    {
      "cityName": "Boksa",
      "lat": 49.2,
      "lng": 21.6333333
    },
    {
      "cityName": "Borov",
      "lat": 49.3,
      "lng": 21.9
    },
    {
      "cityName": "Brestov",
      "lat": 48.9666667,
      "lng": 21.8833333
    },
    {
      "cityName": "Breznica",
      "lat": 49.1666667,
      "lng": 21.6666667
    },
    {
      "cityName": "Breznicka",
      "lat": 49.2166667,
      "lng": 21.7
    },
    {
      "cityName": "Brezov",
      "lat": 49.15,
      "lng": 21.5
    },
    {
      "cityName": "Brezovica nad Torysou",
      "lat": 49.15,
      "lng": 20.85
    },
    {
      "cityName": "Brezovicka",
      "lat": 49.1333333,
      "lng": 20.85
    },
    {
      "cityName": "Brezovka",
      "lat": 49.2666667,
      "lng": 21.4166667
    },
    {
      "cityName": "Brusnica",
      "lat": 49.15,
      "lng": 21.7
    },
    {
      "cityName": "Brutovce",
      "lat": 49.0833333,
      "lng": 20.7833333
    },
    {
      "cityName": "Buclovany",
      "lat": 49.15,
      "lng": 21.3666667
    },
    {
      "cityName": "Budzova",
      "lat": 49.2666667,
      "lng": 20.9166667
    },
    {
      "cityName": "Buglovce",
      "lat": 48.9833333,
      "lng": 20.7
    },
    {
      "cityName": "Bujakov",
      "lat": 48.9833333,
      "lng": 21.1166667
    },
    {
      "cityName": "Bukovinka",
      "lat": 49.05,
      "lng": 20.4833333
    },
    {
      "cityName": "Bunde",
      "lat": 49.0333333,
      "lng": 21.0666667
    },
    {
      "cityName": "Busovce",
      "lat": 49.2166667,
      "lng": 20.4833333
    },
    {
      "cityName": "Bystrá",
      "lat": 49.2333333,
      "lng": 21.8166667
    },
    {
      "cityName": "Bystrany",
      "lat": 48.95,
      "lng": 20.7666667
    },
    {
      "cityName": "Bystré",
      "lat": 49.0166667,
      "lng": 21.55
    },
    {
      "cityName": "Bzany",
      "lat": 49.1,
      "lng": 21.65
    },
    {
      "cityName": "Bzenov",
      "lat": 48.95,
      "lng": 21.1666667
    },
    {
      "cityName": "Cabalovce",
      "lat": 49.2333333,
      "lng": 21.9666667
    },
    {
      "cityName": "Caklov",
      "lat": 48.9,
      "lng": 21.6333333
    },
    {
      "cityName": "Carno",
      "lat": 49.35,
      "lng": 21.4
    },
    {
      "cityName": "Celovce",
      "lat": 49.0833333,
      "lng": 21.4
    },
    {
      "cityName": "Cemjata",
      "lat": 48.9833333,
      "lng": 21.1833333
    },
    {
      "cityName": "Cencice",
      "lat": 49.0333333,
      "lng": 20.45
    },
    {
      "cityName": "Cerne",
      "lat": 49,
      "lng": 21.5666667
    },
    {
      "cityName": "Cernina",
      "lat": 49.05,
      "lng": 21.8166667
    },
    {
      "cityName": "Certaz",
      "lat": 49.1666667,
      "lng": 20.7333333
    },
    {
      "cityName": "Certizne",
      "lat": 49.35,
      "lng": 21.8333333
    },
    {
      "cityName": "Cervenica",
      "lat": 48.8833333,
      "lng": 21.45
    },
    {
      "cityName": "Cerveny Klastor",
      "lat": 49.4,
      "lng": 20.4166667
    },
    {
      "cityName": "Chmelnica",
      "lat": 49.3,
      "lng": 20.7333333
    },
    {
      "cityName": "Chmelova",
      "lat": 49.4,
      "lng": 21.3
    },
    {
      "cityName": "Chmelov",
      "lat": 49.0666667,
      "lng": 21.45
    },
    {
      "cityName": "Chmelovec",
      "lat": 49.0833333,
      "lng": 21.3666667
    },
    {
      "cityName": "Chminany",
      "lat": 49,
      "lng": 21.0666667
    },
    {
      "cityName": "Chminianska Nová Ves",
      "lat": 49,
      "lng": 21.0833333
    },
    {
      "cityName": "Chminianske Jakubovany",
      "lat": 48.9833333,
      "lng": 21
    },
    {
      "cityName": "Chotca",
      "lat": 49.2333333,
      "lng": 21.6833333
    },
    {
      "cityName": "Chrast nad Hornadom",
      "lat": 48.9333333,
      "lng": 20.7
    },
    {
      "cityName": "Cicava",
      "lat": 48.9166667,
      "lng": 21.6666667
    },
    {
      "cityName": "Cigelka",
      "lat": 49.4166667,
      "lng": 21.15
    },
    {
      "cityName": "Cigla",
      "lat": 49.3666667,
      "lng": 21.4
    },
    {
      "cityName": "Circ",
      "lat": 49.2833333,
      "lng": 20.9166667
    },
    {
      "cityName": "Cukalovce",
      "lat": 49.1,
      "lng": 22.1666667
    },
    {
      "cityName": "Dacov",
      "lat": 49.15,
      "lng": 20.9333333
    },
    {
      "cityName": "Danisovce",
      "lat": 48.95,
      "lng": 20.6333333
    },
    {
      "cityName": "Dapalovce",
      "lat": 49.0666667,
      "lng": 21.75
    },
    {
      "cityName": "Dara",
      "lat": 49.05,
      "lng": 22.3166667
    },
    {
      "cityName": "Dedacov",
      "lat": 49.0333333,
      "lng": 21.9833333
    },
    {
      "cityName": "Demjata",
      "lat": 49.1,
      "lng": 21.3166667
    },
    {
      "cityName": "Detrik",
      "lat": 49.05,
      "lng": 21.6333333
    },
    {
      "cityName": "Deutschendorf",
      "lat": 49.05,
      "lng": 20.3
    },
    {
      "cityName": "Dlhá Lúka",
      "lat": 49.3333333,
      "lng": 21.3
    },
    {
      "cityName": "Dlhe Straze",
      "lat": 49.0333333,
      "lng": 20.5166667
    },
    {
      "cityName": "Dlhona",
      "lat": 49.4,
      "lng": 21.5666667
    },
    {
      "cityName": "Dobra",
      "lat": 49.0166667,
      "lng": 21.7
    },
    {
      "cityName": "Dobra Vola",
      "lat": 48.9666667,
      "lng": 20.7833333
    },
    {
      "cityName": "Dobroslava",
      "lat": 49.3666667,
      "lng": 21.6166667
    },
    {
      "cityName": "Dolany",
      "lat": 49.0166667,
      "lng": 20.6666667
    },
    {
      "cityName": "Dolina",
      "lat": 48.9833333,
      "lng": 21.15
    },
    {
      "cityName": "Dolní Smokovec",
      "lat": 49.1333333,
      "lng": 20.25
    },
    {
      "cityName": "Domanovce",
      "lat": 48.9666667,
      "lng": 20.6666667
    },
    {
      "cityName": "Doscana",
      "lat": 49.3666667,
      "lng": 20.7333333
    },
    {
      "cityName": "Dravce",
      "lat": 49.0166667,
      "lng": 20.4833333
    },
    {
      "cityName": "Drienica",
      "lat": 49.1333333,
      "lng": 21.1166667
    },
    {
      "cityName": "Drienov",
      "lat": 48.8666667,
      "lng": 21.2666667
    },
    {
      "cityName": "Drienovská Nová Ves",
      "lat": 48.9,
      "lng": 21.25
    },
    {
      "cityName": "Druzbaki Nizny",
      "lat": 49.2833333,
      "lng": 20.5833333
    },
    {
      "cityName": "Druzbaki Wyzny",
      "lat": 49.3,
      "lng": 20.5666667
    },
    {
      "cityName": "Dubinné",
      "lat": 49.25,
      "lng": 21.45
    },
    {
      "cityName": "Dubník",
      "lat": 48.9166667,
      "lng": 21.4666667
    },
    {
      "cityName": "Dubová",
      "lat": 49.3666667,
      "lng": 21.4333333
    },
    {
      "cityName": "Dubovica",
      "lat": 49.1333333,
      "lng": 20.9666667
    },
    {
      "cityName": "Dúbrava",
      "lat": 48.9166667,
      "lng": 21.3166667
    },
    {
      "cityName": "Dukovce",
      "lat": 49.1166667,
      "lng": 21.4166667
    },
    {
      "cityName": "Dulova Ves",
      "lat": 48.95,
      "lng": 21.3
    },
    {
      "cityName": "Duplín",
      "lat": 49.2333333,
      "lng": 21.6333333
    },
    {
      "cityName": "Durd'os",
      "lat": 49.05,
      "lng": 21.5333333
    },
    {
      "cityName": "Durkov",
      "lat": 49.2333333,
      "lng": 20.8666667
    },
    {
      "cityName": "Durlsdorf",
      "lat": 49.0833333,
      "lng": 20.4833333
    },
    {
      "cityName": "Dvorce",
      "lat": 49.0833333,
      "lng": 20.5666667
    },
    {
      "cityName": "Dvor Horanské",
      "lat": 49.05,
      "lng": 20.4
    },
    {
      "cityName": "Dvor Paseky",
      "lat": 48.9666667,
      "lng": 21.5666667
    },
    {
      "cityName": "Dvor Pusté Pole",
      "lat": 49.05,
      "lng": 20.3833333
    },
    {
      "cityName": "Dvor Talka",
      "lat": 49.05,
      "lng": 21.4166667
    },
    {
      "cityName": "Eperjes",
      "lat": 49,
      "lng": 21.25
    },
    {
      "cityName": "Farkasovce",
      "lat": 49.0833333,
      "lng": 20.4333333
    },
    {
      "cityName": "Fijas",
      "lat": 49.1333333,
      "lng": 21.5833333
    },
    {
      "cityName": "Filice",
      "lat": 49.0333333,
      "lng": 20.3166667
    },
    {
      "cityName": "Fintice",
      "lat": 49.05,
      "lng": 21.3
    },
    {
      "cityName": "Folvark",
      "lat": 49.3666667,
      "lng": 20.5333333
    },
    {
      "cityName": "Folvarky",
      "lat": 49.1666667,
      "lng": 20.3666667
    },
    {
      "cityName": "Forbasy",
      "lat": 49.3,
      "lng": 20.6166667
    },
    {
      "cityName": "Francovce",
      "lat": 49.1333333,
      "lng": 21.55
    },
    {
      "cityName": "Fricka",
      "lat": 49.4,
      "lng": 21.0833333
    },
    {
      "cityName": "Frickovce",
      "lat": 49.1833333,
      "lng": 21.25
    },
    {
      "cityName": "Fricovce",
      "lat": 49.0166667,
      "lng": 20.9666667
    },
    {
      "cityName": "Fulanka",
      "lat": 49.0666667,
      "lng": 21.3333333
    },
    {
      "cityName": "Furcanka",
      "lat": 49.1,
      "lng": 21.5333333
    },
    {
      "cityName": "Gaboltov",
      "lat": 49.3666667,
      "lng": 21.15
    },
    {
      "cityName": "Gánovce",
      "lat": 49.0333333,
      "lng": 20.3333333
    },
    {
      "cityName": "Georgenberg",
      "lat": 49.0666667,
      "lng": 20.3333333
    },
    {
      "cityName": "Geralt",
      "lat": 49.1333333,
      "lng": 21.2666667
    },
    {
      "cityName": "Gergelak",
      "lat": 49.0666667,
      "lng": 21.2166667
    },
    {
      "cityName": "Gerlachov",
      "lat": 49.1,
      "lng": 20.2333333
    },
    {
      "cityName": "Gibel",
      "lat": 49.3166667,
      "lng": 20.3833333
    },
    {
      "cityName": "Giglovce",
      "lat": 49,
      "lng": 21.7333333
    },
    {
      "cityName": "Giraltovce",
      "lat": 49.1166667,
      "lng": 21.5166667
    },
    {
      "cityName": "Girovce",
      "lat": 49.0166667,
      "lng": 21.7666667
    },
    {
      "cityName": "Gnazda",
      "lat": 49.3,
      "lng": 20.6333333
    },
    {
      "cityName": "Gombosovce",
      "lat": 49.1,
      "lng": 21.2166667
    },
    {
      "cityName": "Granastov",
      "lat": 49.3666667,
      "lng": 20.7166667
    },
    {
      "cityName": "Gribov",
      "lat": 49.2833333,
      "lng": 21.7166667
    },
    {
      "cityName": "Grodin",
      "lat": 49.0333333,
      "lng": 21.5166667
    },
    {
      "cityName": "Gromos",
      "lat": 49.25,
      "lng": 20.8
    },
    {
      "cityName": "Gross-Lomnica",
      "lat": 49.1166667,
      "lng": 20.3666667
    },
    {
      "cityName": "Gross Schagendorf",
      "lat": 49.1,
      "lng": 20.2833333
    },
    {
      "cityName": "Gruzovce",
      "lat": 48.9833333,
      "lng": 21.8666667
    },
    {
      "cityName": "Habura",
      "lat": 49.3333333,
      "lng": 21.8666667
    },
    {
      "cityName": "Hadusovce",
      "lat": 48.9666667,
      "lng": 20.4833333
    },
    {
      "cityName": "Hágy",
      "lat": 49.3,
      "lng": 20.3833333
    },
    {
      "cityName": "Hajtovka",
      "lat": 49.3,
      "lng": 20.7833333
    },
    {
      "cityName": "Haligovce",
      "lat": 49.3666667,
      "lng": 20.45
    },
    {
      "cityName": "Hanigovce",
      "lat": 49.1833333,
      "lng": 21.0166667
    },
    {
      "cityName": "Haniska",
      "lat": 48.9666667,
      "lng": 21.25
    },
    {
      "cityName": "Hankovce",
      "lat": 49.0333333,
      "lng": 21.95
    },
    {
      "cityName": "Hanusovce",
      "lat": 49.0333333,
      "lng": 21.5
    },
    {
      "cityName": "Harakovce",
      "lat": 49,
      "lng": 20.85
    },
    {
      "cityName": "Harhaj",
      "lat": 49.1833333,
      "lng": 21.4166667
    },
    {
      "cityName": "Harhov",
      "lat": 49,
      "lng": 20.65
    },
    {
      "cityName": "Harichovce",
      "lat": 48.9666667,
      "lng": 20.5833333
    },
    {
      "cityName": "Havaj",
      "lat": 49.25,
      "lng": 21.7833333
    },
    {
      "cityName": "Havka",
      "lat": 49.35,
      "lng": 20.4
    },
    {
      "cityName": "Havranec",
      "lat": 49.4166667,
      "lng": 21.55
    },
    {
      "cityName": "Hazgut",
      "lat": 49.0833333,
      "lng": 21.35
    },
    {
      "cityName": "Hazlin",
      "lat": 49.3,
      "lng": 21.4333333
    },
    {
      "cityName": "Helenin Dvor",
      "lat": 49.1,
      "lng": 20.3666667
    },
    {
      "cityName": "Hendrichovce",
      "lat": 49.0166667,
      "lng": 21
    },
    {
      "cityName": "Hermanovce",
      "lat": 48.9833333,
      "lng": 21.5166667
    },
    {
      "cityName": "Hertník",
      "lat": 49.2166667,
      "lng": 21.25
    },
    {
      "cityName": "Hervartov",
      "lat": 49.25,
      "lng": 21.2
    },
    {
      "cityName": "Hincovce",
      "lat": 48.9666667,
      "lng": 20.7333333
    },
    {
      "cityName": "Hlinné",
      "lat": 48.95,
      "lng": 21.5833333
    },
    {
      "cityName": "Hodemark",
      "lat": 49.1833333,
      "lng": 20.5333333
    },
    {
      "cityName": "Hodkovce",
      "lat": 48.9833333,
      "lng": 20.7833333
    },
    {
      "cityName": "Holcikovce",
      "lat": 49.0166667,
      "lng": 21.7333333
    },
    {
      "cityName": "Holumnica",
      "lat": 49.2333333,
      "lng": 20.5333333
    },
    {
      "cityName": "Horný Smokovec",
      "lat": 49.15,
      "lng": 20.25
    },
    {
      "cityName": "Hostovice",
      "lat": 49.1166667,
      "lng": 22.15
    },
    {
      "cityName": "Hozelec",
      "lat": 49.0333333,
      "lng": 20.35
    },
    {
      "cityName": "Hrabkov",
      "lat": 48.9666667,
      "lng": 21.0166667
    },
    {
      "cityName": "Hrabovcik",
      "lat": 49.2833333,
      "lng": 21.5666667
    },
    {
      "cityName": "Hrabovec",
      "lat": 49.2666667,
      "lng": 21.3833333
    },
    {
      "cityName": "Hrabovec nad Laborcom",
      "lat": 49.1,
      "lng": 21.95
    },
    {
      "cityName": "Hrabske",
      "lat": 49.3333333,
      "lng": 21.0833333
    },
    {
      "cityName": "Hrabusice",
      "lat": 48.9833333,
      "lng": 20.4166667
    },
    {
      "cityName": "Hradisko",
      "lat": 49.0666667,
      "lng": 20.5333333
    },
    {
      "cityName": "Hrisovce",
      "lat": 48.95,
      "lng": 20.9166667
    },
    {
      "cityName": "Hrubov",
      "lat": 49.1,
      "lng": 21.8666667
    },
    {
      "cityName": "Hrusov",
      "lat": 48.9833333,
      "lng": 22.0166667
    },
    {
      "cityName": "Hudcovce",
      "lat": 48.9166667,
      "lng": 21.8
    },
    {
      "cityName": "Humenský Rokytov",
      "lat": 49.1166667,
      "lng": 21.9833333
    },
    {
      "cityName": "Huncovce",
      "lat": 49.1166667,
      "lng": 20.3833333
    },
    {
      "cityName": "Hunkovce",
      "lat": 49.35,
      "lng": 21.65
    },
    {
      "cityName": "Hutisko",
      "lat": 49.4,
      "lng": 21.25
    },
    {
      "cityName": "Hutka",
      "lat": 49.3833333,
      "lng": 21.4333333
    },
    {
      "cityName": "Huty",
      "lat": 49.4,
      "lng": 20.4333333
    },
    {
      "cityName": "Huviz",
      "lat": 48.9,
      "lng": 21.4333333
    },
    {
      "cityName": "Igló",
      "lat": 48.95,
      "lng": 20.5666667
    },
    {
      "cityName": "Iliasovce",
      "lat": 48.9833333,
      "lng": 20.5333333
    },
    {
      "cityName": "Isla",
      "lat": 49.0333333,
      "lng": 21.2833333
    },
    {
      "cityName": "Jablon",
      "lat": 49.0666667,
      "lng": 21.9833333
    },
    {
      "cityName": "Jablonov",
      "lat": 49.0166667,
      "lng": 20.7333333
    },
    {
      "cityName": "Jakobsau",
      "lat": 49.25,
      "lng": 20.7
    },
    {
      "cityName": "Jakovany",
      "lat": 49.15,
      "lng": 21.0666667
    },
    {
      "cityName": "Jakubovany",
      "lat": 49.1,
      "lng": 21.15
    },
    {
      "cityName": "Jakubova Vola",
      "lat": 49.1333333,
      "lng": 21.0166667
    },
    {
      "cityName": "Jakusovce",
      "lat": 49.15,
      "lng": 21.7666667
    },
    {
      "cityName": "Jalová",
      "lat": 49.05,
      "lng": 22.25
    },
    {
      "cityName": "Jamník",
      "lat": 48.95,
      "lng": 20.6666667
    },
    {
      "cityName": "Jankovce",
      "lat": 49.0666667,
      "lng": 21.8
    },
    {
      "cityName": "Janovce",
      "lat": 49.0166667,
      "lng": 20.4333333
    },
    {
      "cityName": "Janov",
      "lat": 48.9333333,
      "lng": 21.1833333
    },
    {
      "cityName": "Jarabina",
      "lat": 49.3333333,
      "lng": 20.6666667
    },
    {
      "cityName": "Jarovina",
      "lat": 49.2666667,
      "lng": 20.15
    },
    {
      "cityName": "Jarovnice",
      "lat": 49.05,
      "lng": 21.0666667
    },
    {
      "cityName": "Jasenovce",
      "lat": 49,
      "lng": 21.75
    },
    {
      "cityName": "Jastrabie",
      "lat": 48.95,
      "lng": 21.6166667
    },
    {
      "cityName": "Jedlinka",
      "lat": 49.4,
      "lng": 21.3666667
    },
    {
      "cityName": "Jezersko",
      "lat": 49.3,
      "lng": 20.3333333
    },
    {
      "cityName": "Jurkova Vola",
      "lat": 49.3166667,
      "lng": 21.5166667
    },
    {
      "cityName": "Jurské",
      "lat": 49.2,
      "lng": 20.5333333
    },
    {
      "cityName": "Juskova Vola",
      "lat": 48.8833333,
      "lng": 21.5666667
    },
    {
      "cityName": "Kace",
      "lat": 49.4166667,
      "lng": 20.7333333
    },
    {
      "cityName": "Kajna Ruska",
      "lat": 49.1166667,
      "lng": 21.8333333
    },
    {
      "cityName": "Kalava",
      "lat": 48.9333333,
      "lng": 20.8666667
    },
    {
      "cityName": "Kalenberk",
      "lat": 49.4,
      "lng": 20.3333333
    },
    {
      "cityName": "Kalinov",
      "lat": 49.3166667,
      "lng": 21.9333333
    },
    {
      "cityName": "Kalniste",
      "lat": 49.1333333,
      "lng": 21.4833333
    },
    {
      "cityName": "Kamenica",
      "lat": 49.2,
      "lng": 20.9666667
    },
    {
      "cityName": "Kamienka",
      "lat": 49.3333333,
      "lng": 20.6166667
    },
    {
      "cityName": "Kanas",
      "lat": 49.05,
      "lng": 21.2333333
    },
    {
      "cityName": "Kapisova",
      "lat": 49.3333333,
      "lng": 21.6
    },
    {
      "cityName": "Kapulsany",
      "lat": 49.05,
      "lng": 21.3333333
    },
    {
      "cityName": "Karná",
      "lat": 48.9833333,
      "lng": 21.8
    },
    {
      "cityName": "Käsmark",
      "lat": 49.1333333,
      "lng": 20.4333333
    },
    {
      "cityName": "Katun",
      "lat": 48.9833333,
      "lng": 20.7333333
    },
    {
      "cityName": "Kecerovské Pavlovce",
      "lat": 49.0333333,
      "lng": 21.45
    },
    {
      "cityName": "Keckovce",
      "lat": 49.3833333,
      "lng": 21.5166667
    },
    {
      "cityName": "Kelca",
      "lat": 49.05,
      "lng": 21.7
    },
    {
      "cityName": "Kelcanky",
      "lat": 49.0333333,
      "lng": 21.7166667
    },
    {
      "cityName": "Kelemes",
      "lat": 49.0166667,
      "lng": 21.2833333
    },
    {
      "cityName": "Kendice",
      "lat": 48.9166667,
      "lng": 21.25
    },
    {
      "cityName": "Kerestvej",
      "lat": 49.0333333,
      "lng": 21.3833333
    },
    {
      "cityName": "Kezmarske Zleby",
      "lat": 49.2,
      "lng": 20.3
    },
    {
      "cityName": "Kisseben",
      "lat": 49.1,
      "lng": 21.1
    },
    {
      "cityName": "Klcov",
      "lat": 49,
      "lng": 20.6666667
    },
    {
      "cityName": "Klembarok",
      "lat": 48.9333333,
      "lng": 21.0666667
    },
    {
      "cityName": "Kluknava",
      "lat": 48.9166667,
      "lng": 20.95
    },
    {
      "cityName": "Klusov",
      "lat": 49.25,
      "lng": 21.2666667
    },
    {
      "cityName": "Kl'usov-Zabava",
      "lat": 49.25,
      "lng": 21.25
    },
    {
      "cityName": "Kobylnice",
      "lat": 49.1,
      "lng": 21.55
    },
    {
      "cityName": "Kobyly",
      "lat": 49.2166667,
      "lng": 21.3
    },
    {
      "cityName": "Kochanovce",
      "lat": 48.95,
      "lng": 21.9333333
    },
    {
      "cityName": "Kojatice",
      "lat": 49,
      "lng": 21.1333333
    },
    {
      "cityName": "Kokosovce",
      "lat": 48.95,
      "lng": 21.3333333
    },
    {
      "cityName": "Kokyna",
      "lat": 49.0333333,
      "lng": 21.3666667
    },
    {
      "cityName": "Kolackov",
      "lat": 49.2666667,
      "lng": 20.6333333
    },
    {
      "cityName": "Kolbach",
      "lat": 49.0166667,
      "lng": 20.9333333
    },
    {
      "cityName": "Kolbachy",
      "lat": 49.0166667,
      "lng": 20.7666667
    },
    {
      "cityName": "Kolbovce",
      "lat": 49.1666667,
      "lng": 21.7166667
    },
    {
      "cityName": "Kolinovce",
      "lat": 48.9333333,
      "lng": 20.85
    },
    {
      "cityName": "Komárany",
      "lat": 48.9333333,
      "lng": 21.65
    },
    {
      "cityName": "Komárov",
      "lat": 49.2666667,
      "lng": 21.35
    },
    {
      "cityName": "Koprivnica",
      "lat": 49.1666667,
      "lng": 21.4
    },
    {
      "cityName": "Korejovce",
      "lat": 49.3666667,
      "lng": 21.65
    },
    {
      "cityName": "Korytné",
      "lat": 49.0166667,
      "lng": 20.85
    },
    {
      "cityName": "Kosarovce",
      "lat": 49.05,
      "lng": 21.7833333
    },
    {
      "cityName": "Koskovce",
      "lat": 49.05,
      "lng": 21.9666667
    },
    {
      "cityName": "Kozany",
      "lat": 49.2166667,
      "lng": 21.5
    },
    {
      "cityName": "Kozelec",
      "lat": 49.25,
      "lng": 20.8166667
    },
    {
      "cityName": "Kozuchovce",
      "lat": 49.3166667,
      "lng": 21.7
    },
    {
      "cityName": "Kracunovce",
      "lat": 49.1,
      "lng": 21.5
    },
    {
      "cityName": "Krajná Bystrá",
      "lat": 49.3833333,
      "lng": 21.6833333
    },
    {
      "cityName": "Krajná Pol'ana",
      "lat": 49.3666667,
      "lng": 21.6833333
    },
    {
      "cityName": "Krajná Porúbka",
      "lat": 49.4,
      "lng": 21.65
    },
    {
      "cityName": "Krajne Carno",
      "lat": 49.35,
      "lng": 21.6666667
    },
    {
      "cityName": "Kralova Studna",
      "lat": 49.3333333,
      "lng": 21.0166667
    },
    {
      "cityName": "Krásna Lúka",
      "lat": 49.2,
      "lng": 20.8166667
    },
    {
      "cityName": "Krásny Brod",
      "lat": 49.2333333,
      "lng": 21.9
    },
    {
      "cityName": "Kremná",
      "lat": 49.35,
      "lng": 20.7
    },
    {
      "cityName": "Krendzelovka",
      "lat": 49.3833333,
      "lng": 20.7166667
    },
    {
      "cityName": "Krig",
      "lat": 49.25,
      "lng": 20.45
    },
    {
      "cityName": "Krislovce",
      "lat": 49.1333333,
      "lng": 21.7333333
    },
    {
      "cityName": "Krivany",
      "lat": 49.1666667,
      "lng": 20.9166667
    },
    {
      "cityName": "Kriva Olka",
      "lat": 49.1333333,
      "lng": 21.8666667
    },
    {
      "cityName": "Krivé",
      "lat": 49.2833333,
      "lng": 21.15
    },
    {
      "cityName": "Krize",
      "lat": 49.25,
      "lng": 21.15
    },
    {
      "cityName": "Krizovany",
      "lat": 48.9833333,
      "lng": 21.05
    },
    {
      "cityName": "Krizova Ves",
      "lat": 49.1833333,
      "lng": 20.4833333
    },
    {
      "cityName": "Krompachi",
      "lat": 48.9166667,
      "lng": 20.8666667
    },
    {
      "cityName": "Krucov",
      "lat": 49.1166667,
      "lng": 21.6166667
    },
    {
      "cityName": "Krusinec",
      "lat": 49.2333333,
      "lng": 21.6666667
    },
    {
      "cityName": "Kruzlova",
      "lat": 49.35,
      "lng": 21.5833333
    },
    {
      "cityName": "Kruzlov",
      "lat": 49.3,
      "lng": 21.1333333
    },
    {
      "cityName": "Kucin",
      "lat": 49.2166667,
      "lng": 21.4666667
    },
    {
      "cityName": "Kudlovce",
      "lat": 48.95,
      "lng": 21.9166667
    },
    {
      "cityName": "Kuková",
      "lat": 49.1166667,
      "lng": 21.45
    },
    {
      "cityName": "Kupele Cerveny Klastor",
      "lat": 49.3833333,
      "lng": 20.4333333
    },
    {
      "cityName": "Kupele Spisska Bela",
      "lat": 49.1833333,
      "lng": 20.4666667
    },
    {
      "cityName": "Kurima",
      "lat": 49.2333333,
      "lng": 21.45
    },
    {
      "cityName": "Kurimany",
      "lat": 49,
      "lng": 20.55
    },
    {
      "cityName": "Kurimka",
      "lat": 49.3166667,
      "lng": 21.45
    },
    {
      "cityName": "Kurov",
      "lat": 49.3333333,
      "lng": 21.1333333
    },
    {
      "cityName": "Kvacany",
      "lat": 48.95,
      "lng": 21.0833333
    },
    {
      "cityName": "Kvakovce",
      "lat": 48.9833333,
      "lng": 21.6833333
    },
    {
      "cityName": "Kvasná Voda",
      "lat": 48.9666667,
      "lng": 21.1833333
    },
    {
      "cityName": "Kvetnica",
      "lat": 49.0166667,
      "lng": 20.2833333
    },
    {
      "cityName": "Kyjov",
      "lat": 49.2166667,
      "lng": 20.95
    },
    {
      "cityName": "Lackovce",
      "lat": 48.95,
      "lng": 21.95
    },
    {
      "cityName": "Lacnov",
      "lat": 49.0666667,
      "lng": 20.9333333
    },
    {
      "cityName": "Lada",
      "lat": 49.05,
      "lng": 21.3666667
    },
    {
      "cityName": "Ladomirová",
      "lat": 49.3333333,
      "lng": 21.6333333
    },
    {
      "cityName": "Lascov",
      "lat": 49.1666667,
      "lng": 21.4833333
    },
    {
      "cityName": "Lazany",
      "lat": 49.0333333,
      "lng": 21.1
    },
    {
      "cityName": "Lechnica",
      "lat": 49.3833333,
      "lng": 20.4
    },
    {
      "cityName": "Legnava",
      "lat": 49.3333333,
      "lng": 20.85
    },
    {
      "cityName": "Lenartov",
      "lat": 49.3166667,
      "lng": 21.0333333
    },
    {
      "cityName": "Lendak",
      "lat": 49.2333333,
      "lng": 20.35
    },
    {
      "cityName": "Lesicek",
      "lat": 48.9166667,
      "lng": 21.3833333
    },
    {
      "cityName": "Lesnica",
      "lat": 49.4,
      "lng": 20.4666667
    },
    {
      "cityName": "Letanovce",
      "lat": 48.9833333,
      "lng": 20.4666667
    },
    {
      "cityName": "Leutschau",
      "lat": 49.0333333,
      "lng": 20.6
    },
    {
      "cityName": "Licartovce",
      "lat": 48.8833333,
      "lng": 21.25
    },
    {
      "cityName": "Lieskovany",
      "lat": 48.9333333,
      "lng": 20.6166667
    },
    {
      "cityName": "Lieskovec",
      "lat": 48.95,
      "lng": 21.8166667
    },
    {
      "cityName": "Limanová",
      "lat": 49.3666667,
      "lng": 20.6333333
    },
    {
      "cityName": "Lipany",
      "lat": 49.15,
      "lng": 20.9666667
    },
    {
      "cityName": "Lipniky",
      "lat": 49.05,
      "lng": 21.4
    },
    {
      "cityName": "Lipová",
      "lat": 49.25,
      "lng": 21.4833333
    },
    {
      "cityName": "Lipovce",
      "lat": 49.05,
      "lng": 20.95
    },
    {
      "cityName": "Lomné",
      "lat": 49.1,
      "lng": 21.6333333
    },
    {
      "cityName": "Lomnicka",
      "lat": 49.25,
      "lng": 20.5666667
    },
    {
      "cityName": "Lopúchov",
      "lat": 49.1333333,
      "lng": 21.3666667
    },
    {
      "cityName": "lubica",
      "lat": 49.1166667,
      "lng": 20.45
    },
    {
      "cityName": "lubicke Kupele",
      "lat": 49.1333333,
      "lng": 20.5333333
    },
    {
      "cityName": "lubisa",
      "lat": 49,
      "lng": 21.95
    },
    {
      "cityName": "lubotin",
      "lat": 49.2666667,
      "lng": 20.8833333
    },
    {
      "cityName": "lubovec",
      "lat": 48.9166667,
      "lng": 21.1833333
    },
    {
      "cityName": "lubovnianske Kupele",
      "lat": 49.25,
      "lng": 20.7333333
    },
    {
      "cityName": "Lucka",
      "lat": 49.0333333,
      "lng": 20.7333333
    },
    {
      "cityName": "Lukacovce",
      "lat": 49.0333333,
      "lng": 21.7833333
    },
    {
      "cityName": "Lukavica",
      "lat": 49.2666667,
      "lng": 21.3333333
    },
    {
      "cityName": "Lukov",
      "lat": 49.3,
      "lng": 21.0833333
    },
    {
      "cityName": "lutina",
      "lat": 49.1666667,
      "lng": 21.05
    },
    {
      "cityName": "Luzanky",
      "lat": 48.9833333,
      "lng": 21.1333333
    },
    {
      "cityName": "Luzany",
      "lat": 49.1166667,
      "lng": 21.5
    },
    {
      "cityName": "lvov",
      "lat": 49.2666667,
      "lng": 21.1
    },
    {
      "cityName": "lvovska Huta",
      "lat": 49.25,
      "lng": 21.0333333
    },
    {
      "cityName": "Machalovce",
      "lat": 49.0166667,
      "lng": 20.45
    },
    {
      "cityName": "Majdan",
      "lat": 49.2,
      "lng": 21.0833333
    },
    {
      "cityName": "Majerka",
      "lat": 49.1833333,
      "lng": 20.55
    },
    {
      "cityName": "Majerovce",
      "lat": 48.9,
      "lng": 21.7166667
    },
    {
      "cityName": "Makovce",
      "lat": 49.2666667,
      "lng": 21.75
    },
    {
      "cityName": "Mala Domasa",
      "lat": 48.9666667,
      "lng": 21.7166667
    },
    {
      "cityName": "Mala Driecna",
      "lat": 49.3166667,
      "lng": 21.8
    },
    {
      "cityName": "Malá Franková",
      "lat": 49.3166667,
      "lng": 20.3
    },
    {
      "cityName": "Malá Lodina",
      "lat": 48.8833333,
      "lng": 21.1333333
    },
    {
      "cityName": "Mala Polana",
      "lat": 49.2833333,
      "lng": 21.8166667
    },
    {
      "cityName": "Malcov",
      "lat": 49.3,
      "lng": 21.0666667
    },
    {
      "cityName": "Maldur",
      "lat": 49.2333333,
      "lng": 20.4833333
    },
    {
      "cityName": "Malé Bukovce",
      "lat": 49.2666667,
      "lng": 21.7
    },
    {
      "cityName": "Male Staskovce",
      "lat": 49.2833333,
      "lng": 21.75
    },
    {
      "cityName": "Malyj Lipnik",
      "lat": 49.3333333,
      "lng": 20.8
    },
    {
      "cityName": "Maly Saris",
      "lat": 49.0166667,
      "lng": 21.1833333
    },
    {
      "cityName": "Malý Slavkov",
      "lat": 49.1333333,
      "lng": 20.3833333
    },
    {
      "cityName": "Malý Slivník",
      "lat": 49.1166667,
      "lng": 21.2666667
    },
    {
      "cityName": "Malý Sulín",
      "lat": 49.3666667,
      "lng": 20.7833333
    },
    {
      "cityName": "Margecany",
      "lat": 48.8833333,
      "lng": 21
    },
    {
      "cityName": "Marhan",
      "lat": 49.1666667,
      "lng": 21.4666667
    },
    {
      "cityName": "Maskovce",
      "lat": 49.0166667,
      "lng": 22
    },
    {
      "cityName": "Mataska",
      "lat": 49.0666667,
      "lng": 21.5833333
    },
    {
      "cityName": "Matejovce",
      "lat": 48.9166667,
      "lng": 20.6833333
    },
    {
      "cityName": "Matiasovce",
      "lat": 48.9333333,
      "lng": 21.75
    },
    {
      "cityName": "Matisova",
      "lat": 49.3166667,
      "lng": 20.7666667
    },
    {
      "cityName": "Matliary",
      "lat": 49.1833333,
      "lng": 20.3
    },
    {
      "cityName": "Matzdorf",
      "lat": 49.0833333,
      "lng": 20.3333333
    },
    {
      "cityName": "Mecedelovce",
      "lat": 49,
      "lng": 20.5
    },
    {
      "cityName": "Medzany",
      "lat": 49.05,
      "lng": 21.15
    },
    {
      "cityName": "Medzianky",
      "lat": 49.0333333,
      "lng": 21.4666667
    },
    {
      "cityName": "Medzibrodie",
      "lat": 49.4,
      "lng": 20.7666667
    },
    {
      "cityName": "Medzilaborce",
      "lat": 49.2666667,
      "lng": 21.9166667
    },
    {
      "cityName": "Mengusovce",
      "lat": 49.0666667,
      "lng": 20.15
    },
    {
      "cityName": "Mergeska",
      "lat": 49.2833333,
      "lng": 21.6166667
    },
    {
      "cityName": "Merník",
      "lat": 48.95,
      "lng": 21.65
    },
    {
      "cityName": "Mestisko",
      "lat": 49.25,
      "lng": 21.5833333
    },
    {
      "cityName": "Micakovce",
      "lat": 49.0833333,
      "lng": 21.5166667
    },
    {
      "cityName": "Michalany",
      "lat": 49.0666667,
      "lng": 21.1333333
    },
    {
      "cityName": "Michalok",
      "lat": 48.9833333,
      "lng": 21.6333333
    },
    {
      "cityName": "Michalov",
      "lat": 49.2666667,
      "lng": 21.25
    },
    {
      "cityName": "Michelsdorf",
      "lat": 49.05,
      "lng": 20.3333333
    },
    {
      "cityName": "Miklusovce",
      "lat": 48.9166667,
      "lng": 21.0833333
    },
    {
      "cityName": "Miková",
      "lat": 49.3,
      "lng": 21.8333333
    },
    {
      "cityName": "Mikulasov",
      "lat": 49.3833333,
      "lng": 21.4
    },
    {
      "cityName": "Milbach",
      "lat": 49.1,
      "lng": 20.3166667
    },
    {
      "cityName": "Minovce",
      "lat": 49.1333333,
      "lng": 21.65
    },
    {
      "cityName": "Mirkovce",
      "lat": 48.9,
      "lng": 21.3333333
    },
    {
      "cityName": "Mirola",
      "lat": 49.3166667,
      "lng": 21.7333333
    },
    {
      "cityName": "Mlynárovce",
      "lat": 49.25,
      "lng": 21.5333333
    },
    {
      "cityName": "Mlynceky",
      "lat": 49.1666667,
      "lng": 20.3833333
    },
    {
      "cityName": "Mnisek",
      "lat": 49.4166667,
      "lng": 20.7166667
    },
    {
      "cityName": "Mocarmany",
      "lat": 48.9166667,
      "lng": 21.2666667
    },
    {
      "cityName": "Mocidlany",
      "lat": 49.0666667,
      "lng": 21.0666667
    },
    {
      "cityName": "Mokroluh",
      "lat": 49.3,
      "lng": 21.2166667
    },
    {
      "cityName": "Mosurov",
      "lat": 49.1166667,
      "lng": 21.25
    },
    {
      "cityName": "Mrázovce",
      "lat": 49.1166667,
      "lng": 21.6833333
    },
    {
      "cityName": "Myslina",
      "lat": 48.95,
      "lng": 21.85
    },
    {
      "cityName": "Nadvej",
      "lat": 49.0833333,
      "lng": 21.3833333
    },
    {
      "cityName": "Nagov",
      "lat": 49.25,
      "lng": 21.95
    },
    {
      "cityName": "Narsany",
      "lat": 49.0833333,
      "lng": 21.0833333
    },
    {
      "cityName": "Nemcovce",
      "lat": 49.05,
      "lng": 21.3833333
    },
    {
      "cityName": "Nemesany",
      "lat": 49,
      "lng": 20.6833333
    },
    {
      "cityName": "Neu Schmecks",
      "lat": 49.1333333,
      "lng": 20.2166667
    },
    {
      "cityName": "Neu-Walddorf",
      "lat": 49.1166667,
      "lng": 20.2833333
    },
    {
      "cityName": "Nierese",
      "lat": 48.9,
      "lng": 21.3166667
    },
    {
      "cityName": "Nizna Jablonka",
      "lat": 49.1333333,
      "lng": 22.1
    },
    {
      "cityName": "Nizna Jedl'ova",
      "lat": 49.3333333,
      "lng": 21.5666667
    },
    {
      "cityName": "Nizna Olka",
      "lat": 49.15,
      "lng": 21.8333333
    },
    {
      "cityName": "Nizna Olsava",
      "lat": 49.15,
      "lng": 21.6333333
    },
    {
      "cityName": "Nizna Pisana",
      "lat": 49.3833333,
      "lng": 21.6
    },
    {
      "cityName": "Nizna Polanka",
      "lat": 49.4,
      "lng": 21.4
    },
    {
      "cityName": "Nizna Radvan",
      "lat": 49.1333333,
      "lng": 21.95
    },
    {
      "cityName": "Nizna Vladica",
      "lat": 49.2833333,
      "lng": 21.7833333
    },
    {
      "cityName": "Nizna Vola",
      "lat": 49.2166667,
      "lng": 21.3666667
    },
    {
      "cityName": "Nizne Cabiny",
      "lat": 49.1666667,
      "lng": 21.9166667
    },
    {
      "cityName": "Nizne Hagy",
      "lat": 49.1,
      "lng": 20.15
    },
    {
      "cityName": "Nizne Ladickovce",
      "lat": 49.0166667,
      "lng": 21.9166667
    },
    {
      "cityName": "Nizne Raslavice",
      "lat": 49.15,
      "lng": 21.3333333
    },
    {
      "cityName": "Nizne Repase",
      "lat": 49.0833333,
      "lng": 20.7166667
    },
    {
      "cityName": "Nizne Zbojne",
      "lat": 49.1333333,
      "lng": 22
    },
    {
      "cityName": "Nizni Komarnik",
      "lat": 49.3833333,
      "lng": 21.7
    },
    {
      "cityName": "Nizni Orlik",
      "lat": 49.3333333,
      "lng": 21.5333333
    },
    {
      "cityName": "Nizni Slavkov",
      "lat": 49.1,
      "lng": 20.85
    },
    {
      "cityName": "Nizny Tvarozec",
      "lat": 49.35,
      "lng": 21.1833333
    },
    {
      "cityName": "Nova lubovna",
      "lat": 49.2666667,
      "lng": 20.6833333
    },
    {
      "cityName": "Obisovce",
      "lat": 48.8666667,
      "lng": 21.25
    },
    {
      "cityName": "Obrucne",
      "lat": 49.3,
      "lng": 20.9833333
    },
    {
      "cityName": "Odorín",
      "lat": 48.9333333,
      "lng": 20.6333333
    },
    {
      "cityName": "Ohradzany",
      "lat": 49,
      "lng": 21.85
    },
    {
      "cityName": "Okruhlé",
      "lat": 49.2,
      "lng": 21.55
    },
    {
      "cityName": "Olcnava",
      "lat": 48.9333333,
      "lng": 20.75
    },
    {
      "cityName": "Olejníkov",
      "lat": 49.1833333,
      "lng": 21.0666667
    },
    {
      "cityName": "Olsavce",
      "lat": 49.2,
      "lng": 21.3833333
    },
    {
      "cityName": "Olsavica",
      "lat": 49.0833333,
      "lng": 20.75
    },
    {
      "cityName": "Olsavka",
      "lat": 48.9666667,
      "lng": 20.8333333
    },
    {
      "cityName": "Olsinkov",
      "lat": 49.2,
      "lng": 22.05
    },
    {
      "cityName": "Olsov",
      "lat": 49.1833333,
      "lng": 20.8833333
    },
    {
      "cityName": "Ondavka",
      "lat": 49.4333333,
      "lng": 21.35
    },
    {
      "cityName": "Ondrasovce",
      "lat": 48.9833333,
      "lng": 21.0833333
    },
    {
      "cityName": "Ordzoviany",
      "lat": 49.0333333,
      "lng": 20.7833333
    },
    {
      "cityName": "Orkucany",
      "lat": 49.0833333,
      "lng": 21.1166667
    },
    {
      "cityName": "Orlov",
      "lat": 49.2833333,
      "lng": 20.8666667
    },
    {
      "cityName": "Ortutova",
      "lat": 49.3,
      "lng": 21.45
    },
    {
      "cityName": "Osadné",
      "lat": 49.15,
      "lng": 22.1666667
    },
    {
      "cityName": "Osikov",
      "lat": 49.1666667,
      "lng": 21.2666667
    },
    {
      "cityName": "Ostrovany",
      "lat": 49.0666667,
      "lng": 21.1166667
    },
    {
      "cityName": "Ostroznica",
      "lat": 49.1,
      "lng": 22.2333333
    },
    {
      "cityName": "Osturna",
      "lat": 49.3333333,
      "lng": 20.2333333
    },
    {
      "cityName": "Ovcie",
      "lat": 48.9666667,
      "lng": 20.9833333
    },
    {
      "cityName": "Pacato",
      "lat": 49.1666667,
      "lng": 21.6833333
    },
    {
      "cityName": "Pakostov",
      "lat": 49.1,
      "lng": 21.8333333
    },
    {
      "cityName": "Palota",
      "lat": 49.2666667,
      "lng": 22
    },
    {
      "cityName": "Papín",
      "lat": 49.1,
      "lng": 22.0666667
    },
    {
      "cityName": "Parihuzovce",
      "lat": 49.1166667,
      "lng": 22.2
    },
    {
      "cityName": "Pavlany",
      "lat": 49.0666667,
      "lng": 20.7166667
    },
    {
      "cityName": "Pcoline",
      "lat": 49.0666667,
      "lng": 22.1666667
    },
    {
      "cityName": "Pecovska Nova Ves",
      "lat": 49.1333333,
      "lng": 21.05
    },
    {
      "cityName": "Peklo",
      "lat": 49.0833333,
      "lng": 20.6166667
    },
    {
      "cityName": "Petejovce",
      "lat": 49.0833333,
      "lng": 21.6666667
    },
    {
      "cityName": "Petkovce",
      "lat": 49.0166667,
      "lng": 21.6
    },
    {
      "cityName": "Petrova",
      "lat": 49.3833333,
      "lng": 21.1333333
    },
    {
      "cityName": "Petrovce",
      "lat": 49,
      "lng": 21.4833333
    },
    {
      "cityName": "Petrovenec",
      "lat": 49.15,
      "lng": 20.9833333
    },
    {
      "cityName": "Pichne",
      "lat": 49.0333333,
      "lng": 22.1333333
    },
    {
      "cityName": "Pikovce",
      "lat": 49.05,
      "lng": 20.4666667
    },
    {
      "cityName": "Pilhov",
      "lat": 49.4166667,
      "lng": 20.7
    },
    {
      "cityName": "Piskorovce",
      "lat": 49.1166667,
      "lng": 21.7333333
    },
    {
      "cityName": "Plavec nad Popradom",
      "lat": 49.2666667,
      "lng": 20.85
    },
    {
      "cityName": "Plavnica",
      "lat": 49.2833333,
      "lng": 20.7833333
    },
    {
      "cityName": "Podcicva",
      "lat": 48.9166667,
      "lng": 21.75
    },
    {
      "cityName": "Podhradík",
      "lat": 49.0166667,
      "lng": 21.35
    },
    {
      "cityName": "Podhradisko",
      "lat": 49.1333333,
      "lng": 21.2166667
    },
    {
      "cityName": "Podhrádok",
      "lat": 49.1833333,
      "lng": 20.9166667
    },
    {
      "cityName": "Podolínec",
      "lat": 49.2666667,
      "lng": 20.5333333
    },
    {
      "cityName": "Podpíla",
      "lat": 49.2666667,
      "lng": 20.8666667
    },
    {
      "cityName": "Podproc",
      "lat": 49.0666667,
      "lng": 20.7666667
    },
    {
      "cityName": "Podsadek",
      "lat": 49.3,
      "lng": 20.7166667
    },
    {
      "cityName": "Podspady",
      "lat": 49.2833333,
      "lng": 20.1833333
    },
    {
      "cityName": "Polana Velka",
      "lat": 49.0833333,
      "lng": 22.3166667
    },
    {
      "cityName": "Polanovce",
      "lat": 49.0333333,
      "lng": 20.85
    },
    {
      "cityName": "Poliakovce",
      "lat": 49.25,
      "lng": 21.4166667
    },
    {
      "cityName": "Poloma",
      "lat": 49.1666667,
      "lng": 20.8333333
    },
    {
      "cityName": "Pongrácovce",
      "lat": 49.0166667,
      "lng": 20.8166667
    },
    {
      "cityName": "Porúbka",
      "lat": 49.2,
      "lng": 21.4333333
    },
    {
      "cityName": "Potocky",
      "lat": 49.2166667,
      "lng": 21.7166667
    },
    {
      "cityName": "Potok",
      "lat": 49.35,
      "lng": 20.35
    },
    {
      "cityName": "Potoky",
      "lat": 49.25,
      "lng": 21.6333333
    },
    {
      "cityName": "Pramen Salvator",
      "lat": 49.05,
      "lng": 20.9666667
    },
    {
      "cityName": "Pravrovce",
      "lat": 49.2,
      "lng": 21.9833333
    },
    {
      "cityName": "Príkra",
      "lat": 49.3666667,
      "lng": 21.75
    },
    {
      "cityName": "Pritulany",
      "lat": 49.1333333,
      "lng": 21.7833333
    },
    {
      "cityName": "Proc",
      "lat": 49.1,
      "lng": 21.4
    },
    {
      "cityName": "Pstriná",
      "lat": 49.3,
      "lng": 21.75
    },
    {
      "cityName": "Pucak",
      "lat": 49.2,
      "lng": 21.7333333
    },
    {
      "cityName": "Pusovce",
      "lat": 49.0833333,
      "lng": 21.4166667
    },
    {
      "cityName": "Putnov",
      "lat": 49.2,
      "lng": 20.9166667
    },
    {
      "cityName": "Radacov",
      "lat": 48.9333333,
      "lng": 21.2
    },
    {
      "cityName": "Radoma",
      "lat": 49.2,
      "lng": 21.5666667
    },
    {
      "cityName": "Radvanovce",
      "lat": 49.05,
      "lng": 21.4666667
    },
    {
      "cityName": "Rafjovce",
      "lat": 49.05,
      "lng": 21.75
    },
    {
      "cityName": "Rakúsy",
      "lat": 49.1833333,
      "lng": 20.3833333
    },
    {
      "cityName": "Raslavice",
      "lat": 49.15,
      "lng": 21.3166667
    },
    {
      "cityName": "Ratvaj",
      "lat": 49.1166667,
      "lng": 21.2
    },
    {
      "cityName": "Regetovka",
      "lat": 49.4166667,
      "lng": 21.2833333
    },
    {
      "cityName": "Remeniny",
      "lat": 49.0333333,
      "lng": 21.55
    },
    {
      "cityName": "Rencisov",
      "lat": 49.1,
      "lng": 20.9666667
    },
    {
      "cityName": "Resov",
      "lat": 49.2333333,
      "lng": 21.3333333
    },
    {
      "cityName": "Richnava",
      "lat": 48.9333333,
      "lng": 20.9166667
    },
    {
      "cityName": "Richvald",
      "lat": 49.2833333,
      "lng": 21.2
    },
    {
      "cityName": "Rissdorf",
      "lat": 49.0833333,
      "lng": 20.5166667
    },
    {
      "cityName": "Rohoznik",
      "lat": 49.1166667,
      "lng": 21.7666667
    },
    {
      "cityName": "Rokycany",
      "lat": 48.9666667,
      "lng": 21.15
    },
    {
      "cityName": "Rokytovce",
      "lat": 49.2666667,
      "lng": 21.8833333
    },
    {
      "cityName": "Rokytov",
      "lat": 49.1,
      "lng": 21.9833333
    },
    {
      "cityName": "Rolova Huta",
      "lat": 48.8833333,
      "lng": 21.05
    },
    {
      "cityName": "Roskovce",
      "lat": 49.0166667,
      "lng": 20.65
    },
    {
      "cityName": "Roskoviany",
      "lat": 49.1333333,
      "lng": 20.9833333
    },
    {
      "cityName": "Roztoky",
      "lat": 49.3833333,
      "lng": 21.4833333
    },
    {
      "cityName": "Rudlov",
      "lat": 48.9166667,
      "lng": 21.5666667
    },
    {
      "cityName": "Ruská Nová Ves",
      "lat": 48.9833333,
      "lng": 21.3333333
    },
    {
      "cityName": "Ruská Poruba",
      "lat": 49.15,
      "lng": 21.8
    },
    {
      "cityName": "Ruska Vola",
      "lat": 49.1,
      "lng": 21.6
    },
    {
      "cityName": "Ruske Peklany",
      "lat": 48.9,
      "lng": 21.2
    },
    {
      "cityName": "Ruské",
      "lat": 49.1166667,
      "lng": 22.35
    },
    {
      "cityName": "Ruský Kazimír",
      "lat": 48.9333333,
      "lng": 21.6833333
    },
    {
      "cityName": "Sabinovské Dvory",
      "lat": 49.15,
      "lng": 21.1
    },
    {
      "cityName": "Salgovik",
      "lat": 49,
      "lng": 21.2833333
    },
    {
      "cityName": "Sambron",
      "lat": 49.2166667,
      "lng": 20.75
    },
    {
      "cityName": "Sandal",
      "lat": 49.1833333,
      "lng": 21.6166667
    },
    {
      "cityName": "Sapinec",
      "lat": 49.2,
      "lng": 21.5333333
    },
    {
      "cityName": "Sarbov",
      "lat": 49.4166667,
      "lng": 21.6333333
    },
    {
      "cityName": "Sarisske Dravce",
      "lat": 49.1666667,
      "lng": 20.8666667
    },
    {
      "cityName": "Sarisske Jastrabie",
      "lat": 49.25,
      "lng": 20.9166667
    },
    {
      "cityName": "Sarisske Luky",
      "lat": 49.0166667,
      "lng": 21.2666667
    },
    {
      "cityName": "Sarisske Sokolovce",
      "lat": 49.1166667,
      "lng": 21.1666667
    },
    {
      "cityName": "Sarissky St'avnik",
      "lat": 49.2333333,
      "lng": 21.5666667
    },
    {
      "cityName": "Sedikart",
      "lat": 49.0833333,
      "lng": 21.2666667
    },
    {
      "cityName": "Sedlice",
      "lat": 48.9166667,
      "lng": 21.1333333
    },
    {
      "cityName": "Semetkovce",
      "lat": 49.3,
      "lng": 21.6666667
    },
    {
      "cityName": "Sengetov",
      "lat": 49.0333333,
      "lng": 21.3333333
    },
    {
      "cityName": "Siba",
      "lat": 49.2333333,
      "lng": 21.2333333
    },
    {
      "cityName": "Sindliar",
      "lat": 49.0333333,
      "lng": 20.95
    },
    {
      "cityName": "Siroke",
      "lat": 49,
      "lng": 20.95
    },
    {
      "cityName": "Sitnik",
      "lat": 49.1833333,
      "lng": 21.6666667
    },
    {
      "cityName": "Skrabské",
      "lat": 49.0166667,
      "lng": 21.5833333
    },
    {
      "cityName": "Slatvina",
      "lat": 48.9666667,
      "lng": 20.85
    },
    {
      "cityName": "Sliezsky Dom",
      "lat": 49.15,
      "lng": 20.1666667
    },
    {
      "cityName": "Slovenska Kajna",
      "lat": 48.9666667,
      "lng": 21.7
    },
    {
      "cityName": "Slovenská Ves",
      "lat": 49.2333333,
      "lng": 20.4333333
    },
    {
      "cityName": "Slovenská Volová",
      "lat": 48.9833333,
      "lng": 21.85
    },
    {
      "cityName": "Slovenské Krivé",
      "lat": 49.0666667,
      "lng": 22.0166667
    },
    {
      "cityName": "Slovensky Zipov",
      "lat": 48.9833333,
      "lng": 21.5833333
    },
    {
      "cityName": "Smilno",
      "lat": 49.3833333,
      "lng": 21.35
    },
    {
      "cityName": "Smizany",
      "lat": 48.9666667,
      "lng": 20.5333333
    },
    {
      "cityName": "Smolník",
      "lat": 49.1,
      "lng": 22.2833333
    },
    {
      "cityName": "Snakov",
      "lat": 49.3166667,
      "lng": 21.05
    },
    {
      "cityName": "Sobos",
      "lat": 49.15,
      "lng": 21.55
    },
    {
      "cityName": "Solivar",
      "lat": 48.9833333,
      "lng": 21.2666667
    },
    {
      "cityName": "Solna Bana",
      "lat": 48.9833333,
      "lng": 21.2833333
    },
    {
      "cityName": "Solník",
      "lat": 49.2166667,
      "lng": 21.9166667
    },
    {
      "cityName": "Sol",
      "lat": 48.9333333,
      "lng": 21.6
    },
    {
      "cityName": "Sopkovce",
      "lat": 49.0166667,
      "lng": 21.8666667
    },
    {
      "cityName": "Spiskie Podhradie",
      "lat": 49,
      "lng": 20.75
    },
    {
      "cityName": "Spisska Teplica",
      "lat": 49.05,
      "lng": 20.25
    },
    {
      "cityName": "Spisske Hanusovce",
      "lat": 49.3333333,
      "lng": 20.35
    },
    {
      "cityName": "Spisske Vlachy",
      "lat": 48.95,
      "lng": 20.8
    },
    {
      "cityName": "Spissky Hrusov",
      "lat": 48.95,
      "lng": 20.7166667
    },
    {
      "cityName": "Spissky Stiavnik",
      "lat": 49,
      "lng": 20.3666667
    },
    {
      "cityName": "Spissky Stvrtok",
      "lat": 49,
      "lng": 20.4666667
    },
    {
      "cityName": "Stara lubovna",
      "lat": 49.3,
      "lng": 20.7
    },
    {
      "cityName": "Starina",
      "lat": 49.0666667,
      "lng": 22.2666667
    },
    {
      "cityName": "Stebnícka Huta",
      "lat": 49.4166667,
      "lng": 21.25
    },
    {
      "cityName": "Stebník",
      "lat": 49.3833333,
      "lng": 21.2666667
    },
    {
      "cityName": "Stefanovce",
      "lat": 48.9666667,
      "lng": 21.7833333
    },
    {
      "cityName": "Stefurov",
      "lat": 49.1833333,
      "lng": 21.5
    },
    {
      "cityName": "Stelbach",
      "lat": 49.15,
      "lng": 20.7833333
    },
    {
      "cityName": "Sterkovce",
      "lat": 49.2166667,
      "lng": 21.9833333
    },
    {
      "cityName": "Strazky nad Popradom",
      "lat": 49.1666667,
      "lng": 20.45
    },
    {
      "cityName": "Strocin",
      "lat": 49.2666667,
      "lng": 21.6
    },
    {
      "cityName": "Stropkov",
      "lat": 49.2,
      "lng": 21.65
    },
    {
      "cityName": "Stulany",
      "lat": 49.15,
      "lng": 21.4
    },
    {
      "cityName": "Suchá Dolina",
      "lat": 48.9166667,
      "lng": 21.15
    },
    {
      "cityName": "Suchá",
      "lat": 49.3166667,
      "lng": 21.7666667
    },
    {
      "cityName": "Sukov",
      "lat": 49.2166667,
      "lng": 21.8833333
    },
    {
      "cityName": "Sulín",
      "lat": 49.3666667,
      "lng": 20.75
    },
    {
      "cityName": "Svabovce",
      "lat": 49.0333333,
      "lng": 20.3666667
    },
    {
      "cityName": "Svaby",
      "lat": 48.9666667,
      "lng": 21.2666667
    },
    {
      "cityName": "Svaty dur",
      "lat": 49.0833333,
      "lng": 21.2
    },
    {
      "cityName": "Sverzov",
      "lat": 49.3333333,
      "lng": 21.1666667
    },
    {
      "cityName": "Svetlice",
      "lat": 49.1666667,
      "lng": 22.0333333
    },
    {
      "cityName": "Svidnicka",
      "lat": 49.3833333,
      "lng": 21.5666667
    },
    {
      "cityName": "Svidník",
      "lat": 49.3,
      "lng": 21.5666667
    },
    {
      "cityName": "Svinia",
      "lat": 49.0166667,
      "lng": 21.1333333
    },
    {
      "cityName": "Svit",
      "lat": 49.0666667,
      "lng": 20.2
    },
    {
      "cityName": "Tarnov",
      "lat": 49.3166667,
      "lng": 21.1666667
    },
    {
      "cityName": "Tatranská Lomnica",
      "lat": 49.1666667,
      "lng": 20.2833333
    },
    {
      "cityName": "Tatranská Polianka",
      "lat": 49.1166667,
      "lng": 20.1833333
    },
    {
      "cityName": "Teriakovce",
      "lat": 48.9833333,
      "lng": 21.3166667
    },
    {
      "cityName": "Terna",
      "lat": 49.1166667,
      "lng": 21.2333333
    },
    {
      "cityName": "Tokajík",
      "lat": 49.1166667,
      "lng": 21.7166667
    },
    {
      "cityName": "Topolovka",
      "lat": 48.9166667,
      "lng": 21.8166667
    },
    {
      "cityName": "Toporec",
      "lat": 49.2666667,
      "lng": 20.5
    },
    {
      "cityName": "Torysa",
      "lat": 49.1666667,
      "lng": 20.8833333
    },
    {
      "cityName": "Torysky",
      "lat": 49.1,
      "lng": 20.6833333
    },
    {
      "cityName": "Tovarné",
      "lat": 48.9166667,
      "lng": 21.7666667
    },
    {
      "cityName": "Trocany",
      "lat": 49.1833333,
      "lng": 21.3333333
    },
    {
      "cityName": "Tuhrina",
      "lat": 48.9,
      "lng": 21.4166667
    },
    {
      "cityName": "Tulcik",
      "lat": 49.0833333,
      "lng": 21.3
    },
    {
      "cityName": "Turany nad Ondavou",
      "lat": 49.1,
      "lng": 21.6666667
    },
    {
      "cityName": "Turcovce",
      "lat": 49.05,
      "lng": 21.85
    },
    {
      "cityName": "Udavské",
      "lat": 48.9833333,
      "lng": 21.9666667
    },
    {
      "cityName": "Údol",
      "lat": 49.3,
      "lng": 20.8166667
    },
    {
      "cityName": "Uloza",
      "lat": 49.05,
      "lng": 20.65
    },
    {
      "cityName": "Uzovce",
      "lat": 49.0833333,
      "lng": 21.1833333
    },
    {
      "cityName": "Uzovske Peklany",
      "lat": 49.0833333,
      "lng": 21.0333333
    },
    {
      "cityName": "Uzovsky Salgov",
      "lat": 49.1,
      "lng": 21.0666667
    },
    {
      "cityName": "Vagrinec",
      "lat": 49.3166667,
      "lng": 21.6333333
    },
    {
      "cityName": "Valentovce",
      "lat": 49.1833333,
      "lng": 21.9666667
    },
    {
      "cityName": "Valkovce",
      "lat": 49.1666667,
      "lng": 21.5333333
    },
    {
      "cityName": "Valkov",
      "lat": 49.0666667,
      "lng": 21.6666667
    },
    {
      "cityName": "Vaniskovce",
      "lat": 49.1666667,
      "lng": 21.3
    },
    {
      "cityName": "Vápeník",
      "lat": 49.4,
      "lng": 21.5333333
    },
    {
      "cityName": "Varadka",
      "lat": 49.4166667,
      "lng": 21.3833333
    },
    {
      "cityName": "Varechovce",
      "lat": 49.2333333,
      "lng": 21.8
    },
    {
      "cityName": "Vavrinec",
      "lat": 49.05,
      "lng": 21.6
    },
    {
      "cityName": "Velikij Lipnik",
      "lat": 49.3666667,
      "lng": 20.5166667
    },
    {
      "cityName": "Velka Domasa",
      "lat": 49.0166667,
      "lng": 21.7166667
    },
    {
      "cityName": "Velka Frankova",
      "lat": 49.3333333,
      "lng": 20.3
    },
    {
      "cityName": "Velka Lesna",
      "lat": 49.3333333,
      "lng": 20.45
    },
    {
      "cityName": "Velka Lodina",
      "lat": 48.8666667,
      "lng": 21.1666667
    },
    {
      "cityName": "Velka",
      "lat": 49.0666667,
      "lng": 20.2833333
    },
    {
      "cityName": "Velke Bukovce",
      "lat": 49.2666667,
      "lng": 21.7166667
    },
    {
      "cityName": "Velkrop",
      "lat": 49.2333333,
      "lng": 21.75
    },
    {
      "cityName": "Velky Saris",
      "lat": 49.05,
      "lng": 21.2
    },
    {
      "cityName": "Velky Slivnik",
      "lat": 49.1166667,
      "lng": 21.2833333
    },
    {
      "cityName": "Venecia",
      "lat": 49.2833333,
      "lng": 21.0833333
    },
    {
      "cityName": "Vislava",
      "lat": 49.2833333,
      "lng": 21.6666667
    },
    {
      "cityName": "Vitazovce",
      "lat": 49.0166667,
      "lng": 21.8
    },
    {
      "cityName": "Vitaz",
      "lat": 48.9666667,
      "lng": 20.95
    },
    {
      "cityName": "Vítkovce",
      "lat": 48.9333333,
      "lng": 20.7333333
    },
    {
      "cityName": "Vkotline",
      "lat": 49.2333333,
      "lng": 20.3333333
    },
    {
      "cityName": "Vlaca",
      "lat": 49.05,
      "lng": 21.5166667
    },
    {
      "cityName": "Vlkovce",
      "lat": 49.05,
      "lng": 20.5
    },
    {
      "cityName": "Vojkovce",
      "lat": 48.95,
      "lng": 20.8666667
    },
    {
      "cityName": "Vojtovce",
      "lat": 49.2,
      "lng": 21.6833333
    },
    {
      "cityName": "Volica",
      "lat": 49.15,
      "lng": 21.9333333
    },
    {
      "cityName": "Votrubova Chata",
      "lat": 49.2333333,
      "lng": 20.2166667
    },
    {
      "cityName": "Vranov nad Toplou",
      "lat": 48.9,
      "lng": 21.6833333
    },
    {
      "cityName": "Vydran",
      "lat": 49.2833333,
      "lng": 21.9333333
    },
    {
      "cityName": "Vydrník",
      "lat": 49,
      "lng": 20.4166667
    },
    {
      "cityName": "Vydumanec",
      "lat": 48.9833333,
      "lng": 21.2
    },
    {
      "cityName": "Vyduma",
      "lat": 49.0333333,
      "lng": 21.5333333
    },
    {
      "cityName": "Vygoda",
      "lat": 49.2666667,
      "lng": 20.4333333
    },
    {
      "cityName": "Výrava",
      "lat": 49.2,
      "lng": 22
    },
    {
      "cityName": "Vyskovce",
      "lat": 49.25,
      "lng": 21.6666667
    },
    {
      "cityName": "Vysna Jablonka",
      "lat": 49.15,
      "lng": 22.1166667
    },
    {
      "cityName": "Vysna Jedlova",
      "lat": 49.35,
      "lng": 21.5333333
    },
    {
      "cityName": "Vysna Olka",
      "lat": 49.15,
      "lng": 21.85
    },
    {
      "cityName": "Vysna Olsava",
      "lat": 49.1666667,
      "lng": 21.6
    },
    {
      "cityName": "Vysna Pisana",
      "lat": 49.4,
      "lng": 21.6166667
    },
    {
      "cityName": "Vysna Polanka",
      "lat": 49.4333333,
      "lng": 21.3666667
    },
    {
      "cityName": "Vysna Radvan",
      "lat": 49.1333333,
      "lng": 21.9333333
    },
    {
      "cityName": "Vysna Sebastova",
      "lat": 49.0166667,
      "lng": 21.3333333
    },
    {
      "cityName": "Vysna Sitnica",
      "lat": 49.1,
      "lng": 21.8
    },
    {
      "cityName": "Vysna Vladica",
      "lat": 49.3,
      "lng": 21.7833333
    },
    {
      "cityName": "Vysna Vola",
      "lat": 49.25,
      "lng": 21.3666667
    },
    {
      "cityName": "Vysne Cabiny",
      "lat": 49.1833333,
      "lng": 21.9
    },
    {
      "cityName": "Vysne Hagy",
      "lat": 49.1166667,
      "lng": 20.1333333
    },
    {
      "cityName": "Vysne Ladickovce",
      "lat": 49.0333333,
      "lng": 21.9
    },
    {
      "cityName": "Vysne Repase",
      "lat": 49.0666667,
      "lng": 20.6833333
    },
    {
      "cityName": "Vysnie Slavkov",
      "lat": 49.0666667,
      "lng": 20.8666667
    },
    {
      "cityName": "Vysni Komarnik",
      "lat": 49.4,
      "lng": 21.7166667
    },
    {
      "cityName": "Vysni Orlik",
      "lat": 49.35,
      "lng": 21.5
    },
    {
      "cityName": "Vysny Hrabovec",
      "lat": 49.0833333,
      "lng": 21.7
    },
    {
      "cityName": "Vysny Krucov",
      "lat": 49.1666667,
      "lng": 21.1
    },
    {
      "cityName": "Vysny Tarbaj",
      "lat": 49.0833333,
      "lng": 21.5333333
    },
    {
      "cityName": "Vysny Tvarozec",
      "lat": 49.3833333,
      "lng": 21.2
    },
    {
      "cityName": "Vysoká",
      "lat": 49.1333333,
      "lng": 20.8833333
    },
    {
      "cityName": "Zakarovce",
      "lat": 48.8833333,
      "lng": 20.9333333
    },
    {
      "cityName": "Zakovce",
      "lat": 49.0833333,
      "lng": 20.4
    },
    {
      "cityName": "Zalobin",
      "lat": 48.9666667,
      "lng": 21.7333333
    },
    {
      "cityName": "Zámutov",
      "lat": 48.9,
      "lng": 21.5666667
    },
    {
      "cityName": "Závada",
      "lat": 49.0666667,
      "lng": 20.65
    },
    {
      "cityName": "Závadka",
      "lat": 48.9333333,
      "lng": 21.85
    },
    {
      "cityName": "Závodie",
      "lat": 49.3833333,
      "lng": 20.7666667
    },
    {
      "cityName": "Zborov",
      "lat": 49.3666667,
      "lng": 21.3
    },
    {
      "cityName": "Zbudská Belá",
      "lat": 49.15,
      "lng": 21.95
    },
    {
      "cityName": "Zbudské Dlhé",
      "lat": 49.0833333,
      "lng": 21.9666667
    },
    {
      "cityName": "Zdiar",
      "lat": 49.1333333,
      "lng": 20.7333333
    },
    {
      "cityName": "Zegna",
      "lat": 48.9166667,
      "lng": 21.35
    },
    {
      "cityName": "Zehra",
      "lat": 48.9833333,
      "lng": 20.8
    },
    {
      "cityName": "Zelmanovce",
      "lat": 49.1166667,
      "lng": 21.4333333
    },
    {
      "cityName": "Zimna Studna",
      "lat": 49.0666667,
      "lng": 21.3833333
    },
    {
      "cityName": "Zipov",
      "lat": 48.9666667,
      "lng": 21.1
    },
    {
      "cityName": "Zlata Bana",
      "lat": 48.95,
      "lng": 21.4333333
    },
    {
      "cityName": "Zlaté",
      "lat": 49.3333333,
      "lng": 21.2
    },
    {
      "cityName": "Zlatník",
      "lat": 48.9666667,
      "lng": 21.55
    },
    {
      "cityName": "Zubné",
      "lat": 49.05,
      "lng": 22.0666667
    },
    {
      "cityName": "Zupcany",
      "lat": 49.0166667,
      "lng": 21.1666667
    },
    {
      "cityName": "Zvala",
      "lat": 49.1333333,
      "lng": 22.2333333
    }
  ]
}