{
  "name": "Colon",
  "cities": [
    {
      "cityName": "Abajo",
      "lat": 15.7333333,
      "lng": -86.1166667
    },
    {
      "cityName": "Achiote",
      "lat": 15.5666667,
      "lng": -86.1833333
    },
    {
      "cityName": "Agua Caliente",
      "lat": 15.85,
      "lng": -85.2
    },
    {
      "cityName": "Agua Limpia",
      "lat": 15.85,
      "lng": -85.7666667
    },
    {
      "cityName": "Agua Zarca",
      "lat": 15.6833333,
      "lng": -85.25
    },
    {
      "cityName": "Aída",
      "lat": 15.6166667,
      "lng": -86.3833333
    },
    {
      "cityName": "Aída Trovatore",
      "lat": 15.6333333,
      "lng": -86.3166667
    },
    {
      "cityName": "Amapala",
      "lat": 15.85,
      "lng": -85.55
    },
    {
      "cityName": "Amarillo",
      "lat": 15.8166667,
      "lng": -85.1666667
    },
    {
      "cityName": "Antigual",
      "lat": 15.75,
      "lng": -85.7833333
    },
    {
      "cityName": "Anzuelo",
      "lat": 15.7833333,
      "lng": -85.0833333
    },
    {
      "cityName": "Atascosa",
      "lat": 15.7333333,
      "lng": -86.1
    },
    {
      "cityName": "Bacala",
      "lat": 15.95,
      "lng": -85.0166667
    },
    {
      "cityName": "Bado Ancho",
      "lat": 15.4833333,
      "lng": -86.0333333
    },
    {
      "cityName": "Balfate",
      "lat": 15.7166667,
      "lng": -86.2833333
    },
    {
      "cityName": "Bambú",
      "lat": 15.85,
      "lng": -86.2833333
    },
    {
      "cityName": "Banda del Norte",
      "lat": 16.0166667,
      "lng": -85.9333333
    },
    {
      "cityName": "Barra de Aguán",
      "lat": 15.9666667,
      "lng": -85.75
    },
    {
      "cityName": "Barra de Chapagua",
      "lat": 15.9833333,
      "lng": -85.7833333
    },
    {
      "cityName": "Barranco",
      "lat": 15.6166667,
      "lng": -85.2666667
    },
    {
      "cityName": "Barranco Blanco",
      "lat": 16,
      "lng": -85.8666667
    },
    {
      "cityName": "Batalla",
      "lat": 16,
      "lng": -85.0333333
    },
    {
      "cityName": "Belfate",
      "lat": 15.8,
      "lng": -86.4166667
    },
    {
      "cityName": "Betulia",
      "lat": 15.9166667,
      "lng": -86.1666667
    },
    {
      "cityName": "Boca de Hule",
      "lat": 15.5,
      "lng": -85.55
    },
    {
      "cityName": "Bonito Oriental",
      "lat": 15.7333333,
      "lng": -85.7333333
    },
    {
      "cityName": "Briche Grande",
      "lat": 15.7666667,
      "lng": -85.85
    },
    {
      "cityName": "Bucara",
      "lat": 15.8666667,
      "lng": -85.0666667
    },
    {
      "cityName": "Buena Vista",
      "lat": 15.6166667,
      "lng": -85.0333333
    },
    {
      "cityName": "Buenos Aires",
      "lat": 15.9166667,
      "lng": -85.2166667
    },
    {
      "cityName": "Caballería",
      "lat": 15.6,
      "lng": -86.2166667
    },
    {
      "cityName": "Caldera",
      "lat": 16,
      "lng": -85.1166667
    },
    {
      "cityName": "Camacho",
      "lat": 15.9833333,
      "lng": -85.0166667
    },
    {
      "cityName": "Campamento",
      "lat": 15.9166667,
      "lng": -86.0333333
    },
    {
      "cityName": "Canal",
      "lat": 15.95,
      "lng": -85.85
    },
    {
      "cityName": "Canales",
      "lat": 15.7,
      "lng": -84.8666667
    },
    {
      "cityName": "Candelaria",
      "lat": 15.6,
      "lng": -86.2833333
    },
    {
      "cityName": "Cándido",
      "lat": 15.8,
      "lng": -86.0833333
    },
    {
      "cityName": "Caserío Vuelta Grande",
      "lat": 15.95,
      "lng": -85.7666667
    },
    {
      "cityName": "Castillo",
      "lat": 15.8333333,
      "lng": -85.1666667
    },
    {
      "cityName": "Casuna",
      "lat": 15.85,
      "lng": -85.2333333
    },
    {
      "cityName": "Cauca",
      "lat": 15.5333333,
      "lng": -86.1166667
    },
    {
      "cityName": "Cayo Campo",
      "lat": 15.6666667,
      "lng": -86.0666667
    },
    {
      "cityName": "Ceibita",
      "lat": 15.6333333,
      "lng": -86.0333333
    },
    {
      "cityName": "Chacalapa",
      "lat": 15.7166667,
      "lng": -86.1833333
    },
    {
      "cityName": "Chapagua",
      "lat": 15.8333333,
      "lng": -85.7833333
    },
    {
      "cityName": "Chichiguite",
      "lat": 15.7,
      "lng": -86.2
    },
    {
      "cityName": "Chiquero",
      "lat": 15.85,
      "lng": -85.0833333
    },
    {
      "cityName": "Chontales",
      "lat": 16.0166667,
      "lng": -85.9833333
    },
    {
      "cityName": "Churrusquera",
      "lat": 15.7,
      "lng": -86.2666667
    },
    {
      "cityName": "Ciriboya",
      "lat": 15.9166667,
      "lng": -85.2333333
    },
    {
      "cityName": "Cirila",
      "lat": 15.8333333,
      "lng": -85.15
    },
    {
      "cityName": "Cocalito",
      "lat": 16,
      "lng": -85.1333333
    },
    {
      "cityName": "Coco",
      "lat": 15.7833333,
      "lng": -86.0833333
    },
    {
      "cityName": "Colima",
      "lat": 15.65,
      "lng": -86.0833333
    },
    {
      "cityName": "Colonia del Aguán",
      "lat": 15.8666667,
      "lng": -85.8
    },
    {
      "cityName": "Concepción",
      "lat": 15.6333333,
      "lng": -86.05
    },
    {
      "cityName": "Copén",
      "lat": 15.6166667,
      "lng": -85.1833333
    },
    {
      "cityName": "Copete",
      "lat": 15.5666667,
      "lng": -86.2166667
    },
    {
      "cityName": "Cuyamel",
      "lat": 15.7666667,
      "lng": -85.1666667
    },
    {
      "cityName": "Dereza",
      "lat": 15.9166667,
      "lng": -85.8666667
    },
    {
      "cityName": "Donel",
      "lat": 15.9833333,
      "lng": -85.0666667
    },
    {
      "cityName": "Durango",
      "lat": 15.8333333,
      "lng": -85.8166667
    },
    {
      "cityName": "El Barro",
      "lat": 15.7,
      "lng": -85.95
    },
    {
      "cityName": "El Cayo",
      "lat": 15.55,
      "lng": -86.0833333
    },
    {
      "cityName": "El Chorro",
      "lat": 15.65,
      "lng": -86.3833333
    },
    {
      "cityName": "El Dorado",
      "lat": 15.65,
      "lng": -85.2666667
    },
    {
      "cityName": "El Establo",
      "lat": 15.9,
      "lng": -85.9666667
    },
    {
      "cityName": "El Guasmal",
      "lat": 15.5833333,
      "lng": -86.0833333
    },
    {
      "cityName": "El Higuerito",
      "lat": 15.8333333,
      "lng": -86.0166667
    },
    {
      "cityName": "Elíxir",
      "lat": 15.4833333,
      "lng": -86.3
    },
    {
      "cityName": "El Jaguillo",
      "lat": 15.4666667,
      "lng": -86.2
    },
    {
      "cityName": "El Limonal",
      "lat": 15.9,
      "lng": -85.0166667
    },
    {
      "cityName": "El Manchón",
      "lat": 15.7666667,
      "lng": -85.7
    },
    {
      "cityName": "El Nansal",
      "lat": 15.7666667,
      "lng": -86.1666667
    },
    {
      "cityName": "El Nato",
      "lat": 15.7,
      "lng": -85.2333333
    },
    {
      "cityName": "El Paso",
      "lat": 15.8,
      "lng": -85.7833333
    },
    {
      "cityName": "El Sastre",
      "lat": 15.6666667,
      "lng": -86.2833333
    },
    {
      "cityName": "El Urraco",
      "lat": 15.9,
      "lng": -85.2833333
    },
    {
      "cityName": "El Venado",
      "lat": 15.85,
      "lng": -85.2166667
    },
    {
      "cityName": "El Way",
      "lat": 15.9833333,
      "lng": -85.15
    },
    {
      "cityName": "El Zapote",
      "lat": 15.5333333,
      "lng": -86.05
    },
    {
      "cityName": "Empalme",
      "lat": 16.0333333,
      "lng": -85.9666667
    },
    {
      "cityName": "Esperanza",
      "lat": 15.9,
      "lng": -86.2333333
    },
    {
      "cityName": "Farallanes",
      "lat": 15.8833333,
      "lng": -86.2666667
    },
    {
      "cityName": "Farallones",
      "lat": 15.8833333,
      "lng": -85.4333333
    },
    {
      "cityName": "Feo",
      "lat": 15.7833333,
      "lng": -85.7
    },
    {
      "cityName": "Flores del Terrero",
      "lat": 15.5333333,
      "lng": -86.3166667
    },
    {
      "cityName": "Flores",
      "lat": 15.55,
      "lng": -86.2833333
    },
    {
      "cityName": "Fragosa",
      "lat": 15.7,
      "lng": -85.7833333
    },
    {
      "cityName": "Francia",
      "lat": 15.85,
      "lng": -85.5833333
    },
    {
      "cityName": "Gioconda",
      "lat": 15.7,
      "lng": -86.2833333
    },
    {
      "cityName": "Golondrina",
      "lat": 15.5166667,
      "lng": -86.2166667
    },
    {
      "cityName": "Guabul",
      "lat": 15.9,
      "lng": -85.05
    },
    {
      "cityName": "Guadalupe",
      "lat": 15.9166667,
      "lng": -86.15
    },
    {
      "cityName": "Guminal",
      "lat": 15.8,
      "lng": -85.2166667
    },
    {
      "cityName": "Hacienda Jerico",
      "lat": 15.9333333,
      "lng": -85.9166667
    },
    {
      "cityName": "Higuerales",
      "lat": 15.7666667,
      "lng": -85.8833333
    },
    {
      "cityName": "Hilaria",
      "lat": 15.7,
      "lng": -86.2333333
    },
    {
      "cityName": "Huiguerales",
      "lat": 15.8,
      "lng": -85.9
    },
    {
      "cityName": "Ilanga Abajo",
      "lat": 15.7666667,
      "lng": -86.1
    },
    {
      "cityName": "Ilanga",
      "lat": 15.6666667,
      "lng": -86.1333333
    },
    {
      "cityName": "Irineo",
      "lat": 15.8,
      "lng": -86.05
    },
    {
      "cityName": "Iriona",
      "lat": 15.95,
      "lng": -85.1833333
    },
    {
      "cityName": "Isleta Central",
      "lat": 15.5666667,
      "lng": -86.1666667
    },
    {
      "cityName": "Jalaca",
      "lat": 15.75,
      "lng": -85.8833333
    },
    {
      "cityName": "Japón",
      "lat": 15.6,
      "lng": -86.3666667
    },
    {
      "cityName": "Jericó",
      "lat": 15.95,
      "lng": -85.9666667
    },
    {
      "cityName": "Jerónimo",
      "lat": 15.6666667,
      "lng": -85.7166667
    },
    {
      "cityName": "Juan Antonio",
      "lat": 15.6833333,
      "lng": -85.95
    },
    {
      "cityName": "Juan Lázaro",
      "lat": 15.6666667,
      "lng": -86.3166667
    },
    {
      "cityName": "La Banda del Norte",
      "lat": 16.0166667,
      "lng": -86.0166667
    },
    {
      "cityName": "La Barra",
      "lat": 16,
      "lng": -85.05
    },
    {
      "cityName": "La Brea",
      "lat": 15.8,
      "lng": -85.9666667
    },
    {
      "cityName": "La Curva",
      "lat": 15.8,
      "lng": -85.7666667
    },
    {
      "cityName": "La Danta",
      "lat": 15.7666667,
      "lng": -86.1833333
    },
    {
      "cityName": "La Esperanza",
      "lat": 15.6333333,
      "lng": -85.7666667
    },
    {
      "cityName": "La Holla",
      "lat": 15.6166667,
      "lng": -86.4
    },
    {
      "cityName": "La Laguna",
      "lat": 15.95,
      "lng": -85.9166667
    },
    {
      "cityName": "La Milagrosa",
      "lat": 15.9,
      "lng": -85.95
    },
    {
      "cityName": "Landa",
      "lat": 15.8666667,
      "lng": -85.5833333
    },
    {
      "cityName": "La Paz",
      "lat": 15.6333333,
      "lng": -85.25
    },
    {
      "cityName": "La Piedra",
      "lat": 15.7333333,
      "lng": -86.2833333
    },
    {
      "cityName": "La Presa",
      "lat": 15.9,
      "lng": -85.9166667
    },
    {
      "cityName": "La Puerta",
      "lat": 15.9333333,
      "lng": -85.2
    },
    {
      "cityName": "Las Mangas",
      "lat": 15.5166667,
      "lng": -85.25
    },
    {
      "cityName": "Las Mangos",
      "lat": 15.7166667,
      "lng": -86.0166667
    },
    {
      "cityName": "Las Marianas",
      "lat": 15.7166667,
      "lng": -85.1333333
    },
    {
      "cityName": "Lavaderito",
      "lat": 15.8,
      "lng": -85.2833333
    },
    {
      "cityName": "La Victoria",
      "lat": 15.8833333,
      "lng": -85.0333333
    },
    {
      "cityName": "Lérida",
      "lat": 15.6,
      "lng": -86.1666667
    },
    {
      "cityName": "Libertad",
      "lat": 15.9,
      "lng": -86.2166667
    },
    {
      "cityName": "Licona",
      "lat": 15.7666667,
      "lng": -85.75
    },
    {
      "cityName": "Limera",
      "lat": 15.8,
      "lng": -86.4833333
    },
    {
      "cityName": "Limón",
      "lat": 15.8666667,
      "lng": -85.5
    },
    {
      "cityName": "Lislis",
      "lat": 15.8333333,
      "lng": -86.4833333
    },
    {
      "cityName": "Lorencito",
      "lat": 15.65,
      "lng": -86.3666667
    },
    {
      "cityName": "Los Tarros",
      "lat": 15.8833333,
      "lng": -85.85
    },
    {
      "cityName": "Lucía",
      "lat": 15.5666667,
      "lng": -86.3
    },
    {
      "cityName": "Macho",
      "lat": 15.85,
      "lng": -85.25
    },
    {
      "cityName": "Mala Falda",
      "lat": 15.5333333,
      "lng": -86.0666667
    },
    {
      "cityName": "Manga Seca",
      "lat": 15.6666667,
      "lng": -86.0166667
    },
    {
      "cityName": "Marañones",
      "lat": 15.7833333,
      "lng": -86.0333333
    },
    {
      "cityName": "Marrañones",
      "lat": 16,
      "lng": -85.8333333
    },
    {
      "cityName": "Masicales",
      "lat": 15.8,
      "lng": -86.9666667
    },
    {
      "cityName": "Mazapa",
      "lat": 15.6666667,
      "lng": -85.25
    },
    {
      "cityName": "Miranda",
      "lat": 15.8333333,
      "lng": -86.2333333
    },
    {
      "cityName": "Mojaguay",
      "lat": 15.9,
      "lng": -85.9833333
    },
    {
      "cityName": "Monte Abajo",
      "lat": 15.75,
      "lng": -86.15
    },
    {
      "cityName": "Monte de Oro",
      "lat": 15.6166667,
      "lng": -86.3333333
    },
    {
      "cityName": "Moradel",
      "lat": 15.9333333,
      "lng": -85.9
    },
    {
      "cityName": "Nerones",
      "lat": 15.5833333,
      "lng": -86.2166667
    },
    {
      "cityName": "Orica",
      "lat": 15.4833333,
      "lng": -86.1833333
    },
    {
      "cityName": "Paguales",
      "lat": 15.5833333,
      "lng": -86.1833333
    },
    {
      "cityName": "Paletales",
      "lat": 15.7833333,
      "lng": -86.9666667
    },
    {
      "cityName": "Palos de Agua Abajo",
      "lat": 15.5166667,
      "lng": -86.1666667
    },
    {
      "cityName": "Parma Lorelay",
      "lat": 15.6333333,
      "lng": -86.1833333
    },
    {
      "cityName": "Paya",
      "lat": 15.5833333,
      "lng": -85.2166667
    },
    {
      "cityName": "Piedra Blanca",
      "lat": 15.8166667,
      "lng": -85.7166667
    },
    {
      "cityName": "Pital",
      "lat": 15.9,
      "lng": -86.0333333
    },
    {
      "cityName": "Plan Grande",
      "lat": 15.9166667,
      "lng": -86.2
    },
    {
      "cityName": "Puente Alto",
      "lat": 15.6333333,
      "lng": -86.4
    },
    {
      "cityName": "Puerto Castilla",
      "lat": 16.0166667,
      "lng": -85.9666667
    },
    {
      "cityName": "Puerto Frijoles",
      "lat": 15.9166667,
      "lng": -86.2166667
    },
    {
      "cityName": "Punta Gorda",
      "lat": 15.9166667,
      "lng": -86.1833333
    },
    {
      "cityName": "Quebrada Arena",
      "lat": 15.7666667,
      "lng": -85.9166667
    },
    {
      "cityName": "Quebrada de Agua",
      "lat": 15.7666667,
      "lng": -85.8666667
    },
    {
      "cityName": "Quebrada del Padre",
      "lat": 15.6333333,
      "lng": -86.3333333
    },
    {
      "cityName": "Quinito",
      "lat": 15.9,
      "lng": -86.25
    },
    {
      "cityName": "Rancho Quemado",
      "lat": 15.45,
      "lng": -86.0333333
    },
    {
      "cityName": "Regaderas",
      "lat": 15.5666667,
      "lng": -86.2
    },
    {
      "cityName": "Riberas del Aguán",
      "lat": 15.7833333,
      "lng": -85.8833333
    },
    {
      "cityName": "Río Arriba",
      "lat": 15.7833333,
      "lng": -86.1666667
    },
    {
      "cityName": "Río Esteban",
      "lat": 15.8333333,
      "lng": -86.3
    },
    {
      "cityName": "Río Grande",
      "lat": 15.9166667,
      "lng": -85.9666667
    },
    {
      "cityName": "Río Zarco",
      "lat": 15.7833333,
      "lng": -85.75
    },
    {
      "cityName": "Sabá",
      "lat": 15.4666667,
      "lng": -86.25
    },
    {
      "cityName": "Salado Lislis",
      "lat": 15.7666667,
      "lng": -86.45
    },
    {
      "cityName": "Salamá",
      "lat": 15.75,
      "lng": -85.9666667
    },
    {
      "cityName": "Sambita",
      "lat": 15.8666667,
      "lng": -85.1166667
    },
    {
      "cityName": "San Antonio",
      "lat": 15.9166667,
      "lng": -86.1166667
    },
    {
      "cityName": "San Isidro",
      "lat": 15.6666667,
      "lng": -86
    },
    {
      "cityName": "Santa Fe",
      "lat": 15.9166667,
      "lng": -86.0833333
    },
    {
      "cityName": "Santa Rosa Aguán",
      "lat": 15.95,
      "lng": -85.7166667
    },
    {
      "cityName": "Sinaloa",
      "lat": 15.7166667,
      "lng": -85.9833333
    },
    {
      "cityName": "Sonámbula",
      "lat": 15.55,
      "lng": -86.3
    },
    {
      "cityName": "Sonoma",
      "lat": 15.8,
      "lng": -85.1666667
    },
    {
      "cityName": "Subterráneo",
      "lat": 15.7,
      "lng": -85.3
    },
    {
      "cityName": "Tapiquil",
      "lat": 15.4666667,
      "lng": -86.0333333
    },
    {
      "cityName": "Tarral",
      "lat": 15.7333333,
      "lng": -85.75
    },
    {
      "cityName": "Taujica",
      "lat": 15.7,
      "lng": -85.9166667
    },
    {
      "cityName": "Tepic",
      "lat": 15.8,
      "lng": -85.8166667
    },
    {
      "cityName": "Tocoa",
      "lat": 15.6833333,
      "lng": -86
    },
    {
      "cityName": "Tosca",
      "lat": 15.5833333,
      "lng": -86.2833333
    },
    {
      "cityName": "Trujillo",
      "lat": 15.9166667,
      "lng": -86
    },
    {
      "cityName": "Utilá",
      "lat": 15.65,
      "lng": -86.35
    },
    {
      "cityName": "Vallecito",
      "lat": 15.8833333,
      "lng": -85.4666667
    },
    {
      "cityName": "Viena",
      "lat": 15.9333333,
      "lng": -85.85
    },
    {
      "cityName": "Yucatán",
      "lat": 15.7,
      "lng": -86
    },
    {
      "cityName": "Zamora",
      "lat": 15.6333333,
      "lng": -86.0666667
    }
  ]
}