{
  "name": "Qina",
  "cities": [
    {
      "cityName": "Abbâsa",
      "lat": 25.9,
      "lng": 32.7833333
    },
    {
      "cityName": "Abidus",
      "lat": 26.1819444,
      "lng": 31.9194444
    },
    {
      "cityName": "Abnud",
      "lat": 26.0513889,
      "lng": 32.7855556
    },
    {
      "cityName": "Abu Dhi'ab",
      "lat": 26.1833333,
      "lng": 32.55
    },
    {
      "cityName": "Abu Diyab Sharq",
      "lat": 26.195,
      "lng": 32.5561111
    },
    {
      "cityName": "Abu Hizam",
      "lat": 26.1166667,
      "lng": 32.35
    },
    {
      "cityName": "Abu Manna` Bahari",
      "lat": 26.1525,
      "lng": 32.4180556
    },
    {
      "cityName": "Abu Manna` Gharb",
      "lat": 26.1505556,
      "lng": 32.4347222
    },
    {
      "cityName": "Abu Manna` Qibli",
      "lat": 26.165,
      "lng": 32.4783333
    },
    {
      "cityName": "Abu Manna` Sharq",
      "lat": 26.1666667,
      "lng": 32.4666667
    },
    {
      "cityName": "Abu Shusha",
      "lat": 26.17,
      "lng": 32.0244444
    },
    {
      "cityName": "Abu Tisht",
      "lat": 26.12,
      "lng": 32.0947222
    },
    {
      "cityName": "Abu Umuri",
      "lat": 25.9833333,
      "lng": 32.1833333
    },
    {
      "cityName": "Ad Dababiyah",
      "lat": 25.4944444,
      "lng": 32.5116667
    },
    {
      "cityName": "Ad Dabbah",
      "lat": 26.0666667,
      "lng": 32.3
    },
    {
      "cityName": "Ad Dab`iyah",
      "lat": 25.65,
      "lng": 32.5833333
    },
    {
      "cityName": "Ad Dahasah",
      "lat": 26.0433333,
      "lng": 32.1486111
    },
    {
      "cityName": "Ad Dayr",
      "lat": 25.3333333,
      "lng": 32.5805556
    },
    {
      "cityName": "Ad Dayr al Gharbi",
      "lat": 26.0513889,
      "lng": 32.7513889
    },
    {
      "cityName": "Ad Dayr ash Sharqi",
      "lat": 26.0680556,
      "lng": 32.7558333
    },
    {
      "cityName": "Ad Dimuqrat",
      "lat": 25.5666667,
      "lng": 32.4666667
    },
    {
      "cityName": "Al `Ada'imah",
      "lat": 25.2358333,
      "lng": 32.5936111
    },
    {
      "cityName": "Al Ambir",
      "lat": 26.2225,
      "lng": 32.1052778
    },
    {
      "cityName": "Al Aqalitah",
      "lat": 25.6833333,
      "lng": 32.6166667
    },
    {
      "cityName": "Al `Araki",
      "lat": 26.0058333,
      "lng": 32.1605556
    },
    {
      "cityName": "Al `Asaliyah",
      "lat": 26.0838889,
      "lng": 32.7727778
    },
    {
      "cityName": "Al `Asasif",
      "lat": 25.7333333,
      "lng": 32.6166667
    },
    {
      "cityName": "Al Ashraf",
      "lat": 26.0958333,
      "lng": 32.7675
    },
    {
      "cityName": "Al Ashraf al Bahriyah",
      "lat": 26.1416667,
      "lng": 32.6611111
    },
    {
      "cityName": "Al `Ashshi",
      "lat": 25.7666667,
      "lng": 32.7333333
    },
    {
      "cityName": "Al `Asirat",
      "lat": 26.0833333,
      "lng": 32.1833333
    },
    {
      "cityName": "Al `Atiyat",
      "lat": 26.1588889,
      "lng": 32.5036111
    },
    {
      "cityName": "Al Awsat Samhud",
      "lat": 26.1727778,
      "lng": 32.0775
    },
    {
      "cityName": "Al `Aya'ishah",
      "lat": 25.8166667,
      "lng": 32.7833333
    },
    {
      "cityName": "Al Bahri Qamula",
      "lat": 25.8333333,
      "lng": 32.75
    },
    {
      "cityName": "Al Ba`irat",
      "lat": 25.7,
      "lng": 32.6166667
    },
    {
      "cityName": "Al Ballas",
      "lat": 26.0208333,
      "lng": 32.7652778
    },
    {
      "cityName": "Al Baraghit",
      "lat": 26.0997222,
      "lng": 32.0216667
    },
    {
      "cityName": "Al Barahimah",
      "lat": 26.0152778,
      "lng": 32.7963889
    },
    {
      "cityName": "Al Bayadiyah",
      "lat": 25.6666667,
      "lng": 32.6333333
    },
    {
      "cityName": "Al Gharbi Bahjurah",
      "lat": 26.0166667,
      "lng": 32.2166667
    },
    {
      "cityName": "Al Gharbi bi as Salamiyah",
      "lat": 26.0827778,
      "lng": 32.2569444
    },
    {
      "cityName": "Al Ghawasah",
      "lat": 26.1783333,
      "lng": 32.5769444
    },
    {
      "cityName": "Al Halafi",
      "lat": 26.1736111,
      "lng": 31.9916667
    },
    {
      "cityName": "Al Halfayah Bahri",
      "lat": 26.0280556,
      "lng": 32.3672222
    },
    {
      "cityName": "Al Halfayah Qibli",
      "lat": 26.055,
      "lng": 32.3791667
    },
    {
      "cityName": "Al Hamidat",
      "lat": 26.15,
      "lng": 32.7166667
    },
    {
      "cityName": "Al Hillah",
      "lat": 25.2836111,
      "lng": 32.5825
    },
    {
      "cityName": "Al Himran",
      "lat": 26.1677778,
      "lng": 32.1347222
    },
    {
      "cityName": "Al Hirajiyah",
      "lat": 25.95,
      "lng": 32.7833333
    },
    {
      "cityName": "Al Hisanat",
      "lat": 26.1,
      "lng": 32.1166667
    },
    {
      "cityName": "Al Hubayl",
      "lat": 25.6666667,
      "lng": 32.6666667
    },
    {
      "cityName": "Al Hujayrat",
      "lat": 26.1586111,
      "lng": 32.5627778
    },
    {
      "cityName": "Al Humr wa al Ja`afirah",
      "lat": 25.9333333,
      "lng": 32.7666667
    },
    {
      "cityName": "Al `Izab",
      "lat": 26.1666667,
      "lng": 32.5
    },
    {
      "cityName": "Al Jabalaw",
      "lat": 26.1338889,
      "lng": 32.7769444
    },
    {
      "cityName": "Al Jaziriyah",
      "lat": 26.0302778,
      "lng": 32.7877778
    },
    {
      "cityName": "Al Jimaliyah",
      "lat": 25.85,
      "lng": 32.75
    },
    {
      "cityName": "Al Kallahin",
      "lat": 26.0419444,
      "lng": 32.7877778
    },
    {
      "cityName": "Al Ka`mat",
      "lat": 26.0905556,
      "lng": 32.0327778
    },
    {
      "cityName": "Al Karnak",
      "lat": 25.7166667,
      "lng": 32.65
    },
    {
      "cityName": "Al Kawm al Ahmar",
      "lat": 26.0755556,
      "lng": 32.1422222
    },
    {
      "cityName": "Al Kharaniqah",
      "lat": 25.8833333,
      "lng": 32.7666667
    },
    {
      "cityName": "Al Khattarah",
      "lat": 25.9166667,
      "lng": 32.7333333
    },
    {
      "cityName": "Al Khirbah",
      "lat": 26.1166667,
      "lng": 32.7666667
    },
    {
      "cityName": "Al Kilabiyah al Gharbi",
      "lat": 25.2569444,
      "lng": 32.5666667
    },
    {
      "cityName": "Al Kilabiyah",
      "lat": 25.2494444,
      "lng": 32.6169444
    },
    {
      "cityName": "Al Ma`allah",
      "lat": 25.475,
      "lng": 32.5161111
    },
    {
      "cityName": "Al Ma`arri",
      "lat": 25.8833333,
      "lng": 32.7833333
    },
    {
      "cityName": "Al Madamud",
      "lat": 25.7333333,
      "lng": 32.7166667
    },
    {
      "cityName": "Al Makhadimah",
      "lat": 26.2011111,
      "lng": 32.6330556
    },
    {
      "cityName": "Al Marashidah",
      "lat": 26.0963889,
      "lng": 32.4780556
    },
    {
      "cityName": "Al Maris",
      "lat": 25.6166667,
      "lng": 32.5666667
    },
    {
      "cityName": "Al Misawiyah",
      "lat": 25.2494444,
      "lng": 32.5725
    },
    {
      "cityName": "Al Mufarrijiyah",
      "lat": 25.8333333,
      "lng": 32.7666667
    },
    {
      "cityName": "Al Muqarrabiyah",
      "lat": 25.9333333,
      "lng": 32.7833333
    },
    {
      "cityName": "Al Qal`ah",
      "lat": 26,
      "lng": 32.8166667
    },
    {
      "cityName": "Al Qammanah",
      "lat": 26.0158333,
      "lng": 32.2386111
    },
    {
      "cityName": "Al Qarah",
      "lat": 26.0783333,
      "lng": 32.0633333
    },
    {
      "cityName": "Al Qaraya",
      "lat": 25.2638889,
      "lng": 32.5555556
    },
    {
      "cityName": "Al Qasr",
      "lat": 26.05,
      "lng": 32.3
    },
    {
      "cityName": "Al Qasr wa as Sayyad",
      "lat": 26.0583333,
      "lng": 32.3069444
    },
    {
      "cityName": "Al Qibli Qamula",
      "lat": 25.7833333,
      "lng": 32.7333333
    },
    {
      "cityName": "Al Qinawiyah",
      "lat": 26.1866667,
      "lng": 32.6116667
    },
    {
      "cityName": "Al Qubaybah",
      "lat": 26.0588889,
      "lng": 32.1925
    },
    {
      "cityName": "Al Qurnah",
      "lat": 25.7166667,
      "lng": 32.6
    },
    {
      "cityName": "Al `Udaysat",
      "lat": 25.5833333,
      "lng": 32.4833333
    },
    {
      "cityName": "Al `Ulayqat",
      "lat": 25.9166667,
      "lng": 32.8333333
    },
    {
      "cityName": "Al `Uqab",
      "lat": 25.8,
      "lng": 32.8
    },
    {
      "cityName": "Al Uqsur",
      "lat": 25.6833333,
      "lng": 32.65
    },
    {
      "cityName": "Al `Uwaydat",
      "lat": 25.9833333,
      "lng": 32.8166667
    },
    {
      "cityName": "Al Waqf",
      "lat": 26.0886111,
      "lng": 32.4244444
    },
    {
      "cityName": "Al Wasta",
      "lat": 25.3083333,
      "lng": 32.4902778
    },
    {
      "cityName": "An Najmah",
      "lat": 26.1586111,
      "lng": 32.1338889
    },
    {
      "cityName": "An Namasa",
      "lat": 25.2513889,
      "lng": 32.5666667
    },
    {
      "cityName": "An Nawahid",
      "lat": 26.1097222,
      "lng": 32.0058333
    },
    {
      "cityName": "An Nuju`",
      "lat": 25.3638889,
      "lng": 32.5519444
    },
    {
      "cityName": "Apollinopolis Parva",
      "lat": 25.9166667,
      "lng": 32.75
    },
    {
      "cityName": "`Arab `Abâyda",
      "lat": 26.2166667,
      "lng": 32.6
    },
    {
      "cityName": "`Arab al `Ababidah",
      "lat": 25.9166667,
      "lng": 32.85
    },
    {
      "cityName": "`Arab al `Aba'idah",
      "lat": 26.0808333,
      "lng": 32.8108333
    },
    {
      "cityName": "`Arab el `Azâgza",
      "lat": 26,
      "lng": 32.85
    },
    {
      "cityName": "`Arab el Sibha",
      "lat": 26.1166667,
      "lng": 32.7833333
    },
    {
      "cityName": "Armanat",
      "lat": 25.6166667,
      "lng": 32.5333333
    },
    {
      "cityName": "Armant el Wâbûrât",
      "lat": 25.6,
      "lng": 32.5
    },
    {
      "cityName": "Armant Sharq",
      "lat": 25.6166667,
      "lng": 32.55
    },
    {
      "cityName": "Ar Rafshah",
      "lat": 26.1022222,
      "lng": 32.0661111
    },
    {
      "cityName": "Ar Rahmaniyah Qibli",
      "lat": 26.0416667,
      "lng": 32.2902778
    },
    {
      "cityName": "Ar Ra'isiyah",
      "lat": 26.0666667,
      "lng": 32.35
    },
    {
      "cityName": "Ar Rawatib",
      "lat": 26.1558333,
      "lng": 32.0597222
    },
    {
      "cityName": "Ar Rayayinah",
      "lat": 25.6,
      "lng": 32.4666667
    },
    {
      "cityName": "Ar Rizqah",
      "lat": 26.1219444,
      "lng": 32.145
    },
    {
      "cityName": "Ar Ruzayqat",
      "lat": 25.5833333,
      "lng": 32.4666667
    },
    {
      "cityName": "Asfoun",
      "lat": 25.3902778,
      "lng": 32.5419444
    },
    {
      "cityName": "Ash Shaghab",
      "lat": 25.5166667,
      "lng": 32.5
    },
    {
      "cityName": "Ash Sha`rani",
      "lat": 25.9,
      "lng": 32.75
    },
    {
      "cityName": "Ash Sharawinah al Bahriyah",
      "lat": 25.2319444,
      "lng": 32.6572222
    },
    {
      "cityName": "Ash Sharqi Bahjurah",
      "lat": 26.0833333,
      "lng": 32.2166667
    },
    {
      "cityName": "Ash Sharqi Samhud",
      "lat": 26.1827778,
      "lng": 32.1030556
    },
    {
      "cityName": "Ash Shawiriyah",
      "lat": 26.0986111,
      "lng": 32.3244444
    },
    {
      "cityName": "Ash Shaykh `Isa",
      "lat": 26.1947222,
      "lng": 32.6494444
    },
    {
      "cityName": "Ash Shaykhiyah",
      "lat": 25.9666667,
      "lng": 32.7833333
    },
    {
      "cityName": "Asna",
      "lat": 25.2930556,
      "lng": 32.5527778
    },
    {
      "cityName": "As Sa`a'idah",
      "lat": 25.7666667,
      "lng": 32.7166667
    },
    {
      "cityName": "As Sabriyat",
      "lat": 26.1166667,
      "lng": 32.4319444
    },
    {
      "cityName": "As Salamiyah al Ha'it",
      "lat": 26.0697222,
      "lng": 32.2830556
    },
    {
      "cityName": "As Salihiyah",
      "lat": 26.15,
      "lng": 32.7666667
    },
    {
      "cityName": "As Salimat",
      "lat": 26.1166667,
      "lng": 32.1
    },
    {
      "cityName": "As Sama'inah",
      "lat": 26.0666667,
      "lng": 32.4
    },
    {
      "cityName": "As Samata",
      "lat": 26.1166667,
      "lng": 32.5333333
    },
    {
      "cityName": "As Sawahliyah",
      "lat": 26.0475,
      "lng": 32.7963889
    },
    {
      "cityName": "As Sayyad",
      "lat": 26.0333333,
      "lng": 32.3166667
    },
    {
      "cityName": "At Taramisah",
      "lat": 26.1402778,
      "lng": 32.705
    },
    {
      "cityName": "At Tawabiyah",
      "lat": 26.1402778,
      "lng": 32.5838889
    },
    {
      "cityName": "At Tir`ah",
      "lat": 25.2105556,
      "lng": 32.6513889
    },
    {
      "cityName": "At Tuwayrat",
      "lat": 26.1097222,
      "lng": 32.7338889
    },
    {
      "cityName": "Aulâd `Amr",
      "lat": 26.1458333,
      "lng": 32.5963889
    },
    {
      "cityName": "Aulad Nigm Bahgura",
      "lat": 26.0869444,
      "lng": 32.2044444
    },
    {
      "cityName": "Az Zawa'idah",
      "lat": 25.9833333,
      "lng": 32.7666667
    },
    {
      "cityName": "Az Zayniyah Bahri",
      "lat": 25.7666667,
      "lng": 32.7
    },
    {
      "cityName": "Az Zayniyah Qibli",
      "lat": 25.75,
      "lng": 32.6833333
    },
    {
      "cityName": "Bahgûra",
      "lat": 26.05,
      "lng": 32.2
    },
    {
      "cityName": "Bakhanis",
      "lat": 26.1216667,
      "lng": 32.1588889
    },
    {
      "cityName": "Bani Humayd",
      "lat": 25.3291667,
      "lng": 32.5491667
    },
    {
      "cityName": "Barkheil",
      "lat": 26.2069444,
      "lng": 31.9661111
    },
    {
      "cityName": "Beheiret el- Qann",
      "lat": 31.4,
      "lng": 30.75
    },
    {
      "cityName": "Bilad al Mal Bahri",
      "lat": 26.15,
      "lng": 32.0333333
    },
    {
      "cityName": "Bilad al Mal Qibli",
      "lat": 26.1,
      "lng": 32.0166667
    },
    {
      "cityName": "Caene",
      "lat": 26.17,
      "lng": 32.7272222
    },
    {
      "cityName": "Dandara",
      "lat": 26.1691667,
      "lng": 32.6552778
    },
    {
      "cityName": "Danfiq",
      "lat": 25.8666667,
      "lng": 32.7166667
    },
    {
      "cityName": "Dashna",
      "lat": 26.1211111,
      "lng": 32.4652778
    },
    {
      "cityName": "Diospolis Mikra",
      "lat": 26.0180556,
      "lng": 32.2791667
    },
    {
      "cityName": "El Ashrâf el Shargiya",
      "lat": 26.1080556,
      "lng": 32.7913889
    },
    {
      "cityName": "El-Ausat Qamûla",
      "lat": 25.8166667,
      "lng": 32.7333333
    },
    {
      "cityName": "El Deir el Gharbi",
      "lat": 26.05,
      "lng": 32.75
    },
    {
      "cityName": "El-Mahâmîd",
      "lat": 25.55,
      "lng": 32.45
    },
    {
      "cityName": "El Mansîya",
      "lat": 25.8833333,
      "lng": 32.7166667
    },
    {
      "cityName": "El-Masîd",
      "lat": 25.8833333,
      "lng": 32.8
    },
    {
      "cityName": "El-Nasîrât",
      "lat": 26.2666667,
      "lng": 32.0166667
    },
    {
      "cityName": "El-Nugu`",
      "lat": 26.0166667,
      "lng": 32.1833333
    },
    {
      "cityName": "El Ramli",
      "lat": 26.0833333,
      "lng": 32.0833333
    },
    {
      "cityName": "El Sanâbsa",
      "lat": 26.0833333,
      "lng": 32.4166667
    },
    {
      "cityName": "El Shanhûrîya",
      "lat": 25.85,
      "lng": 32.7666667
    },
    {
      "cityName": "El-Yasiniya",
      "lat": 26.0833333,
      "lng": 32.35
    },
    {
      "cityName": "`Ezbet Abu Habashi",
      "lat": 25.75,
      "lng": 32.65
    },
    {
      "cityName": "Ezbet el-Busa",
      "lat": 26.0666667,
      "lng": 32.05
    },
    {
      "cityName": "`Ezbet el Hagga Dauwa",
      "lat": 25.7,
      "lng": 32.6333333
    },
    {
      "cityName": "Ezbet el-Mural",
      "lat": 25.65,
      "lng": 32.4666667
    },
    {
      "cityName": "Ezbet el Samâsrîya",
      "lat": 26.0333333,
      "lng": 32.3666667
    },
    {
      "cityName": "`Ezbet Hasan Sulîman",
      "lat": 25.4833333,
      "lng": 32.5
    },
    {
      "cityName": "Farshut",
      "lat": 26.055,
      "lng": 32.1616667
    },
    {
      "cityName": "Fau Bahari",
      "lat": 26.0825,
      "lng": 32.3719444
    },
    {
      "cityName": "Fau Qibli",
      "lat": 26.1105556,
      "lng": 32.4013889
    },
    {
      "cityName": "Garagûs",
      "lat": 25.8666667,
      "lng": 32.75
    },
    {
      "cityName": "Gebel el Hagif",
      "lat": 26.0513889,
      "lng": 32.2386111
    },
    {
      "cityName": "Gezîret el-`Auwâmîya",
      "lat": 25.6833333,
      "lng": 32.6333333
    },
    {
      "cityName": "Gezîret el Rîqîya",
      "lat": 25.2291667,
      "lng": 32.6244444
    },
    {
      "cityName": "Geziret Miteira",
      "lat": 25.8833333,
      "lng": 32.7333333
    },
    {
      "cityName": "Hamra Dôm",
      "lat": 26.1144444,
      "lng": 32.3247222
    },
    {
      "cityName": "Hawd ar Ra'isiyah",
      "lat": 26.05,
      "lng": 32.3666667
    },
    {
      "cityName": "Higâza",
      "lat": 25.85,
      "lng": 32.8333333
    },
    {
      "cityName": "Iôd",
      "lat": 25.5833333,
      "lng": 32.5333333
    },
    {
      "cityName": "`Izbat Ahmad Mahmud Jum`ah",
      "lat": 26.0269444,
      "lng": 32.2102778
    },
    {
      "cityName": "`Izbat al Busah",
      "lat": 26.0922222,
      "lng": 32.3075
    },
    {
      "cityName": "Kafr el Kahragalla",
      "lat": 26.15,
      "lng": 32.6666667
    },
    {
      "cityName": "Karm `Umran",
      "lat": 26.0825,
      "lng": 32.8030556
    },
    {
      "cityName": "Kawm al Bijah",
      "lat": 26.0902778,
      "lng": 32.1736111
    },
    {
      "cityName": "Kawm Mir",
      "lat": 25.2141667,
      "lng": 32.6397222
    },
    {
      "cityName": "Kawm Shafi`",
      "lat": 26.05,
      "lng": 32.35
    },
    {
      "cityName": "Kawm Ya`qub",
      "lat": 26.1180556,
      "lng": 32.0744444
    },
    {
      "cityName": "Khuzam",
      "lat": 25.7666667,
      "lng": 32.7666667
    },
    {
      "cityName": "Kiman al Mata`inah",
      "lat": 25.4458333,
      "lng": 32.5041667
    },
    {
      "cityName": "Madinat Masna` al Aluminyum",
      "lat": 26.0083333,
      "lng": 32.3166667
    },
    {
      "cityName": "Nag` 'Abd el-Qâdir",
      "lat": 26.1833333,
      "lng": 32.4833333
    },
    {
      "cityName": "Nag` Abu Hummusi",
      "lat": 25.5,
      "lng": 32.4666667
    },
    {
      "cityName": "Nag` Abu Salim",
      "lat": 26.1,
      "lng": 32.0833333
    },
    {
      "cityName": "Nag` Abu Sandal",
      "lat": 25.9,
      "lng": 32.8333333
    },
    {
      "cityName": "Nag` Abu Zinâd",
      "lat": 25.8333333,
      "lng": 32.8166667
    },
    {
      "cityName": "Nag` Ahmad Osman",
      "lat": 25.65,
      "lng": 32.6333333
    },
    {
      "cityName": "Nag` Aulâd `Amr",
      "lat": 26.15,
      "lng": 32.6
    },
    {
      "cityName": "Nag` Aulâd Dahmîsh",
      "lat": 25.5166667,
      "lng": 32.45
    },
    {
      "cityName": "Nag` 'Azzûz",
      "lat": 26.1319444,
      "lng": 32.3552778
    },
    {
      "cityName": "Nag` Badrân",
      "lat": 26.1166667,
      "lng": 32.7166667
    },
    {
      "cityName": "Nag` Bishlây",
      "lat": 25.8,
      "lng": 32.7333333
    },
    {
      "cityName": "Nag` el-Abâbda",
      "lat": 25.275,
      "lng": 32.5958333
    },
    {
      "cityName": "Nag` el-Alfi",
      "lat": 26.0833333,
      "lng": 32.3666667
    },
    {
      "cityName": "Nag` el Bârûd",
      "lat": 26,
      "lng": 32.7833333
    },
    {
      "cityName": "Nag` el-Bat-ha",
      "lat": 25.9833333,
      "lng": 32.2
    },
    {
      "cityName": "Nag` el Busa",
      "lat": 26.0833333,
      "lng": 32.3
    },
    {
      "cityName": "Nag` el-Dîb",
      "lat": 25.9,
      "lng": 32.8
    },
    {
      "cityName": "Nag` el Fâris",
      "lat": 26.05,
      "lng": 32.7666667
    },
    {
      "cityName": "Nag' el-Fiheira",
      "lat": 26.1166667,
      "lng": 32.4833333
    },
    {
      "cityName": "Nag` el-Garfiya",
      "lat": 26.1833333,
      "lng": 32.65
    },
    {
      "cityName": "Nag` el-Gaziya",
      "lat": 26.1833333,
      "lng": 32.6666667
    },
    {
      "cityName": "Nag` el Gezira el Bahari",
      "lat": 26.0666667,
      "lng": 32.3666667
    },
    {
      "cityName": "Nag' el-Ghâbât",
      "lat": 26.1666667,
      "lng": 31.9491667
    },
    {
      "cityName": "Nag` el-Ghalîz",
      "lat": 26.0666667,
      "lng": 32.25
    },
    {
      "cityName": "Nag' el-Ghâwiya",
      "lat": 26.15,
      "lng": 32.4833333
    },
    {
      "cityName": "Nag` el-Hamadât",
      "lat": 25.4,
      "lng": 32.575
    },
    {
      "cityName": "Nag` el Hanâdi",
      "lat": 25.42,
      "lng": 32.5583333
    },
    {
      "cityName": "Nag` el-Harâgîya",
      "lat": 26.1738889,
      "lng": 32.5275
    },
    {
      "cityName": "Nag` el-Hibeil",
      "lat": 26.15,
      "lng": 32.6166667
    },
    {
      "cityName": "Nag` el-Himeidât",
      "lat": 25.3833333,
      "lng": 32.5666667
    },
    {
      "cityName": "Nag` el Kasârna",
      "lat": 26.1,
      "lng": 32.4333333
    },
    {
      "cityName": "Nag` el-Kôm",
      "lat": 25.95,
      "lng": 32.85
    },
    {
      "cityName": "Nag` el-Mahârza",
      "lat": 26.1688889,
      "lng": 32.1158333
    },
    {
      "cityName": "Nag' el-Nagâgra",
      "lat": 26.1,
      "lng": 32.4833333
    },
    {
      "cityName": "Nag` el-Qamara",
      "lat": 26.1352778,
      "lng": 31.9830556
    },
    {
      "cityName": "Nag` el-Qashâqsha",
      "lat": 26.0333333,
      "lng": 32.1
    },
    {
      "cityName": "Nag` el Rashâyda",
      "lat": 26.05,
      "lng": 32.3833333
    },
    {
      "cityName": "Nag` el-Saiyid Ah",
      "lat": 25.5666667,
      "lng": 32.45
    },
    {
      "cityName": "Nag` el-Sharikhât",
      "lat": 26.1833333,
      "lng": 32.5833333
    },
    {
      "cityName": "Nag` el-Sheikh Fadîl",
      "lat": 25.3,
      "lng": 32.5333333
    },
    {
      "cityName": "Nag`el-Sheikh Mubâdir",
      "lat": 26.1911111,
      "lng": 32.1419444
    },
    {
      "cityName": "Nag` el-Shûweina",
      "lat": 26.1452778,
      "lng": 32.7644444
    },
    {
      "cityName": "Nag` el-Tôd",
      "lat": 26.1636111,
      "lng": 32.0719444
    },
    {
      "cityName": "`Nag `el-Tunâb",
      "lat": 25.4366667,
      "lng": 32.5491667
    },
    {
      "cityName": "Nag' el-Zarâbi",
      "lat": 26.0833333,
      "lng": 32.0666667
    },
    {
      "cityName": "Nag` el-Zuqeim Muhafazet Abd Alla",
      "lat": 25.9833333,
      "lng": 32.8333333
    },
    {
      "cityName": "Nag` Ghazali",
      "lat": 26.0833333,
      "lng": 32.75
    },
    {
      "cityName": "Nag` Gibril",
      "lat": 26.0663889,
      "lng": 32.8275
    },
    {
      "cityName": "Nag` Himdân",
      "lat": 25.8666667,
      "lng": 32.8333333
    },
    {
      "cityName": "Nag` Humret Dôm",
      "lat": 25.35,
      "lng": 32.55
    },
    {
      "cityName": "Nag` Ibrâhîm Ghuraiyib",
      "lat": 25.45,
      "lng": 32.4833333
    },
    {
      "cityName": "Nag `Ibrahim Hasab Rabbu",
      "lat": 25.6333333,
      "lng": 32.6666667
    },
    {
      "cityName": "Nag` Isman el-Kebîra",
      "lat": 25.8,
      "lng": 32.7166667
    },
    {
      "cityName": "Nag` Karam `Imrân",
      "lat": 26.0666667,
      "lng": 32.8
    },
    {
      "cityName": "Nag` Ma'alla",
      "lat": 26.15,
      "lng": 32.5166667
    },
    {
      "cityName": "Nag` Naqsha",
      "lat": 25.6333333,
      "lng": 32.6166667
    },
    {
      "cityName": "Nag` Radwân",
      "lat": 26.0833333,
      "lng": 32.1333333
    },
    {
      "cityName": "Nag' Samra",
      "lat": 26.1225,
      "lng": 32.5180556
    },
    {
      "cityName": "Nag` Siteih",
      "lat": 25.4672222,
      "lng": 32.4916667
    },
    {
      "cityName": "Nag` Umm el Turein",
      "lat": 26.0833333,
      "lng": 32.3833333
    },
    {
      "cityName": "Nag' Zileitim",
      "lat": 26.0166667,
      "lng": 32.2
    },
    {
      "cityName": "Naj` Abu al Hasan",
      "lat": 26.0033333,
      "lng": 32.8483333
    },
    {
      "cityName": "Naj` Abu `Azzuz",
      "lat": 26.0127778,
      "lng": 32.8430556
    },
    {
      "cityName": "Naj` Abu Dahi",
      "lat": 26.1136111,
      "lng": 32.1875
    },
    {
      "cityName": "Naj` Abu Ghabah",
      "lat": 26.0355556,
      "lng": 32.7902778
    },
    {
      "cityName": "Naj` Abu Radwan",
      "lat": 26.0608333,
      "lng": 32.8308333
    },
    {
      "cityName": "Naj` Abu Yusif",
      "lat": 26.0255556,
      "lng": 32.7930556
    },
    {
      "cityName": "Naj` Abu Za`fah",
      "lat": 25.3458333,
      "lng": 32.5013889
    },
    {
      "cityName": "Naj` ad Dayr al Qadim",
      "lat": 25.3330556,
      "lng": 32.5694444
    },
    {
      "cityName": "Naj` Ahmad Sa`id",
      "lat": 25.3069444,
      "lng": 32.5097222
    },
    {
      "cityName": "Naj` al `Abbudi",
      "lat": 26.1216667,
      "lng": 32.7838889
    },
    {
      "cityName": "Naj` al `Akarimah",
      "lat": 25.3419444,
      "lng": 32.5494444
    },
    {
      "cityName": "Naj` al `Akrami",
      "lat": 26.0319444,
      "lng": 32.8430556
    },
    {
      "cityName": "Naj` al `Arj",
      "lat": 26.0325,
      "lng": 32.8041667
    },
    {
      "cityName": "Naj` al Bashaynah",
      "lat": 26.0383333,
      "lng": 32.7613889
    },
    {
      "cityName": "Naj` al Burj",
      "lat": 25.4291667,
      "lng": 32.5005556
    },
    {
      "cityName": "Naj` al Fakhurah",
      "lat": 25.2805556,
      "lng": 32.5869444
    },
    {
      "cityName": "Naj` al Farisiyah",
      "lat": 25.3527778,
      "lng": 32.5472222
    },
    {
      "cityName": "Naj` al Fawiyah",
      "lat": 26.1555556,
      "lng": 32.4891667
    },
    {
      "cityName": "Naj` al Gharabwah al Bahri",
      "lat": 26.1688889,
      "lng": 32.5158333
    },
    {
      "cityName": "Naj` al Hajariyah",
      "lat": 26.1491667,
      "lng": 32.4722222
    },
    {
      "cityName": "Naj` al Hamziyah",
      "lat": 25.2791667,
      "lng": 32.5588889
    },
    {
      "cityName": "Naj` al Hayy",
      "lat": 26.0991667,
      "lng": 32.7955556
    },
    {
      "cityName": "Naj` al Hulaylah",
      "lat": 25.2641667,
      "lng": 32.5819444
    },
    {
      "cityName": "Naj` al Jidd",
      "lat": 26.0736111,
      "lng": 32.8161111
    },
    {
      "cityName": "Naj` al Kalh",
      "lat": 26.0355556,
      "lng": 32.2308333
    },
    {
      "cityName": "Naj` al Kawm",
      "lat": 26.1141667,
      "lng": 32.7677778
    },
    {
      "cityName": "Naj` al Kharwa`ah",
      "lat": 26.0972222,
      "lng": 32.3833333
    },
    {
      "cityName": "Naj` al Ma`allat",
      "lat": 25.2652778,
      "lng": 32.5341667
    },
    {
      "cityName": "Naj` al Masa`id",
      "lat": 25.4463889,
      "lng": 32.5458333
    },
    {
      "cityName": "Naj` al Miyat",
      "lat": 26.18,
      "lng": 32.3875
    },
    {
      "cityName": "Naj` al Miznab",
      "lat": 25.2888889,
      "lng": 32.5794444
    },
    {
      "cityName": "Naj` al Nawaflah",
      "lat": 26.1597222,
      "lng": 32.6069444
    },
    {
      "cityName": "Naj` al Qunburah",
      "lat": 26.1611111,
      "lng": 32.4972222
    },
    {
      "cityName": "Naj` an Nafaydah",
      "lat": 25.2883333,
      "lng": 32.5825
    },
    {
      "cityName": "Naj` an Najhiyah",
      "lat": 26.0361111,
      "lng": 32.2736111
    },
    {
      "cityName": "Naj` `Arab Hajir Isna",
      "lat": 25.2838889,
      "lng": 32.5172222
    },
    {
      "cityName": "Naj` ash Sha`iniyah",
      "lat": 26.0875,
      "lng": 32.3263889
    },
    {
      "cityName": "Naj` ash Sharqawi",
      "lat": 26.0283333,
      "lng": 32.1816667
    },
    {
      "cityName": "Naj` ash Shawarib",
      "lat": 25.2986111,
      "lng": 32.5736111
    },
    {
      "cityName": "Naj` ash Shaykh `Abd ar Rahman",
      "lat": 26.0208333,
      "lng": 32.8452778
    },
    {
      "cityName": "Naj` ash Shaykh `Ali",
      "lat": 26.1541667,
      "lng": 32.3861111
    },
    {
      "cityName": "Naj` as Sabil",
      "lat": 26.045,
      "lng": 32.7505556
    },
    {
      "cityName": "Naj` as Suways",
      "lat": 26.0136111,
      "lng": 32.8458333
    },
    {
      "cityName": "Naj` at Tunab",
      "lat": 25.4361111,
      "lng": 32.5466667
    },
    {
      "cityName": "Naj` Awlad Jabir",
      "lat": 26.1225,
      "lng": 32.5347222
    },
    {
      "cityName": "Naj` az Zaydaniyah",
      "lat": 26.1547222,
      "lng": 32.1252778
    },
    {
      "cityName": "Naj` az Zunayqah",
      "lat": 25.3838889,
      "lng": 32.5083333
    },
    {
      "cityName": "Naj` Bir `Ambar",
      "lat": 26.0494444,
      "lng": 32.84
    },
    {
      "cityName": "Naj` Buwayl",
      "lat": 25.3208333,
      "lng": 32.5075
    },
    {
      "cityName": "Naj` Hamad Allah",
      "lat": 26.0922222,
      "lng": 32.7980556
    },
    {
      "cityName": "Naj` Jad Mu`awwad",
      "lat": 26.0030556,
      "lng": 32.7947222
    },
    {
      "cityName": "Naj` Judah",
      "lat": 26.0216667,
      "lng": 32.7902778
    },
    {
      "cityName": "Naj` Kawm Majanin",
      "lat": 26.135,
      "lng": 32.0608333
    },
    {
      "cityName": "Naj` Khawr al Qada",
      "lat": 25.4630556,
      "lng": 32.5305556
    },
    {
      "cityName": "Naj` Sa`d",
      "lat": 26.0116667,
      "lng": 32.7886111
    },
    {
      "cityName": "Naj` Sa`id",
      "lat": 26.1463889,
      "lng": 32.3747222
    },
    {
      "cityName": "Naj` Sallam",
      "lat": 26.0455556,
      "lng": 32.1088889
    },
    {
      "cityName": "Naj` Shuwaykhat",
      "lat": 26.1855556,
      "lng": 32.6008333
    },
    {
      "cityName": "Naj` Turki",
      "lat": 26.0922222,
      "lng": 32.1436111
    },
    {
      "cityName": "Naj` `Urabi",
      "lat": 26.1236111,
      "lng": 32.7797222
    },
    {
      "cityName": "Naqadah",
      "lat": 25.9,
      "lng": 32.7166667
    },
    {
      "cityName": "Qaryat Tumas wa `Afiyah",
      "lat": 25.3327778,
      "lng": 32.4897222
    },
    {
      "cityName": "Qusayr Bakhanis",
      "lat": 26.1463889,
      "lng": 32.1225
    },
    {
      "cityName": "Samhud",
      "lat": 26.1338889,
      "lng": 32.0288889
    },
    {
      "cityName": "Tafnis al Mata`inah",
      "lat": 25.43,
      "lng": 32.5327778
    },
    {
      "cityName": "Tukh",
      "lat": 25.9333333,
      "lng": 32.75
    },
    {
      "cityName": "Waburat al Mata`inah",
      "lat": 25.3797222,
      "lng": 32.5625
    },
    {
      "cityName": "Zarnikh",
      "lat": 25.2663889,
      "lng": 32.5944444
    }
  ]
}