{
  "name": "Unnamed region 33",
  "cities": [
    {
      "cityName": "Agoujgal",
      "lat": 28.9141667,
      "lng": -10.6230556
    },
    {
      "cityName": "Aïn Kerma",
      "lat": 28.5019444,
      "lng": -10.8402778
    },
    {
      "cityName": "Âïoun-du-Dra",
      "lat": 28.5013889,
      "lng": -10.6725
    },
    {
      "cityName": "Aoreora",
      "lat": 28.8405556,
      "lng": -10.8447222
    },
    {
      "cityName": "Kheneg el Adam",
      "lat": 28.5027778,
      "lng": -10.7052778
    },
    {
      "cityName": "Tafnidilt",
      "lat": 28.5383333,
      "lng": -10.9886111
    },
    {
      "cityName": "Tidergit",
      "lat": 28.5544444,
      "lng": -10.79
    },
    {
      "cityName": "Timetnous",
      "lat": 28.5466667,
      "lng": -10.7816667
    }
  ]
}