{
  "name": "Unnamed region 07",
  "cities": [
    {
      "cityName": "Aamair el Buied",
      "lat": 35.1677778,
      "lng": -5.9294444
    },
    {
      "cityName": "Aauámara",
      "lat": 35.0702778,
      "lng": -6.0894444
    },
    {
      "cityName": "Abial",
      "lat": 35.4166667,
      "lng": -5.8666667
    },
    {
      "cityName": "Ad Dchira",
      "lat": 35.3055556,
      "lng": -6.0866667
    },
    {
      "cityName": "Adgos",
      "lat": 35.1666667,
      "lng": -5.5833333
    },
    {
      "cityName": "Afra",
      "lat": 35.2166667,
      "lng": -5.6666667
    },
    {
      "cityName": "Agla",
      "lat": 35.15,
      "lng": -5.6833333
    },
    {
      "cityName": "Agouil",
      "lat": 35.3,
      "lng": -5.55
    },
    {
      "cityName": "Ahid",
      "lat": 35.0166667,
      "lng": -5.9833333
    },
    {
      "cityName": "Aïb Bou Kerchoun",
      "lat": 35.165,
      "lng": -5.7969444
    },
    {
      "cityName": "Aïn Ahabar",
      "lat": 35.35,
      "lng": -5.6
    },
    {
      "cityName": "Aïn Aksab",
      "lat": 35.3666667,
      "lng": -5.7833333
    },
    {
      "cityName": "Aïn Aksalb",
      "lat": 35.1333333,
      "lng": -5.8
    },
    {
      "cityName": "Aïn Baïta",
      "lat": 35.2,
      "lng": -5.7333333
    },
    {
      "cityName": "Ain Battiua",
      "lat": 35.2666667,
      "lng": -5.8166667
    },
    {
      "cityName": "Ain Cadah",
      "lat": 35.3644444,
      "lng": -5.8927778
    },
    {
      "cityName": "Aïn ech Chouk",
      "lat": 35.155,
      "lng": -6.1172222
    },
    {
      "cityName": "Aïn el Hajel",
      "lat": 34.95,
      "lng": -5.7333333
    },
    {
      "cityName": "Aïn el Hedid",
      "lat": 35.3130556,
      "lng": -5.6947222
    },
    {
      "cityName": "Aïn es Souar",
      "lat": 35.3666667,
      "lng": -5.8
    },
    {
      "cityName": "Aïn Garzoul",
      "lat": 35.4008333,
      "lng": -5.8561111
    },
    {
      "cityName": "Aïn Krar",
      "lat": 35.0866667,
      "lng": -5.7619444
    },
    {
      "cityName": "Aïn Maâbad",
      "lat": 35.3716667,
      "lng": -5.7836111
    },
    {
      "cityName": "Aïn Maaskar",
      "lat": 35.0166667,
      "lng": -5.8833333
    },
    {
      "cityName": "Aïn Mansour",
      "lat": 35.1833333,
      "lng": -5.8358333
    },
    {
      "cityName": "Aïn Ziana",
      "lat": 35.3333333,
      "lng": -5.6666667
    },
    {
      "cityName": "Aït Kataa",
      "lat": 35.1666667,
      "lng": -6.1333333
    },
    {
      "cityName": "Akersane",
      "lat": 35.25,
      "lng": -5.6833333
    },
    {
      "cityName": "Al `Ara'ish",
      "lat": 35.1972222,
      "lng": -6.1533333
    },
    {
      "cityName": "Alcazarquebir",
      "lat": 35.0055556,
      "lng": -5.9041667
    },
    {
      "cityName": "Alouss",
      "lat": 34.9333333,
      "lng": -5.7333333
    },
    {
      "cityName": "Amar Aïn Henna",
      "lat": 35.2677778,
      "lng": -5.945
    },
    {
      "cityName": "Amar Rouihane",
      "lat": 35.2666667,
      "lng": -5.9666667
    },
    {
      "cityName": "Amegadi",
      "lat": 35.05,
      "lng": -5.75
    },
    {
      "cityName": "Amgâdi",
      "lat": 35.1166667,
      "lng": -5.6
    },
    {
      "cityName": "Amsemblel",
      "lat": 35.3172222,
      "lng": -5.5366667
    },
    {
      "cityName": "Aoma Nejema",
      "lat": 35.1058333,
      "lng": -6.0211111
    },
    {
      "cityName": "Aouacha",
      "lat": 35.0833333,
      "lng": -5.7166667
    },
    {
      "cityName": "Aoumara",
      "lat": 35.0405556,
      "lng": -6.1025
    },
    {
      "cityName": "Arbaa Aayacha",
      "lat": 35.39,
      "lng": -5.89
    },
    {
      "cityName": "Arbaoua",
      "lat": 35.25,
      "lng": -5.9166667
    },
    {
      "cityName": "Arhbal",
      "lat": 35.2833333,
      "lng": -5.85
    },
    {
      "cityName": "Auarmut",
      "lat": 35.2144444,
      "lng": -5.775
    },
    {
      "cityName": "Azib el Foqui",
      "lat": 35.0666667,
      "lng": -5.7
    },
    {
      "cityName": "Azib Oulad Damoun",
      "lat": 35.0552778,
      "lng": -5.8019444
    },
    {
      "cityName": "Baccara",
      "lat": 35.0144444,
      "lng": -5.7630556
    },
    {
      "cityName": "Bakal",
      "lat": 35.0333333,
      "lng": -5.55
    },
    {
      "cityName": "Bargha",
      "lat": 35.0241667,
      "lng": -6.2119444
    },
    {
      "cityName": "Bdaoua et Taïf",
      "lat": 35.2022222,
      "lng": -6.0241667
    },
    {
      "cityName": "Bdaoua Sejra",
      "lat": 35.1697222,
      "lng": -6.04
    },
    {
      "cityName": "Bedana el Goualet",
      "lat": 35.2833333,
      "lng": -5.9666667
    },
    {
      "cityName": "Belleta",
      "lat": 35.2166667,
      "lng": -5.7833333
    },
    {
      "cityName": "Beni Arós",
      "lat": 35.3069444,
      "lng": -5.6302778
    },
    {
      "cityName": "Beni Chrif",
      "lat": 35.2833333,
      "lng": -5.8333333
    },
    {
      "cityName": "Beni Estar",
      "lat": 35.0333333,
      "lng": -5.65
    },
    {
      "cityName": "Beni Gdour",
      "lat": 34.9666667,
      "lng": -5.7333333
    },
    {
      "cityName": "Beni Ihia",
      "lat": 35.2,
      "lng": -5.6
    },
    {
      "cityName": "Beni Kissane",
      "lat": 35.3166667,
      "lng": -6.05
    },
    {
      "cityName": "Beni Maafa",
      "lat": 34.95,
      "lng": -5.7833333
    },
    {
      "cityName": "Beni Malek",
      "lat": 35.4077778,
      "lng": -5.9130556
    },
    {
      "cityName": "Beni Merki",
      "lat": 35.1833333,
      "lng": -5.8333333
    },
    {
      "cityName": "Beni Safar",
      "lat": 35.0333333,
      "lng": -5.6833333
    },
    {
      "cityName": "Berouaga",
      "lat": 35.0938889,
      "lng": -6.0611111
    },
    {
      "cityName": "Bkira",
      "lat": 35,
      "lng": -5.85
    },
    {
      "cityName": "Bni Garfett",
      "lat": 35.2594444,
      "lng": -5.8338889
    },
    {
      "cityName": "Borja",
      "lat": 35.0166667,
      "lng": -5.75
    },
    {
      "cityName": "Bouadrane",
      "lat": 35.15,
      "lng": -5.775
    },
    {
      "cityName": "Bou Aïssa",
      "lat": 35.2888889,
      "lng": -5.9069444
    },
    {
      "cityName": "Bou Amar",
      "lat": 35.35,
      "lng": -5.6391667
    },
    {
      "cityName": "Boucharen",
      "lat": 35.1227778,
      "lng": -6.0780556
    },
    {
      "cityName": "Bouda",
      "lat": 35.1666667,
      "lng": -5.6
    },
    {
      "cityName": "Bou Hachba",
      "lat": 35.4083333,
      "lng": -5.8683333
    },
    {
      "cityName": "Bou Hamsi",
      "lat": 35.2638889,
      "lng": -5.6552778
    },
    {
      "cityName": "Bou Hedyane",
      "lat": 35.1138889,
      "lng": -5.7805556
    },
    {
      "cityName": "Boujaria Habtia",
      "lat": 35.2922222,
      "lng": -5.6736111
    },
    {
      "cityName": "Bou Mahdi",
      "lat": 35.3711111,
      "lng": -5.8344444
    },
    {
      "cityName": "Boumandile",
      "lat": 35.2333333,
      "lng": -5.5666667
    },
    {
      "cityName": "Bou Safi",
      "lat": 35.1925,
      "lng": -6.0344444
    },
    {
      "cityName": "Bouserouas",
      "lat": 35.25,
      "lng": -5.55
    },
    {
      "cityName": "Bouzouhri",
      "lat": 35.2891667,
      "lng": -5.6075
    },
    {
      "cityName": "Bragta",
      "lat": 35.0286111,
      "lng": -6.0672222
    },
    {
      "cityName": "Briiech",
      "lat": 35.3116667,
      "lng": -5.95
    },
    {
      "cityName": "Campamento de Muires",
      "lat": 35.0333333,
      "lng": -5.6166667
    },
    {
      "cityName": "Campamento de Taatof",
      "lat": 35.0363889,
      "lng": -5.7736111
    },
    {
      "cityName": "Charroua",
      "lat": 35.3180556,
      "lng": -6.0711111
    },
    {
      "cityName": "Chefchaouech",
      "lat": 35.2894444,
      "lng": -5.7994444
    },
    {
      "cityName": "Chelihat ed Dahs",
      "lat": 35.1333333,
      "lng": -5.9666667
    },
    {
      "cityName": "Chkaïfien",
      "lat": 35.0388889,
      "lng": -5.9880556
    },
    {
      "cityName": "Chlihat",
      "lat": 35.0852778,
      "lng": -6.0436111
    },
    {
      "cityName": "Chouahed",
      "lat": 35.4138889,
      "lng": -5.9402778
    },
    {
      "cityName": "Chouarièn",
      "lat": 35.0666667,
      "lng": -5.8333333
    },
    {
      "cityName": "Dahiria",
      "lat": 35.1452778,
      "lng": -6.0911111
    },
    {
      "cityName": "Dahr Jaada Beni Arouss",
      "lat": 35.3163889,
      "lng": -5.6175
    },
    {
      "cityName": "Daoura",
      "lat": 35.25,
      "lng": -5.8166667
    },
    {
      "cityName": "Dar Abijane",
      "lat": 35.2655556,
      "lng": -5.5830556
    },
    {
      "cityName": "Dar Barratia",
      "lat": 35.3166667,
      "lng": -5.7666667
    },
    {
      "cityName": "Dar Carmud",
      "lat": 35.2333333,
      "lng": -5.7333333
    },
    {
      "cityName": "Dar Daued",
      "lat": 35.2166667,
      "lng": -5.6833333
    },
    {
      "cityName": "Dar el Haït",
      "lat": 35.3377778,
      "lng": -5.5625
    },
    {
      "cityName": "Dar el Ouad",
      "lat": 35.1,
      "lng": -5.7833333
    },
    {
      "cityName": "Dar Khorfa",
      "lat": 35.2333333,
      "lng": -5.8
    },
    {
      "cityName": "Dar Oulad Ahmou",
      "lat": 35.1166667,
      "lng": -6.1333333
    },
    {
      "cityName": "Dar Oulad el Ghomari",
      "lat": 35.0455556,
      "lng": -6.1763889
    },
    {
      "cityName": "Darouta",
      "lat": 35.15,
      "lng": -5.6
    },
    {
      "cityName": "Dar Siar",
      "lat": 34.9666667,
      "lng": -5.9166667
    },
    {
      "cityName": "Dar Soumati",
      "lat": 35.2333333,
      "lng": -5.6666667
    },
    {
      "cityName": "Dechiar",
      "lat": 35.2544444,
      "lng": -5.5894444
    },
    {
      "cityName": "Dekakla",
      "lat": 34.9666667,
      "lng": -5.9
    },
    {
      "cityName": "Demna",
      "lat": 35.0333333,
      "lng": -5.7166667
    },
    {
      "cityName": "Dou Aïssa",
      "lat": 35.05,
      "lng": -5.8666667
    },
    {
      "cityName": "Douar el Adir",
      "lat": 35.125,
      "lng": -6.0575
    },
    {
      "cityName": "Douar el Kantara",
      "lat": 35.1666667,
      "lng": -5.9833333
    },
    {
      "cityName": "Douar Harrak",
      "lat": 35.0166667,
      "lng": -6.1433333
    },
    {
      "cityName": "Douar Jibila",
      "lat": 35.15,
      "lng": -5.6333333
    },
    {
      "cityName": "Douar Lichaïcha",
      "lat": 35.0133333,
      "lng": -6.1566667
    },
    {
      "cityName": "Douar Naïmiene",
      "lat": 35.0772222,
      "lng": -5.8213889
    },
    {
      "cityName": "Douar Oulad Ahmed",
      "lat": 35.0033333,
      "lng": -6.1169444
    },
    {
      "cityName": "Douar Oulad Ben Saïd",
      "lat": 35.05,
      "lng": -6.0333333
    },
    {
      "cityName": "Douar Oulad Hammou Ben Ali",
      "lat": 35.05,
      "lng": -6.0833333
    },
    {
      "cityName": "Douar Skouna",
      "lat": 35.1133333,
      "lng": -6.0130556
    },
    {
      "cityName": "Douïassa",
      "lat": 35.1166667,
      "lng": -5.9666667
    },
    {
      "cityName": "Doukkala",
      "lat": 35.1694444,
      "lng": -6.0813889
    },
    {
      "cityName": "Ed Delem el 'Emik",
      "lat": 35,
      "lng": -5.6666667
    },
    {
      "cityName": "Ed Drabla",
      "lat": 35.1080556,
      "lng": -5.9541667
    },
    {
      "cityName": "El Aadeb",
      "lat": 35.1527778,
      "lng": -5.9627778
    },
    {
      "cityName": "El Adouma",
      "lat": 35.1486111,
      "lng": -5.8733333
    },
    {
      "cityName": "El Aïoun",
      "lat": 35.2969444,
      "lng": -5.8013889
    },
    {
      "cityName": "El Amaïr el Kouhal",
      "lat": 35.1333333,
      "lng": -5.9333333
    },
    {
      "cityName": "El Amaïrer et Telik",
      "lat": 35.14,
      "lng": -5.9258333
    },
    {
      "cityName": "El Amarèn",
      "lat": 35.3636111,
      "lng": -5.8755556
    },
    {
      "cityName": "El Barhadda",
      "lat": 35.1777778,
      "lng": -5.9941667
    },
    {
      "cityName": "El Biar",
      "lat": 35,
      "lng": -5.75
    },
    {
      "cityName": "El Blat",
      "lat": 35.2333333,
      "lng": -6.0333333
    },
    {
      "cityName": "El Gaïza",
      "lat": 34.9833333,
      "lng": -5.75
    },
    {
      "cityName": "El Gara",
      "lat": 35.0333333,
      "lng": -5.75
    },
    {
      "cityName": "El Gharbia Sella",
      "lat": 35.1413889,
      "lng": -5.9975
    },
    {
      "cityName": "El Guezîra",
      "lat": 35.1613889,
      "lng": -5.5647222
    },
    {
      "cityName": "El Haouta",
      "lat": 35.1966667,
      "lng": -5.7686111
    },
    {
      "cityName": "El Hararsa",
      "lat": 35.0830556,
      "lng": -5.9247222
    },
    {
      "cityName": "El Harech",
      "lat": 35.3308333,
      "lng": -5.5719444
    },
    {
      "cityName": "El Hiaïda",
      "lat": 35.0925,
      "lng": -6.1819444
    },
    {
      "cityName": "El Hiata",
      "lat": 35.0666667,
      "lng": -5.8833333
    },
    {
      "cityName": "El Jmis",
      "lat": 35.2530556,
      "lng": -6.0833333
    },
    {
      "cityName": "El-Kasiba",
      "lat": 35.4330556,
      "lng": -5.8655556
    },
    {
      "cityName": "El Khaldièn",
      "lat": 35.3622222,
      "lng": -5.7708333
    },
    {
      "cityName": "El Khatout",
      "lat": 35.3230556,
      "lng": -5.8427778
    },
    {
      "cityName": "El Kherba Chenatfa",
      "lat": 35.2780556,
      "lng": -5.7233333
    },
    {
      "cityName": "El Khmachfa",
      "lat": 35.3083333,
      "lng": -5.9919444
    },
    {
      "cityName": "El khmamba",
      "lat": 35.2,
      "lng": -5.9666667
    },
    {
      "cityName": "El Khouarra Dermilia",
      "lat": 35.1552778,
      "lng": -5.8966667
    },
    {
      "cityName": "El Khouarra Hejeria",
      "lat": 35.1613889,
      "lng": -5.9077778
    },
    {
      "cityName": "El Mraouna",
      "lat": 35.0333333,
      "lng": -6.0833333
    },
    {
      "cityName": "El Remla",
      "lat": 35.2747222,
      "lng": -5.7952778
    },
    {
      "cityName": "El Rhedira",
      "lat": 35.1502778,
      "lng": -6.1758333
    },
    {
      "cityName": "El Taïf",
      "lat": 35.4,
      "lng": -5.9166667
    },
    {
      "cityName": "El tanajna",
      "lat": 35.1961111,
      "lng": -5.9230556
    },
    {
      "cityName": "Engarja",
      "lat": 35.2058333,
      "lng": -6.0675
    },
    {
      "cityName": "Er Rehamna",
      "lat": 35.0838889,
      "lng": -6.1475
    },
    {
      "cityName": "Essabab",
      "lat": 34.9333333,
      "lng": -5.7666667
    },
    {
      "cityName": "Es Saf",
      "lat": 35.3444444,
      "lng": -5.7819444
    },
    {
      "cityName": "Es Sakhra",
      "lat": 35.2441667,
      "lng": -5.8091667
    },
    {
      "cityName": "Es-Shaddla",
      "lat": 35.0030556,
      "lng": -5.9630556
    },
    {
      "cityName": "Et Tleta de Reissana",
      "lat": 35.2233333,
      "lng": -5.9466667
    },
    {
      "cityName": "Ez Z'ara",
      "lat": 35.0038889,
      "lng": -5.7213889
    },
    {
      "cityName": "Ez Zrahna",
      "lat": 35.2833333,
      "lng": -5.95
    },
    {
      "cityName": "Feddâne Dra",
      "lat": 35.1205556,
      "lng": -5.6633333
    },
    {
      "cityName": "Ferjane",
      "lat": 35.3416667,
      "lng": -5.9191667
    },
    {
      "cityName": "Ferrara",
      "lat": 35.05,
      "lng": -5.55
    },
    {
      "cityName": "Fraïhiene",
      "lat": 35.0027778,
      "lng": -6.0077778
    },
    {
      "cityName": "Habtia",
      "lat": 35.1833333,
      "lng": -5.6666667
    },
    {
      "cityName": "Hajera el Garni",
      "lat": 35.3833333,
      "lng": -5.9
    },
    {
      "cityName": "Hamaïmoun",
      "lat": 35.1225,
      "lng": -5.73
    },
    {
      "cityName": "Hamamat",
      "lat": 35.3711111,
      "lng": -5.8638889
    },
    {
      "cityName": "Hasnaoua",
      "lat": 35.3344444,
      "lng": -6.0191667
    },
    {
      "cityName": "Helamma",
      "lat": 35.2666667,
      "lng": -5.95
    },
    {
      "cityName": "Henancha",
      "lat": 35.3833333,
      "lng": -5.85
    },
    {
      "cityName": "Jahjoûka",
      "lat": 35.0166667,
      "lng": -5.7333333
    },
    {
      "cityName": "Jajouka",
      "lat": 35.0333333,
      "lng": -5.7333333
    },
    {
      "cityName": "Jbinate",
      "lat": 35.1205556,
      "lng": -5.9527778
    },
    {
      "cityName": "Jemaa el Tolba",
      "lat": 35.1166667,
      "lng": -5.9
    },
    {
      "cityName": "Jemaa",
      "lat": 35.35,
      "lng": -5.9166667
    },
    {
      "cityName": "Jouabère",
      "lat": 35.0666667,
      "lng": -5.9
    },
    {
      "cityName": "Kabanech",
      "lat": 35.3166667,
      "lng": -5.7833333
    },
    {
      "cityName": "Kahana",
      "lat": 35.1294444,
      "lng": -6.0127778
    },
    {
      "cityName": "Kaserisi",
      "lat": 35.2,
      "lng": -6.0833333
    },
    {
      "cityName": "Kebbibiene",
      "lat": 35.3,
      "lng": -5.85
    },
    {
      "cityName": "Khendeq Hamra",
      "lat": 34.95,
      "lng": -5.8
    },
    {
      "cityName": "Kherba",
      "lat": 35.1333333,
      "lng": -5.6
    },
    {
      "cityName": "Kheriba",
      "lat": 35.1908333,
      "lng": -5.7558333
    },
    {
      "cityName": "Khiam Zaïzoun",
      "lat": 35.4333333,
      "lng": -5.8833333
    },
    {
      "cityName": "Kifane",
      "lat": 35.3041667,
      "lng": -5.8536111
    },
    {
      "cityName": "Krabate",
      "lat": 35.0825,
      "lng": -5.8622222
    },
    {
      "cityName": "Laghouazi",
      "lat": 35.0280556,
      "lng": -6.1438889
    },
    {
      "cityName": "Lesf Dkhalef",
      "lat": 35.1544444,
      "lng": -5.8063889
    },
    {
      "cityName": "Loudinene",
      "lat": 35,
      "lng": -6.0666667
    },
    {
      "cityName": "Maada",
      "lat": 35.0325,
      "lng": -5.8102778
    },
    {
      "cityName": "Maïsra",
      "lat": 35.3183333,
      "lng": -5.71
    },
    {
      "cityName": "Maïzene",
      "lat": 35.3355556,
      "lng": -5.6508333
    },
    {
      "cityName": "Marrakchiene",
      "lat": 35.4188889,
      "lng": -5.9522222
    },
    {
      "cityName": "Mechmoula",
      "lat": 35.3,
      "lng": -5.6166667
    },
    {
      "cityName": "Megasliene",
      "lat": 35.3333333,
      "lng": -5.7666667
    },
    {
      "cityName": "Meliana",
      "lat": 34.9833333,
      "lng": -5.7666667
    },
    {
      "cityName": "Meniala",
      "lat": 35.4216667,
      "lng": -5.8766667
    },
    {
      "cityName": "Menjera",
      "lat": 35.1,
      "lng": -5.6333333
    },
    {
      "cityName": "Merj Hammoud",
      "lat": 35.3594444,
      "lng": -5.6452778
    },
    {
      "cityName": "Mermat",
      "lat": 35.2666667,
      "lng": -5.8333333
    },
    {
      "cityName": "Mesgalef",
      "lat": 35.2922222,
      "lng": -6.0944444
    },
    {
      "cityName": "Mesrah",
      "lat": 35.0833333,
      "lng": -5.5666667
    },
    {
      "cityName": "Mouara er Rmel",
      "lat": 35.0666667,
      "lng": -6.1
    },
    {
      "cityName": "Mouara Smid el Ma",
      "lat": 35.0622222,
      "lng": -6.0922222
    },
    {
      "cityName": "Msila",
      "lat": 35.2166667,
      "lng": -5.5666667
    },
    {
      "cityName": "Nemsa",
      "lat": 35.0872222,
      "lng": -6.0822222
    },
    {
      "cityName": "Ouarziene",
      "lat": 35.1166667,
      "lng": -5.55
    },
    {
      "cityName": "Oufad Boudraâ",
      "lat": 35.0655556,
      "lng": -5.9386111
    },
    {
      "cityName": "Oulad Ali Medoauna",
      "lat": 35.1316667,
      "lng": -5.855
    },
    {
      "cityName": "Oulad Ali Tlig",
      "lat": 35.0630556,
      "lng": -5.8494444
    },
    {
      "cityName": "Oulad Amrane el Krota",
      "lat": 35.2166667,
      "lng": -5.9666667
    },
    {
      "cityName": "Oulad Amrane el Krouta",
      "lat": 35.2166667,
      "lng": -5.95
    },
    {
      "cityName": "Oulad Ben Allal",
      "lat": 35.3,
      "lng": -5.8333333
    },
    {
      "cityName": "Oulad Ben Assas",
      "lat": 35.05,
      "lng": -5.8833333
    },
    {
      "cityName": "Oulad Ben Ayad",
      "lat": 35.05,
      "lng": -5.95
    },
    {
      "cityName": "Oulad Benayyad",
      "lat": 35.1311111,
      "lng": -5.8827778
    },
    {
      "cityName": "Oulad ben Daou",
      "lat": 35.2405556,
      "lng": -5.9913889
    },
    {
      "cityName": "Oulad Ben Saïd",
      "lat": 35.1675,
      "lng": -5.9636111
    },
    {
      "cityName": "Oulad Bensar",
      "lat": 35.25,
      "lng": -5.9833333
    },
    {
      "cityName": "Oulad Ben Taïeb",
      "lat": 35.3166667,
      "lng": -5.85
    },
    {
      "cityName": "Oulad Bouacha",
      "lat": 35.1,
      "lng": -5.8833333
    },
    {
      "cityName": "Oulad bou Amida",
      "lat": 35.2666667,
      "lng": -5.9833333
    },
    {
      "cityName": "Oulad Bouchta Ouarour",
      "lat": 35.0952778,
      "lng": -5.9441667
    },
    {
      "cityName": "Oulad Boujemaa",
      "lat": 35.4286111,
      "lng": -5.8927778
    },
    {
      "cityName": "Oulad Bou Jenoun",
      "lat": 35.1,
      "lng": -5.9333333
    },
    {
      "cityName": "Oulad Boujnoun",
      "lat": 35.1211111,
      "lng": -5.9191667
    },
    {
      "cityName": "Oulad Boukhachau",
      "lat": 35.0561111,
      "lng": -6.0038889
    },
    {
      "cityName": "Oulad Bou Melha",
      "lat": 35.25,
      "lng": -5.9666667
    },
    {
      "cityName": "Oulad Chaehbi",
      "lat": 35.1416667,
      "lng": -5.9447222
    },
    {
      "cityName": "Oulad Chetouane",
      "lat": 34.9833333,
      "lng": -5.8833333
    },
    {
      "cityName": "Oulad el Klaï",
      "lat": 35.2166667,
      "lng": -6
    },
    {
      "cityName": "Oulad Hamid Kherichfa",
      "lat": 35.0463889,
      "lng": -5.9444444
    },
    {
      "cityName": "Oulad Hammou Khazal",
      "lat": 35.2327778,
      "lng": -5.9808333
    },
    {
      "cityName": "Oulad Hammou",
      "lat": 35.0833333,
      "lng": -6.0833333
    },
    {
      "cityName": "Oulad Hasaal",
      "lat": 35.06,
      "lng": -5.9716667
    },
    {
      "cityName": "Oulad Ihia",
      "lat": 35.1833333,
      "lng": -5.9833333
    },
    {
      "cityName": "Oulad Jeli",
      "lat": 35.1166667,
      "lng": -5.8833333
    },
    {
      "cityName": "Oulad Jemil",
      "lat": 35.0830556,
      "lng": -5.9083333
    },
    {
      "cityName": "Oulad Khalkhal",
      "lat": 35.2,
      "lng": -5.95
    },
    {
      "cityName": "Oulad Merah",
      "lat": 35.17,
      "lng": -6.015
    },
    {
      "cityName": "Oulad Moussa",
      "lat": 35.3166667,
      "lng": -5.95
    },
    {
      "cityName": "Oulad Ouchich",
      "lat": 35.0383333,
      "lng": -5.9358333
    },
    {
      "cityName": "Oulad Sehar",
      "lat": 35.0577778,
      "lng": -6.2138889
    },
    {
      "cityName": "Oulad Soultane",
      "lat": 35.0372222,
      "lng": -5.8419444
    },
    {
      "cityName": "Oulad Soultane Takount",
      "lat": 35.2172222,
      "lng": -5.9266667
    },
    {
      "cityName": "Oulad Tnoun Bounkab",
      "lat": 35.1005556,
      "lng": -5.9216667
    },
    {
      "cityName": "Oumeras",
      "lat": 35.2833333,
      "lng": -5.6166667
    },
    {
      "cityName": "Rahaba",
      "lat": 35.1833333,
      "lng": -5.6
    },
    {
      "cityName": "Rakada",
      "lat": 35.2166667,
      "lng": -6.1333333
    },
    {
      "cityName": "Regagda",
      "lat": 35.0833333,
      "lng": -5.85
    },
    {
      "cityName": "Rehahla",
      "lat": 35.0161111,
      "lng": -6.0375
    },
    {
      "cityName": "Rehiine",
      "lat": 35.2266667,
      "lng": -6.0769444
    },
    {
      "cityName": "Rhira",
      "lat": 35,
      "lng": -5.6166667
    },
    {
      "cityName": "Rif d'Aïn Hedid",
      "lat": 35.2666667,
      "lng": -5.7333333
    },
    {
      "cityName": "Rmela",
      "lat": 35.2833333,
      "lng": -5.6666667
    },
    {
      "cityName": "Rouaousa",
      "lat": 35.2575,
      "lng": -5.7058333
    },
    {
      "cityName": "Safsaf",
      "lat": 35.1875,
      "lng": -5.8111111
    },
    {
      "cityName": "Saherat el Ket",
      "lat": 35.0166667,
      "lng": -5.6833333
    },
    {
      "cityName": "Salatna",
      "lat": 35.4166667,
      "lng": -5.8833333
    },
    {
      "cityName": "Sanijat",
      "lat": 35.0666667,
      "lng": -6
    },
    {
      "cityName": "Seboula",
      "lat": 35.15,
      "lng": -5.8333333
    },
    {
      "cityName": "Senadla",
      "lat": 35.0666667,
      "lng": -5.85
    },
    {
      "cityName": "Sendiene",
      "lat": 35.2122222,
      "lng": -6.0841667
    },
    {
      "cityName": "Shay Shat",
      "lat": 35.0816667,
      "lng": -6.0408333
    },
    {
      "cityName": "Siar",
      "lat": 35.2366667,
      "lng": -5.9272222
    },
    {
      "cityName": "Sidi Bousefra",
      "lat": 35.15,
      "lng": -5.75
    },
    {
      "cityName": "Soko Arbaá see Arba Ayacha",
      "lat": 35.3833333,
      "lng": -5.8833333
    },
    {
      "cityName": "Souakèn",
      "lat": 35.1166667,
      "lng": -5.95
    },
    {
      "cityName": "Soualah Kherichfa",
      "lat": 35.0666667,
      "lng": -5.9833333
    },
    {
      "cityName": "Soualah",
      "lat": 35.0083333,
      "lng": -5.9713889
    },
    {
      "cityName": "Taferanate",
      "lat": 35.1833333,
      "lng": -5.75
    },
    {
      "cityName": "Taguezart",
      "lat": 35.2930556,
      "lng": -5.5775
    },
    {
      "cityName": "Tahlal",
      "lat": 35.2536111,
      "lng": -5.9838889
    },
    {
      "cityName": "Taoula",
      "lat": 35.2666667,
      "lng": -5.7166667
    },
    {
      "cityName": "Taria",
      "lat": 35.0666667,
      "lng": -5.6166667
    },
    {
      "cityName": "Tarzoute",
      "lat": 35.2666667,
      "lng": -5.5469444
    },
    {
      "cityName": "Tas el Mart",
      "lat": 35.4333333,
      "lng": -5.8666667
    },
    {
      "cityName": "Tazglout",
      "lat": 35.2511111,
      "lng": -5.5783333
    },
    {
      "cityName": "Tekchana",
      "lat": 35.25,
      "lng": -6.0166667
    },
    {
      "cityName": "Timeslane",
      "lat": 35.1833333,
      "lng": -5.7
    },
    {
      "cityName": "Timezlane",
      "lat": 35.1833333,
      "lng": -5.6833333
    },
    {
      "cityName": "Tisemlal",
      "lat": 35.1688889,
      "lng": -5.8161111
    },
    {
      "cityName": "Zeïtouna",
      "lat": 35.2,
      "lng": -5.6666667
    },
    {
      "cityName": "Zerâïb",
      "lat": 35.0380556,
      "lng": -5.5863889
    },
    {
      "cityName": "Zlaoula",
      "lat": 35.0261111,
      "lng": -6.18
    }
  ]
}