{
  "name": "Southern",
  "cities": [
    {
      "cityName": "Baama",
      "lat": 8.1,
      "lng": -11.45
    },
    {
      "cityName": "Baba",
      "lat": 7.3069444,
      "lng": -12.2219444
    },
    {
      "cityName": "Babu",
      "lat": 7.4455556,
      "lng": -12.46
    },
    {
      "cityName": "Bachalo",
      "lat": 7.5947222,
      "lng": -12.8588889
    },
    {
      "cityName": "Bagbwema",
      "lat": 8.15,
      "lng": -12.15
    },
    {
      "cityName": "Baha",
      "lat": 7.5091667,
      "lng": -12.3183333
    },
    {
      "cityName": "Bahal",
      "lat": 7.5319444,
      "lng": -12.0169444
    },
    {
      "cityName": "Bahama",
      "lat": 7.2977778,
      "lng": -11.3486111
    },
    {
      "cityName": "Bahol",
      "lat": 7.5277778,
      "lng": -12.0308333
    },
    {
      "cityName": "Baiama",
      "lat": 7.3333333,
      "lng": -11.2666667
    },
    {
      "cityName": "Baiawa",
      "lat": 7.4166667,
      "lng": -11.7166667
    },
    {
      "cityName": "Baiima",
      "lat": 7.8333333,
      "lng": -11.6166667
    },
    {
      "cityName": "Baka",
      "lat": 7.4305556,
      "lng": -12.2883333
    },
    {
      "cityName": "Balahun",
      "lat": 7.9255556,
      "lng": -12.0147222
    },
    {
      "cityName": "Balalo",
      "lat": 7.4833333,
      "lng": -12.5166667
    },
    {
      "cityName": "Balantin",
      "lat": 8.1,
      "lng": -12.7666667
    },
    {
      "cityName": "Bale",
      "lat": 7.3833333,
      "lng": -11.7833333
    },
    {
      "cityName": "Balo",
      "lat": 7.4763889,
      "lng": -12.3419444
    },
    {
      "cityName": "Bama",
      "lat": 7.1713889,
      "lng": -11.4036111
    },
    {
      "cityName": "Bamanjama",
      "lat": 8.3,
      "lng": -11.5
    },
    {
      "cityName": "Bamata",
      "lat": 7.5166667,
      "lng": -11.6333333
    },
    {
      "cityName": "Bamba",
      "lat": 7.41,
      "lng": -12.5358333
    },
    {
      "cityName": "Bambako",
      "lat": 7.3525,
      "lng": -11.3641667
    },
    {
      "cityName": "Bambara",
      "lat": 8.0166667,
      "lng": -11.6166667
    },
    {
      "cityName": "Bambaworo",
      "lat": 8.3333333,
      "lng": -12.35
    },
    {
      "cityName": "Bambe",
      "lat": 7.5113889,
      "lng": -12.5502778
    },
    {
      "cityName": "Bambuibu",
      "lat": 7.9188889,
      "lng": -12.665
    },
    {
      "cityName": "Banahun",
      "lat": 7.1666667,
      "lng": -11.8833333
    },
    {
      "cityName": "Banale",
      "lat": 7.4833333,
      "lng": -11.85
    },
    {
      "cityName": "Banda",
      "lat": 7.9666667,
      "lng": -11.9
    },
    {
      "cityName": "Bandajama",
      "lat": 7.5744444,
      "lng": -11.6525
    },
    {
      "cityName": "Bandajuma",
      "lat": 7.3719444,
      "lng": -11.4094444
    },
    {
      "cityName": "Bandako",
      "lat": 7.2827778,
      "lng": -11.8611111
    },
    {
      "cityName": "Bandalahun",
      "lat": 7.4366667,
      "lng": -11.7530556
    },
    {
      "cityName": "Bandama",
      "lat": 7.3830556,
      "lng": -11.6008333
    },
    {
      "cityName": "Bandasa",
      "lat": 7.7088889,
      "lng": -12.0547222
    },
    {
      "cityName": "Bandawa",
      "lat": 7.9969444,
      "lng": -11.7963889
    },
    {
      "cityName": "Bandi",
      "lat": 8.1166667,
      "lng": -11.7833333
    },
    {
      "cityName": "Bangabu",
      "lat": 8,
      "lng": -11.5666667
    },
    {
      "cityName": "Bangagolehun",
      "lat": 8.1177778,
      "lng": -12.7166667
    },
    {
      "cityName": "Bangalo",
      "lat": 7.825,
      "lng": -12.4022222
    },
    {
      "cityName": "Bangba",
      "lat": 7.9166667,
      "lng": -12.1666667
    },
    {
      "cityName": "Bangbalia",
      "lat": 7.5666667,
      "lng": -11.9
    },
    {
      "cityName": "Bangbama",
      "lat": 8.2486111,
      "lng": -12.3336111
    },
    {
      "cityName": "Bangbema",
      "lat": 8.25,
      "lng": -12.5833333
    },
    {
      "cityName": "Bangema",
      "lat": 7.7666667,
      "lng": -11.6
    },
    {
      "cityName": "Bango",
      "lat": 7.4866667,
      "lng": -12.5811111
    },
    {
      "cityName": "Bangoma",
      "lat": 7.2241667,
      "lng": -11.8405556
    },
    {
      "cityName": "Bangulihun",
      "lat": 7.3166667,
      "lng": -11.2333333
    },
    {
      "cityName": "Banjala",
      "lat": 7.9925,
      "lng": -11.3422222
    },
    {
      "cityName": "Banyamahun",
      "lat": 8.2333333,
      "lng": -11.4333333
    },
    {
      "cityName": "Baoma",
      "lat": 8.1,
      "lng": -11.35
    },
    {
      "cityName": "Baomahun",
      "lat": 7.7844444,
      "lng": -11.6669444
    },
    {
      "cityName": "Baomo",
      "lat": 7.9294444,
      "lng": -11.4386111
    },
    {
      "cityName": "Bap",
      "lat": 7.3763889,
      "lng": -12.2616667
    },
    {
      "cityName": "Baraka",
      "lat": 7.0180556,
      "lng": -11.4463889
    },
    {
      "cityName": "Bar",
      "lat": 7.2333333,
      "lng": -11.55
    },
    {
      "cityName": "Barema",
      "lat": 8.05,
      "lng": -12
    },
    {
      "cityName": "Bari",
      "lat": 8.0166667,
      "lng": -11.5833333
    },
    {
      "cityName": "Basa",
      "lat": 7.9,
      "lng": -12.4666667
    },
    {
      "cityName": "Basale",
      "lat": 7.3166667,
      "lng": -11.8
    },
    {
      "cityName": "Basama",
      "lat": 8.3833333,
      "lng": -11.7166667
    },
    {
      "cityName": "Batahol",
      "lat": 7.3455556,
      "lng": -11.8752778
    },
    {
      "cityName": "Batbai",
      "lat": 8.1833333,
      "lng": -12.9166667
    },
    {
      "cityName": "Batema",
      "lat": 8,
      "lng": -11.7
    },
    {
      "cityName": "Batiema",
      "lat": 8.0833333,
      "lng": -12.0833333
    },
    {
      "cityName": "Batiyema",
      "lat": 7.9833333,
      "lng": -11.7166667
    },
    {
      "cityName": "Batoma",
      "lat": 7.35,
      "lng": -11.4166667
    },
    {
      "cityName": "Batpo",
      "lat": 8.3,
      "lng": -12.6333333
    },
    {
      "cityName": "Baula",
      "lat": 8.05,
      "lng": -11.5333333
    },
    {
      "cityName": "Bauya",
      "lat": 7.6177778,
      "lng": -12.0805556
    },
    {
      "cityName": "Bawura",
      "lat": 7.9166667,
      "lng": -11.7
    },
    {
      "cityName": "Belbul",
      "lat": 7.5511111,
      "lng": -12.8380556
    },
    {
      "cityName": "Bele",
      "lat": 7.8,
      "lng": -12.6
    },
    {
      "cityName": "Belebu",
      "lat": 7.2166667,
      "lng": -11.6730556
    },
    {
      "cityName": "Belihun",
      "lat": 8.35,
      "lng": -11.6
    },
    {
      "cityName": "Belor",
      "lat": 7.95,
      "lng": -11.95
    },
    {
      "cityName": "Bembe",
      "lat": 8.0833333,
      "lng": -12.7166667
    },
    {
      "cityName": "Bembebu",
      "lat": 7.55,
      "lng": -12.5333333
    },
    {
      "cityName": "Bembelo Giema",
      "lat": 7.7352778,
      "lng": -12.7061111
    },
    {
      "cityName": "Bembelo Njala",
      "lat": 7.7166667,
      "lng": -12.7166667
    },
    {
      "cityName": "Bembeya",
      "lat": 7.7666667,
      "lng": -12.3333333
    },
    {
      "cityName": "Bempa",
      "lat": 7.1833333,
      "lng": -11.7666667
    },
    {
      "cityName": "Bendehun",
      "lat": 8.1833333,
      "lng": -11.5
    },
    {
      "cityName": "Bendu",
      "lat": 7.4777778,
      "lng": -12.0102778
    },
    {
      "cityName": "Benduma",
      "lat": 7.2666667,
      "lng": -11.9666667
    },
    {
      "cityName": "Benga",
      "lat": 7.3716667,
      "lng": -11.7547222
    },
    {
      "cityName": "Bengani",
      "lat": 7.1755556,
      "lng": -11.9033333
    },
    {
      "cityName": "Benge",
      "lat": 7.4213889,
      "lng": -11.9672222
    },
    {
      "cityName": "Bengi",
      "lat": 7.4583333,
      "lng": -11.66
    },
    {
      "cityName": "Benkeh",
      "lat": 7.8302778,
      "lng": -12.5380556
    },
    {
      "cityName": "Benkisa",
      "lat": 7.4166667,
      "lng": -11.95
    },
    {
      "cityName": "Benti",
      "lat": 7.4833333,
      "lng": -12.0666667
    },
    {
      "cityName": "Benyama",
      "lat": 7.25,
      "lng": -11.2166667
    },
    {
      "cityName": "Bepi",
      "lat": 7.7,
      "lng": -11.8333333
    },
    {
      "cityName": "Bepon",
      "lat": 7.25,
      "lng": -11.2833333
    },
    {
      "cityName": "Betesu",
      "lat": 7.2166667,
      "lng": -11.5833333
    },
    {
      "cityName": "Bevehun",
      "lat": 7.4527778,
      "lng": -11.4986111
    },
    {
      "cityName": "Bewobu",
      "lat": 8.2166667,
      "lng": -11.5166667
    },
    {
      "cityName": "Bilo",
      "lat": 7.4,
      "lng": -12.55
    },
    {
      "cityName": "Bimaso",
      "lat": 7.05,
      "lng": -11.5666667
    },
    {
      "cityName": "Bindohun",
      "lat": 7.4563889,
      "lng": -12.3216667
    },
    {
      "cityName": "Bisao",
      "lat": 7.4166667,
      "lng": -11.8833333
    },
    {
      "cityName": "Bisawo",
      "lat": 7.6405556,
      "lng": -12.1572222
    },
    {
      "cityName": "Bisibu",
      "lat": 8.1166667,
      "lng": -11.8666667
    },
    {
      "cityName": "Bith",
      "lat": 7.8533333,
      "lng": -12.7713889
    },
    {
      "cityName": "Bitima",
      "lat": 8.15,
      "lng": -11.6833333
    },
    {
      "cityName": "Blama",
      "lat": 7.1166667,
      "lng": -11.5833333
    },
    {
      "cityName": "Boabu",
      "lat": 8.0666667,
      "lng": -11.3666667
    },
    {
      "cityName": "Bobe",
      "lat": 7.5761111,
      "lng": -12.6541667
    },
    {
      "cityName": "Bo",
      "lat": 7.9647222,
      "lng": -11.7383333
    },
    {
      "cityName": "Bobobu",
      "lat": 7.4019444,
      "lng": -11.6733333
    },
    {
      "cityName": "Bohehun",
      "lat": 8.3833333,
      "lng": -11.65
    },
    {
      "cityName": "Bohoi",
      "lat": 8.1383333,
      "lng": -12.1794444
    },
    {
      "cityName": "Bohol",
      "lat": 7.3958333,
      "lng": -12.1075
    },
    {
      "cityName": "Bohun",
      "lat": 7.2833333,
      "lng": -11.9
    },
    {
      "cityName": "Bokeni",
      "lat": 8.0666667,
      "lng": -11.35
    },
    {
      "cityName": "Bokuma",
      "lat": 8.3166667,
      "lng": -11.65
    },
    {
      "cityName": "Boloma",
      "lat": 7.2347222,
      "lng": -11.3911111
    },
    {
      "cityName": "Boma",
      "lat": 7.1666667,
      "lng": -11.75
    },
    {
      "cityName": "Bomahun",
      "lat": 8.2,
      "lng": -12.1666667
    },
    {
      "cityName": "Bomatok",
      "lat": 7.5469444,
      "lng": -12.6022222
    },
    {
      "cityName": "Bombe",
      "lat": 8.3833333,
      "lng": -11.6666667
    },
    {
      "cityName": "Bombohun",
      "lat": 7.0213889,
      "lng": -11.4652778
    },
    {
      "cityName": "Bomboma",
      "lat": 7.2155556,
      "lng": -11.3083333
    },
    {
      "cityName": "Bomdei",
      "lat": 7.8836111,
      "lng": -12.5386111
    },
    {
      "cityName": "Bomemahun",
      "lat": 7.4830556,
      "lng": -12.3788889
    },
    {
      "cityName": "Bomi",
      "lat": 7.2461111,
      "lng": -11.5258333
    },
    {
      "cityName": "Bomotoke",
      "lat": 7.82,
      "lng": -12.6563889
    },
    {
      "cityName": "Bompetok",
      "lat": 7.8138889,
      "lng": -12.85
    },
    {
      "cityName": "Bompeworo",
      "lat": 8.1333333,
      "lng": -11.3833333
    },
    {
      "cityName": "Bomu",
      "lat": 7.4580556,
      "lng": -11.6188889
    },
    {
      "cityName": "Bomuvulahun",
      "lat": 7.5,
      "lng": -11.8166667
    },
    {
      "cityName": "Bondal",
      "lat": 7.995,
      "lng": -12.7811111
    },
    {
      "cityName": "Bondama",
      "lat": 8.0333333,
      "lng": -11.7833333
    },
    {
      "cityName": "Bondam",
      "lat": 7.8413889,
      "lng": -12.6091667
    },
    {
      "cityName": "Bondayilahun",
      "lat": 8.0358333,
      "lng": -12.1316667
    },
    {
      "cityName": "Bondayirahun",
      "lat": 8.1333333,
      "lng": -11.9833333
    },
    {
      "cityName": "Bondebu",
      "lat": 7.3119444,
      "lng": -12.1480556
    },
    {
      "cityName": "Bongama",
      "lat": 8.2833333,
      "lng": -12.1833333
    },
    {
      "cityName": "Bonganema",
      "lat": 8.1302778,
      "lng": -12.0608333
    },
    {
      "cityName": "Bongboma",
      "lat": 7.0663889,
      "lng": -11.4830556
    },
    {
      "cityName": "Bonge",
      "lat": 7.5572222,
      "lng": -12.7361111
    },
    {
      "cityName": "Bongere",
      "lat": 7.5333333,
      "lng": -11.5166667
    },
    {
      "cityName": "Bongoya",
      "lat": 8.0177778,
      "lng": -12.0986111
    },
    {
      "cityName": "Bonjema",
      "lat": 7.8416667,
      "lng": -12.7166667
    },
    {
      "cityName": "Bonth",
      "lat": 7.5263889,
      "lng": -12.505
    },
    {
      "cityName": "Bontiwo",
      "lat": 7.6294444,
      "lng": -11.6705556
    },
    {
      "cityName": "Bontiworo",
      "lat": 7.6816667,
      "lng": -11.8133333
    },
    {
      "cityName": "Bopan",
      "lat": 7.1833333,
      "lng": -11.6833333
    },
    {
      "cityName": "Bopo",
      "lat": 7.1705556,
      "lng": -11.5919444
    },
    {
      "cityName": "Bopon",
      "lat": 7.1833333,
      "lng": -11.4666667
    },
    {
      "cityName": "Botima",
      "lat": 8.2833333,
      "lng": -12.85
    },
    {
      "cityName": "Boto",
      "lat": 7.3947222,
      "lng": -12.1561111
    },
    {
      "cityName": "Bowama",
      "lat": 8.1333333,
      "lng": -12
    },
    {
      "cityName": "Boyama",
      "lat": 7.525,
      "lng": -11.8186111
    },
    {
      "cityName": "Boyipie",
      "lat": 7.4166667,
      "lng": -11.9333333
    },
    {
      "cityName": "Bradford",
      "lat": 8.3,
      "lng": -12.75
    },
    {
      "cityName": "Buabu",
      "lat": 8.15,
      "lng": -11.4333333
    },
    {
      "cityName": "Buawola",
      "lat": 7.7333333,
      "lng": -11.45
    },
    {
      "cityName": "Buma",
      "lat": 7.1444444,
      "lng": -11.5463889
    },
    {
      "cityName": "Bumbe",
      "lat": 7.2844444,
      "lng": -11.5630556
    },
    {
      "cityName": "Bumbeworo",
      "lat": 7.9652778,
      "lng": -12.0877778
    },
    {
      "cityName": "Bum",
      "lat": 7.5044444,
      "lng": -11.8775
    },
    {
      "cityName": "Bumoe",
      "lat": 7.4897222,
      "lng": -11.5627778
    },
    {
      "cityName": "Bumpetok",
      "lat": 7.4025,
      "lng": -12.0361111
    },
    {
      "cityName": "Bunabu",
      "lat": 8.1333333,
      "lng": -12.1833333
    },
    {
      "cityName": "Bunde",
      "lat": 7.8094444,
      "lng": -12.5991667
    },
    {
      "cityName": "Bundobu",
      "lat": 7.9166667,
      "lng": -11.5
    },
    {
      "cityName": "Bundukaw",
      "lat": 7.15,
      "lng": -11.7
    },
    {
      "cityName": "Bunjema",
      "lat": 7.75,
      "lng": -11.4833333
    },
    {
      "cityName": "Bunti",
      "lat": 7.8666667,
      "lng": -12.8666667
    },
    {
      "cityName": "Bure",
      "lat": 7.8816667,
      "lng": -12.9016667
    },
    {
      "cityName": "Busu",
      "lat": 7.4841667,
      "lng": -11.4469444
    },
    {
      "cityName": "Buya",
      "lat": 8.3166667,
      "lng": -12.2833333
    },
    {
      "cityName": "Buyama",
      "lat": 7.0519444,
      "lng": -11.6708333
    },
    {
      "cityName": "Buyebu",
      "lat": 8.25,
      "lng": -12.1166667
    },
    {
      "cityName": "Buyehun",
      "lat": 8.15,
      "lng": -11.7166667
    },
    {
      "cityName": "Cher",
      "lat": 7.8058333,
      "lng": -12.7636111
    },
    {
      "cityName": "Chokolo",
      "lat": 7.6333333,
      "lng": -12.3666667
    },
    {
      "cityName": "Dablama",
      "lat": 7.5927778,
      "lng": -12.8322222
    },
    {
      "cityName": "Dabu",
      "lat": 8.0833333,
      "lng": -12.6166667
    },
    {
      "cityName": "Dahama",
      "lat": 8.05,
      "lng": -11.3333333
    },
    {
      "cityName": "Dama",
      "lat": 7.2244444,
      "lng": -11.8591667
    },
    {
      "cityName": "Dambaba",
      "lat": 8.1166667,
      "lng": -11.7
    },
    {
      "cityName": "Dambara",
      "lat": 7.3833333,
      "lng": -11.7
    },
    {
      "cityName": "Dambu",
      "lat": 8.1833333,
      "lng": -12.45
    },
    {
      "cityName": "Dandabu",
      "lat": 7.4766667,
      "lng": -11.6847222
    },
    {
      "cityName": "Danda",
      "lat": 7.5538889,
      "lng": -12.6338889
    },
    {
      "cityName": "Dandegahun",
      "lat": 7.4041667,
      "lng": -11.4358333
    },
    {
      "cityName": "Dar-es-Salaam",
      "lat": 7.0919444,
      "lng": -11.5247222
    },
    {
      "cityName": "Dawambu",
      "lat": 8.1166667,
      "lng": -11.4666667
    },
    {
      "cityName": "Delken",
      "lat": 7.6247222,
      "lng": -12.7408333
    },
    {
      "cityName": "Demaboa",
      "lat": 7.55,
      "lng": -12
    },
    {
      "cityName": "Dema",
      "lat": 7.45,
      "lng": -11.95
    },
    {
      "cityName": "Denibe",
      "lat": 7.1,
      "lng": -11.5333333
    },
    {
      "cityName": "Dia",
      "lat": 7.0833333,
      "lng": -11.35
    },
    {
      "cityName": "Diamani",
      "lat": 7.2305556,
      "lng": -11.9022222
    },
    {
      "cityName": "Diamei",
      "lat": 7.4333333,
      "lng": -11.6666667
    },
    {
      "cityName": "Diamein",
      "lat": 7.4338889,
      "lng": -11.6588889
    },
    {
      "cityName": "Dibia",
      "lat": 6.9891667,
      "lng": -11.5983333
    },
    {
      "cityName": "Dikpaya",
      "lat": 7.8333333,
      "lng": -11.7833333
    },
    {
      "cityName": "Dina",
      "lat": 7.5833333,
      "lng": -11.7166667
    },
    {
      "cityName": "Dinga",
      "lat": 7.4166667,
      "lng": -12.5611111
    },
    {
      "cityName": "Dipala",
      "lat": 7.5,
      "lng": -12.1333333
    },
    {
      "cityName": "Disalami",
      "lat": 7.2361111,
      "lng": -11.26
    },
    {
      "cityName": "Diyange",
      "lat": 7.3069444,
      "lng": -11.6144444
    },
    {
      "cityName": "Dodo",
      "lat": 7.4933333,
      "lng": -12.2166667
    },
    {
      "cityName": "Dogema",
      "lat": 7.8716667,
      "lng": -12.1783333
    },
    {
      "cityName": "Domboma",
      "lat": 8.0544444,
      "lng": -12.0816667
    },
    {
      "cityName": "Dombu",
      "lat": 7.3166667,
      "lng": -11.2666667
    },
    {
      "cityName": "Domo",
      "lat": 7.7911111,
      "lng": -12.7205556
    },
    {
      "cityName": "Dowoloma",
      "lat": 7.2166667,
      "lng": -11.4
    },
    {
      "cityName": "Dudia",
      "lat": 7.4,
      "lng": -11.95
    },
    {
      "cityName": "Dulipuibu",
      "lat": 7.7958333,
      "lng": -12.0436111
    },
    {
      "cityName": "Dumagbe",
      "lat": 7.0811111,
      "lng": -11.6169444
    },
    {
      "cityName": "Duvubu",
      "lat": 8.4333333,
      "lng": -11.55
    },
    {
      "cityName": "Eaiama",
      "lat": 7.3452778,
      "lng": -11.5291667
    },
    {
      "cityName": "Egbema",
      "lat": 7.1352778,
      "lng": -11.3558333
    },
    {
      "cityName": "Faabu",
      "lat": 8,
      "lng": -11.35
    },
    {
      "cityName": "Fabaina",
      "lat": 7.0366667,
      "lng": -11.48
    },
    {
      "cityName": "Fabu",
      "lat": 7.6333333,
      "lng": -11.8833333
    },
    {
      "cityName": "Factri",
      "lat": 7.5236111,
      "lng": -12.2525
    },
    {
      "cityName": "Faikundo",
      "lat": 7.2333333,
      "lng": -11.9
    },
    {
      "cityName": "Failahun",
      "lat": 7.7833333,
      "lng": -11.7666667
    },
    {
      "cityName": "Faima",
      "lat": 7.6852778,
      "lng": -11.5697222
    },
    {
      "cityName": "Fainda",
      "lat": 7.05,
      "lng": -11.5833333
    },
    {
      "cityName": "Fairo",
      "lat": 7.0927778,
      "lng": -11.4033333
    },
    {
      "cityName": "Fajkundo",
      "lat": 7.8019444,
      "lng": -11.8958333
    },
    {
      "cityName": "Fakabai",
      "lat": 7.9847222,
      "lng": -12.7858333
    },
    {
      "cityName": "Fakai",
      "lat": 7.4783333,
      "lng": -11.3788889
    },
    {
      "cityName": "Fakaisana",
      "lat": 7.4930556,
      "lng": -12.6036111
    },
    {
      "cityName": "Fakono",
      "lat": 7.4822222,
      "lng": -12.0155556
    },
    {
      "cityName": "Falaba",
      "lat": 7.4194444,
      "lng": -11.5272222
    },
    {
      "cityName": "Falabu",
      "lat": 7.9833333,
      "lng": -11.7686111
    },
    {
      "cityName": "Fala",
      "lat": 8.05,
      "lng": -11.4833333
    },
    {
      "cityName": "Falu",
      "lat": 7.9333333,
      "lng": -11.5833333
    },
    {
      "cityName": "Fanima",
      "lat": 7.2391667,
      "lng": -11.4822222
    },
    {
      "cityName": "Fataba",
      "lat": 8.2166667,
      "lng": -12.3833333
    },
    {
      "cityName": "Fawaneemaa",
      "lat": 7.9072222,
      "lng": -11.9833333
    },
    {
      "cityName": "Fayama",
      "lat": 7.8436111,
      "lng": -11.5191667
    },
    {
      "cityName": "Feba",
      "lat": 7.6847222,
      "lng": -11.9233333
    },
    {
      "cityName": "Fengehun",
      "lat": 7.98,
      "lng": -11.5908333
    },
    {
      "cityName": "Fogbanjo",
      "lat": 7.0333333,
      "lng": -11.65
    },
    {
      "cityName": "Fogbo",
      "lat": 8.3019444,
      "lng": -12.04
    },
    {
      "cityName": "Foinda",
      "lat": 7.6833333,
      "lng": -12.3333333
    },
    {
      "cityName": "Foindu",
      "lat": 7.4108333,
      "lng": -11.5422222
    },
    {
      "cityName": "Folima",
      "lat": 7.3,
      "lng": -11.9833333
    },
    {
      "cityName": "Folu",
      "lat": 6.9911111,
      "lng": -11.5605556
    },
    {
      "cityName": "Fomaia",
      "lat": 7.6491667,
      "lng": -12.0522222
    },
    {
      "cityName": "Foniko",
      "lat": 7.3233333,
      "lng": -11.5880556
    },
    {
      "cityName": "Foya",
      "lat": 7.4172222,
      "lng": -12.1263889
    },
    {
      "cityName": "Fuendo",
      "lat": 8.0833333,
      "lng": -11.5833333
    },
    {
      "cityName": "Fuendu",
      "lat": 8.2666667,
      "lng": -12.1333333
    },
    {
      "cityName": "Fula",
      "lat": 7.5411111,
      "lng": -11.965
    },
    {
      "cityName": "Fulaninahun",
      "lat": 7.9,
      "lng": -12.05
    },
    {
      "cityName": "Fulawahun",
      "lat": 7.9808333,
      "lng": -11.9994444
    },
    {
      "cityName": "Fulewama",
      "lat": 8.1180556,
      "lng": -12.1647222
    },
    {
      "cityName": "Fuliwama",
      "lat": 7.9538889,
      "lng": -12.0855556
    },
    {
      "cityName": "Funehun",
      "lat": 7.1,
      "lng": -11.6
    },
    {
      "cityName": "Fungia",
      "lat": 8.1,
      "lng": -12.0166667
    },
    {
      "cityName": "Funkia",
      "lat": 7.8666667,
      "lng": -12.5666667
    },
    {
      "cityName": "Funkio",
      "lat": 7.7397222,
      "lng": -12.7355556
    },
    {
      "cityName": "Futa",
      "lat": 7.2,
      "lng": -11.5
    },
    {
      "cityName": "Futawahn",
      "lat": 8.05,
      "lng": -11.7333333
    },
    {
      "cityName": "Futawoma",
      "lat": 7.8666667,
      "lng": -11.9833333
    },
    {
      "cityName": "Gabweba",
      "lat": 8.2166667,
      "lng": -11.55
    },
    {
      "cityName": "Gaidehun",
      "lat": 8.3666667,
      "lng": -11.75
    },
    {
      "cityName": "Gaioura",
      "lat": 7.65,
      "lng": -11.65
    },
    {
      "cityName": "Gajubaoma",
      "lat": 7.3166667,
      "lng": -11.4666667
    },
    {
      "cityName": "Galu",
      "lat": 7.0297222,
      "lng": -11.5319444
    },
    {
      "cityName": "Gamayama",
      "lat": 7.6494444,
      "lng": -11.5469444
    },
    {
      "cityName": "Gambia",
      "lat": 7.5325,
      "lng": -12.1769444
    },
    {
      "cityName": "Gandohun",
      "lat": 7.5563889,
      "lng": -11.6925
    },
    {
      "cityName": "Gandorhun",
      "lat": 7.1786111,
      "lng": -11.7841667
    },
    {
      "cityName": "Gangama",
      "lat": 7.4,
      "lng": -11.8666667
    },
    {
      "cityName": "Ganguhun",
      "lat": 8.1841667,
      "lng": -12.1997222
    },
    {
      "cityName": "Ganjama",
      "lat": 8.2333333,
      "lng": -11.6166667
    },
    {
      "cityName": "Garahun",
      "lat": 8.3,
      "lng": -11.6166667
    },
    {
      "cityName": "Garinga",
      "lat": 7.3863889,
      "lng": -12.3683333
    },
    {
      "cityName": "Gaugba",
      "lat": 7.1833333,
      "lng": -11.9166667
    },
    {
      "cityName": "Gawula",
      "lat": 7.8961111,
      "lng": -11.7133333
    },
    {
      "cityName": "Gbaama",
      "lat": 7.8413889,
      "lng": -11.6144444
    },
    {
      "cityName": "Gbaan",
      "lat": 7.2786111,
      "lng": -12.1144444
    },
    {
      "cityName": "Gba",
      "lat": 7.2744444,
      "lng": -11.2286111
    },
    {
      "cityName": "Gbahun",
      "lat": 8.05,
      "lng": -11.35
    },
    {
      "cityName": "Gbale",
      "lat": 7.5333333,
      "lng": -11.8666667
    },
    {
      "cityName": "Gbalehun",
      "lat": 7.8316667,
      "lng": -11.8091667
    },
    {
      "cityName": "Gbali",
      "lat": 7.8811111,
      "lng": -11.8255556
    },
    {
      "cityName": "Gbamani",
      "lat": 7.3488889,
      "lng": -12.0961111
    },
    {
      "cityName": "Gbampo",
      "lat": 7.5827778,
      "lng": -12.7997222
    },
    {
      "cityName": "Gbamusa",
      "lat": 7.9833333,
      "lng": -12.5666667
    },
    {
      "cityName": "Gbamusu",
      "lat": 7.8166667,
      "lng": -12.5833333
    },
    {
      "cityName": "Gbana",
      "lat": 7.8,
      "lng": -12.6166667
    },
    {
      "cityName": "Gbanahun",
      "lat": 7.2833333,
      "lng": -11.55
    },
    {
      "cityName": "Gbandi",
      "lat": 7.0527778,
      "lng": -11.6319444
    },
    {
      "cityName": "Gbane",
      "lat": 8.2166667,
      "lng": -12.2
    },
    {
      "cityName": "Gbangba",
      "lat": 7.45,
      "lng": -12.0166667
    },
    {
      "cityName": "Gbangbama",
      "lat": 7.7080556,
      "lng": -12.3097222
    },
    {
      "cityName": "Gbangbatok",
      "lat": 7.8066667,
      "lng": -12.3841667
    },
    {
      "cityName": "Gbaninga",
      "lat": 7.4769444,
      "lng": -12.1075
    },
    {
      "cityName": "Gbanti",
      "lat": 8.0338889,
      "lng": -12.7513889
    },
    {
      "cityName": "Gbarama",
      "lat": 8.2166667,
      "lng": -11.4833333
    },
    {
      "cityName": "Gbasati",
      "lat": 8.35,
      "lng": -12.8166667
    },
    {
      "cityName": "Gbashama",
      "lat": 8.3,
      "lng": -11.6333333
    },
    {
      "cityName": "Gbatema",
      "lat": 8.05,
      "lng": -11.3833333
    },
    {
      "cityName": "Gbeha",
      "lat": 7.5333333,
      "lng": -11.95
    },
    {
      "cityName": "Gbehan",
      "lat": 7.3811111,
      "lng": -12.0597222
    },
    {
      "cityName": "Gbeli",
      "lat": 7.3297222,
      "lng": -12.1611111
    },
    {
      "cityName": "Gbema",
      "lat": 7.2833333,
      "lng": -11.8833333
    },
    {
      "cityName": "Gbembo",
      "lat": 7.43,
      "lng": -12.0622222
    },
    {
      "cityName": "Gbembu",
      "lat": 7.3497222,
      "lng": -12.0644444
    },
    {
      "cityName": "Gbencha",
      "lat": 7.8491667,
      "lng": -12.84
    },
    {
      "cityName": "Gbenega",
      "lat": 7.8833333,
      "lng": -11.9833333
    },
    {
      "cityName": "Gbengbabu",
      "lat": 8.25,
      "lng": -12.3
    },
    {
      "cityName": "Gberi",
      "lat": 8.0166667,
      "lng": -12.6166667
    },
    {
      "cityName": "Gbesebu",
      "lat": 8.1,
      "lng": -11.75
    },
    {
      "cityName": "Gbese",
      "lat": 7.0741667,
      "lng": -11.7102778
    },
    {
      "cityName": "Gbesibu",
      "lat": 8.1,
      "lng": -12.0333333
    },
    {
      "cityName": "Gbeteoma",
      "lat": 7.9530556,
      "lng": -12.6186111
    },
    {
      "cityName": "Gbewama",
      "lat": 8.3333333,
      "lng": -11.55
    },
    {
      "cityName": "Gbewebu",
      "lat": 7.5522222,
      "lng": -11.6063889
    },
    {
      "cityName": "Gbie",
      "lat": 7.5063889,
      "lng": -12.6397222
    },
    {
      "cityName": "Gbilmoko",
      "lat": 7.8630556,
      "lng": -12.8852778
    },
    {
      "cityName": "Gbin",
      "lat": 7.54,
      "lng": -12.6775
    },
    {
      "cityName": "Gbitima",
      "lat": 8.1833333,
      "lng": -11.45
    },
    {
      "cityName": "Gbomei",
      "lat": 7.25,
      "lng": -11.4333333
    },
    {
      "cityName": "Gbomuko",
      "lat": 7.1977778,
      "lng": -11.7155556
    },
    {
      "cityName": "Gbongbe",
      "lat": 7.6711111,
      "lng": -12.0666667
    },
    {
      "cityName": "Gbongboma",
      "lat": 7.4666667,
      "lng": -11.8833333
    },
    {
      "cityName": "Gbongboto",
      "lat": 8.0833333,
      "lng": -12.8
    },
    {
      "cityName": "Gbonge",
      "lat": 7.5261111,
      "lng": -11.5172222
    },
    {
      "cityName": "Gbongoya",
      "lat": 8.0333333,
      "lng": -12.25
    },
    {
      "cityName": "Gbonko",
      "lat": 7.7716667,
      "lng": -11.9838889
    },
    {
      "cityName": "Gbonko Talia",
      "lat": 7.5666667,
      "lng": -12.9333333
    },
    {
      "cityName": "Gboyeiya",
      "lat": 7.8875,
      "lng": -11.5619444
    },
    {
      "cityName": "Gbundapi",
      "lat": 7.32,
      "lng": -11.8488889
    },
    {
      "cityName": "Gbuyama",
      "lat": 7.7833333,
      "lng": -11.4269444
    },
    {
      "cityName": "Geiawahun",
      "lat": 7.3705556,
      "lng": -11.5030556
    },
    {
      "cityName": "Gelehun",
      "lat": 7.7172222,
      "lng": -11.9263889
    },
    {
      "cityName": "Gema",
      "lat": 7.2166667,
      "lng": -11.35
    },
    {
      "cityName": "Gembo",
      "lat": 7.7166667,
      "lng": -11.9166667
    },
    {
      "cityName": "Gendema",
      "lat": 7.6166667,
      "lng": -11.9
    },
    {
      "cityName": "Gendemwolo",
      "lat": 7.3427778,
      "lng": -11.4861111
    },
    {
      "cityName": "Gerehun",
      "lat": 7.5416667,
      "lng": -12.1022222
    },
    {
      "cityName": "Gerihun",
      "lat": 7.4208333,
      "lng": -11.6786111
    },
    {
      "cityName": "Gerlo",
      "lat": 7.0966667,
      "lng": -11.6461111
    },
    {
      "cityName": "Geseihun",
      "lat": 7.5036111,
      "lng": -11.9327778
    },
    {
      "cityName": "Gewojahun",
      "lat": 7.2933333,
      "lng": -12.1972222
    },
    {
      "cityName": "Giawama",
      "lat": 7.4188889,
      "lng": -11.4513889
    },
    {
      "cityName": "Gibiabehun",
      "lat": 7.9097222,
      "lng": -12.2097222
    },
    {
      "cityName": "Gibina",
      "lat": 7.3644444,
      "lng": -11.7855556
    },
    {
      "cityName": "Gieboya",
      "lat": 8.1333333,
      "lng": -12.2
    },
    {
      "cityName": "Giebu",
      "lat": 7.9861111,
      "lng": -12.0830556
    },
    {
      "cityName": "Giegboia",
      "lat": 8.2833333,
      "lng": -12.35
    },
    {
      "cityName": "Giegbolia",
      "lat": 8.1,
      "lng": -1.1666667
    },
    {
      "cityName": "Giehun",
      "lat": 7.1691667,
      "lng": -11.4455556
    },
    {
      "cityName": "Giema",
      "lat": 7.1,
      "lng": -11.4333333
    },
    {
      "cityName": "Giewabu",
      "lat": 8.2,
      "lng": -11.5333333
    },
    {
      "cityName": "Gieya",
      "lat": 7.9166667,
      "lng": -11.95
    },
    {
      "cityName": "Gigbema",
      "lat": 7.6386111,
      "lng": -11.5905556
    },
    {
      "cityName": "Gihina",
      "lat": 8.2,
      "lng": -12.5666667
    },
    {
      "cityName": "Gisiwulo",
      "lat": 7.2727778,
      "lng": -11.2641667
    },
    {
      "cityName": "Giyahun",
      "lat": 8,
      "lng": -11.3833333
    },
    {
      "cityName": "Glaya",
      "lat": 7.0166667,
      "lng": -11.4
    },
    {
      "cityName": "Gleya",
      "lat": 8.0836111,
      "lng": -12.0044444
    },
    {
      "cityName": "Goabu",
      "lat": 7.5836111,
      "lng": -12.6380556
    },
    {
      "cityName": "Goahun",
      "lat": 8.2166667,
      "lng": -11.8333333
    },
    {
      "cityName": "Goap",
      "lat": 7.8,
      "lng": -12.0833333
    },
    {
      "cityName": "Gobahun",
      "lat": 8.1166667,
      "lng": -11.7166667
    },
    {
      "cityName": "Godiama",
      "lat": 6.9908333,
      "lng": -11.5838889
    },
    {
      "cityName": "Godi",
      "lat": 7.8,
      "lng": -11.5833333
    },
    {
      "cityName": "Gofo",
      "lat": 7.2475,
      "lng": -11.36
    },
    {
      "cityName": "Gogbebu",
      "lat": 8.0333333,
      "lng": -12.15
    },
    {
      "cityName": "Go",
      "lat": 7.2833333,
      "lng": -11.2666667
    },
    {
      "cityName": "Gogwema",
      "lat": 7.8825,
      "lng": -12.1505556
    },
    {
      "cityName": "Gola",
      "lat": 7.2644444,
      "lng": -11.3047222
    },
    {
      "cityName": "Golahun",
      "lat": 7.2538889,
      "lng": -11.6305556
    },
    {
      "cityName": "Golala",
      "lat": 7.5,
      "lng": -11.4333333
    },
    {
      "cityName": "Golalo",
      "lat": 7.8263889,
      "lng": -11.5677778
    },
    {
      "cityName": "Golawahun",
      "lat": 7.2744444,
      "lng": -11.4627778
    },
    {
      "cityName": "Golawoma",
      "lat": 7.2,
      "lng": -11.4333333
    },
    {
      "cityName": "Golu",
      "lat": 7.9075,
      "lng": -11.5438889
    },
    {
      "cityName": "Gomahun",
      "lat": 7.5572222,
      "lng": -11.6433333
    },
    {
      "cityName": "Gombahun",
      "lat": 7.4166667,
      "lng": -11.7833333
    },
    {
      "cityName": "Gombu",
      "lat": 7.1530556,
      "lng": -11.8413889
    },
    {
      "cityName": "Gomnaw Sembehun",
      "lat": 7.2355556,
      "lng": -11.6038889
    },
    {
      "cityName": "Gondama",
      "lat": 7.1166667,
      "lng": -11.5
    },
    {
      "cityName": "Gondema",
      "lat": 7.7166667,
      "lng": -11.7833333
    },
    {
      "cityName": "Gondoma",
      "lat": 7.7833333,
      "lng": -12.6
    },
    {
      "cityName": "Gong",
      "lat": 7.0225,
      "lng": -11.4030556
    },
    {
      "cityName": "Gongwa",
      "lat": 7.0363889,
      "lng": -11.4391667
    },
    {
      "cityName": "Gonohun",
      "lat": 7.0030556,
      "lng": -11.4911111
    },
    {
      "cityName": "Gonorhun",
      "lat": 7.25,
      "lng": -11.5666667
    },
    {
      "cityName": "Gorapo",
      "lat": 7.55,
      "lng": -11.9166667
    },
    {
      "cityName": "Gorehun",
      "lat": 8.1666667,
      "lng": -11.8833333
    },
    {
      "cityName": "Gpa",
      "lat": 7.95,
      "lng": -11.5666667
    },
    {
      "cityName": "Gpowama",
      "lat": 8.1166667,
      "lng": -12.1333333
    },
    {
      "cityName": "Grima",
      "lat": 7.4338889,
      "lng": -11.405
    },
    {
      "cityName": "Guabu",
      "lat": 7.5333333,
      "lng": -11.75
    },
    {
      "cityName": "Gubaru",
      "lat": 7.3627778,
      "lng": -11.7077778
    },
    {
      "cityName": "Gubehun",
      "lat": 7.8166667,
      "lng": -11.7666667
    },
    {
      "cityName": "Gugbebu",
      "lat": 7.8666667,
      "lng": -11.5833333
    },
    {
      "cityName": "Gumahun",
      "lat": 8.0333333,
      "lng": -11.4333333
    },
    {
      "cityName": "Gumasa",
      "lat": 7.4166667,
      "lng": -12.1333333
    },
    {
      "cityName": "Gurubu",
      "lat": 8.3166667,
      "lng": -11.55
    },
    {
      "cityName": "Hahun",
      "lat": 7.35,
      "lng": -12.1166667
    },
    {
      "cityName": "Helawa",
      "lat": 8.0166667,
      "lng": -12.2333333
    },
    {
      "cityName": "Hemabu",
      "lat": 7.7666667,
      "lng": -12.2166667
    },
    {
      "cityName": "Henan",
      "lat": 7.4072222,
      "lng": -11.8558333
    },
    {
      "cityName": "Hendobu",
      "lat": 8.2,
      "lng": -11.65
    },
    {
      "cityName": "Hendo",
      "lat": 7.4833333,
      "lng": -12.5666667
    },
    {
      "cityName": "Herebu",
      "lat": 7.5566667,
      "lng": -11.5263889
    },
    {
      "cityName": "Hewebu",
      "lat": 8.2666667,
      "lng": -11.7
    },
    {
      "cityName": "Hima",
      "lat": 7.7333333,
      "lng": -11.9
    },
    {
      "cityName": "Hoya",
      "lat": 7.2536111,
      "lng": -11.8916667
    },
    {
      "cityName": "Imperi",
      "lat": 7.6886111,
      "lng": -12.2925
    },
    {
      "cityName": "Jabama",
      "lat": 7.0108333,
      "lng": -11.5872222
    },
    {
      "cityName": "Jagbabun",
      "lat": 7.9166667,
      "lng": -12.2833333
    },
    {
      "cityName": "Jagbahun",
      "lat": 7.9166667,
      "lng": -12.275
    },
    {
      "cityName": "Jagbakahun",
      "lat": 7.9666667,
      "lng": -11.6833333
    },
    {
      "cityName": "Jagbea",
      "lat": 8.3333333,
      "lng": -11.6
    },
    {
      "cityName": "Jagbewema",
      "lat": 7.7294444,
      "lng": -11.7627778
    },
    {
      "cityName": "Jagbwema",
      "lat": 7.2333333,
      "lng": -11.85
    },
    {
      "cityName": "Jagbwemu",
      "lat": 8.4166667,
      "lng": -11.65
    },
    {
      "cityName": "Jago",
      "lat": 7.5105556,
      "lng": -11.6947222
    },
    {
      "cityName": "Jahandama",
      "lat": 7.9075,
      "lng": -11.6369444
    },
    {
      "cityName": "Jahun",
      "lat": 7.5833333,
      "lng": -12.0333333
    },
    {
      "cityName": "Jaiahun",
      "lat": 8.1833333,
      "lng": -12.1333333
    },
    {
      "cityName": "Jaiama",
      "lat": 7.3333333,
      "lng": -11.9333333
    },
    {
      "cityName": "Jaiwulo",
      "lat": 7.3622222,
      "lng": -11.4194444
    },
    {
      "cityName": "Jajubu",
      "lat": 8.2219444,
      "lng": -12.2083333
    },
    {
      "cityName": "Jakama",
      "lat": 7.3833333,
      "lng": -11.45
    },
    {
      "cityName": "Jalahun",
      "lat": 7.4955556,
      "lng": -11.4963889
    },
    {
      "cityName": "Jala",
      "lat": 7.5336111,
      "lng": -11.7619444
    },
    {
      "cityName": "Jalandama",
      "lat": 7.55,
      "lng": -11.5333333
    },
    {
      "cityName": "Jaliahun",
      "lat": 7.2397222,
      "lng": -11.3052778
    },
    {
      "cityName": "Jalihun",
      "lat": 8.2833333,
      "lng": -11.65
    },
    {
      "cityName": "Jaluahun",
      "lat": 7.1955556,
      "lng": -11.7894444
    },
    {
      "cityName": "Jalwala",
      "lat": 8.1666667,
      "lng": -11.6833333
    },
    {
      "cityName": "Jama",
      "lat": 7.6252778,
      "lng": -11.7316667
    },
    {
      "cityName": "Jambohun",
      "lat": 7.7336111,
      "lng": -11.6436111
    },
    {
      "cityName": "Jande",
      "lat": 7.8152778,
      "lng": -12.5455556
    },
    {
      "cityName": "Jangalo",
      "lat": 7.6836111,
      "lng": -12.3877778
    },
    {
      "cityName": "Jaro",
      "lat": 8.2166667,
      "lng": -11.6666667
    },
    {
      "cityName": "Jawabundeima",
      "lat": 7.7136111,
      "lng": -11.4941667
    },
    {
      "cityName": "Jawe",
      "lat": 8.0666667,
      "lng": -11.4333333
    },
    {
      "cityName": "Jawor",
      "lat": 8.2166667,
      "lng": -11.5
    },
    {
      "cityName": "Jayahun",
      "lat": 7.5086111,
      "lng": -11.7155556
    },
    {
      "cityName": "Jembe",
      "lat": 7.1,
      "lng": -11.4833333
    },
    {
      "cityName": "Jene",
      "lat": 7.0833333,
      "lng": -11.3333333
    },
    {
      "cityName": "Jeoma",
      "lat": 7.2316667,
      "lng": -11.7436111
    },
    {
      "cityName": "Jerihun",
      "lat": 8.0166667,
      "lng": -12.5
    },
    {
      "cityName": "Jeru",
      "lat": 8.15,
      "lng": -11.4166667
    },
    {
      "cityName": "Jibima",
      "lat": 7.2833333,
      "lng": -11.3908333
    },
    {
      "cityName": "Jijama",
      "lat": 7.1,
      "lng": -11.4666667
    },
    {
      "cityName": "Jimi",
      "lat": 7.6041667,
      "lng": -11.8158333
    },
    {
      "cityName": "Jioma",
      "lat": 8.1833333,
      "lng": -12.3666667
    },
    {
      "cityName": "Jiyahun",
      "lat": 7.9,
      "lng": -12.1666667
    },
    {
      "cityName": "Jokibu",
      "lat": 8.0666667,
      "lng": -11.4666667
    },
    {
      "cityName": "Jolohun",
      "lat": 8.1666667,
      "lng": -12.0833333
    },
    {
      "cityName": "Jombohun",
      "lat": 7.4,
      "lng": -11.5666667
    },
    {
      "cityName": "Jombosin",
      "lat": 7.15,
      "lng": -11.5166667
    },
    {
      "cityName": "Jomu",
      "lat": 7.8666667,
      "lng": -11.6333333
    },
    {
      "cityName": "Jonbaba",
      "lat": 6.9833333,
      "lng": -11.4166667
    },
    {
      "cityName": "Jopowahun",
      "lat": 7.6166667,
      "lng": -12.75
    },
    {
      "cityName": "Juhun",
      "lat": 7.7,
      "lng": -11.9833333
    },
    {
      "cityName": "Juluahun",
      "lat": 7.95,
      "lng": -11.5833333
    },
    {
      "cityName": "Jumbu",
      "lat": 7.4333333,
      "lng": -11.8166667
    },
    {
      "cityName": "Junctuela",
      "lat": 7.7355556,
      "lng": -12.3402778
    },
    {
      "cityName": "Juring",
      "lat": 7.0066667,
      "lng": -11.5413889
    },
    {
      "cityName": "Jurma",
      "lat": 8.2558333,
      "lng": -12.2127778
    },
    {
      "cityName": "Kaado",
      "lat": 7.7216667,
      "lng": -11.7122222
    },
    {
      "cityName": "Kabaima",
      "lat": 7.9647222,
      "lng": -12.1969444
    },
    {
      "cityName": "Kabaka",
      "lat": 8.0333333,
      "lng": -12.85
    },
    {
      "cityName": "Kabanka",
      "lat": 8.2166667,
      "lng": -12.8666667
    },
    {
      "cityName": "Kabati",
      "lat": 7.6711111,
      "lng": -12.2502778
    },
    {
      "cityName": "Kabawana",
      "lat": 7.3791667,
      "lng": -11.7397222
    },
    {
      "cityName": "Kabiama",
      "lat": 8.0166667,
      "lng": -12.15
    },
    {
      "cityName": "Kagbindi",
      "lat": 8.2333333,
      "lng": -12.9166667
    },
    {
      "cityName": "Kagboma",
      "lat": 8.0483333,
      "lng": -12.1580556
    },
    {
      "cityName": "Kai",
      "lat": 8.25,
      "lng": -12.95
    },
    {
      "cityName": "Kailahun",
      "lat": 7.95,
      "lng": -12.5833333
    },
    {
      "cityName": "Kaina",
      "lat": 7.3730556,
      "lng": -11.3336111
    },
    {
      "cityName": "Kainke",
      "lat": 7.8372222,
      "lng": -12.8494444
    },
    {
      "cityName": "Kaipo",
      "lat": 7.5022222,
      "lng": -11.7572222
    },
    {
      "cityName": "Kakama",
      "lat": 7.15,
      "lng": -11.8333333
    },
    {
      "cityName": "Kakhei",
      "lat": 7.3677778,
      "lng": -12.39
    },
    {
      "cityName": "Kakpwema",
      "lat": 7.8833333,
      "lng": -11.7666667
    },
    {
      "cityName": "Kale",
      "lat": 7.2522222,
      "lng": -12.0638889
    },
    {
      "cityName": "Kalia",
      "lat": 7.0411111,
      "lng": -11.3747222
    },
    {
      "cityName": "Kali",
      "lat": 7.5777778,
      "lng": -12.1175
    },
    {
      "cityName": "Kalu",
      "lat": 7.2333333,
      "lng": -11.7666667
    },
    {
      "cityName": "Kamalo",
      "lat": 8.4,
      "lng": -11.7333333
    },
    {
      "cityName": "Kamasu",
      "lat": 7.6833333,
      "lng": -11.9333333
    },
    {
      "cityName": "Kamasundu",
      "lat": 7.7580556,
      "lng": -12.6522222
    },
    {
      "cityName": "Kamatipa",
      "lat": 7.9516667,
      "lng": -12.4933333
    },
    {
      "cityName": "Kamato",
      "lat": 7.4486111,
      "lng": -12.2127778
    },
    {
      "cityName": "Kambalo",
      "lat": 7.5833333,
      "lng": -12.2
    },
    {
      "cityName": "Kambama",
      "lat": 7.45,
      "lng": -11.3666667
    },
    {
      "cityName": "Kambia",
      "lat": 7.5783333,
      "lng": -12.9438889
    },
    {
      "cityName": "Kambotok",
      "lat": 7.8,
      "lng": -12.6333333
    },
    {
      "cityName": "Kandu",
      "lat": 8.05,
      "lng": -11.6166667
    },
    {
      "cityName": "Kangahun",
      "lat": 7.5333333,
      "lng": -11.9166667
    },
    {
      "cityName": "Kangahunworo",
      "lat": 8.05,
      "lng": -12.15
    },
    {
      "cityName": "Kanga",
      "lat": 7.3666667,
      "lng": -12.1333333
    },
    {
      "cityName": "Kangama",
      "lat": 7.4666667,
      "lng": -11.7333333
    },
    {
      "cityName": "Kangasa",
      "lat": 7.35,
      "lng": -11.7666667
    },
    {
      "cityName": "Kania",
      "lat": 8,
      "lng": -12.2833333
    },
    {
      "cityName": "Kanijalu",
      "lat": 7.9833333,
      "lng": -11.5333333
    },
    {
      "cityName": "Kanjahun",
      "lat": 8.3166667,
      "lng": -11.5666667
    },
    {
      "cityName": "Kantine",
      "lat": 8.3,
      "lng": -12.8666667
    },
    {
      "cityName": "Kasama",
      "lat": 7.7933333,
      "lng": -11.8319444
    },
    {
      "cityName": "Kase",
      "lat": 7.3333333,
      "lng": -12.0833333
    },
    {
      "cityName": "Kasewe",
      "lat": 8.3166667,
      "lng": -12.2166667
    },
    {
      "cityName": "Kasi",
      "lat": 7.1013889,
      "lng": -11.7338889
    },
    {
      "cityName": "Kasipota",
      "lat": 8.1333333,
      "lng": -12.7333333
    },
    {
      "cityName": "Kataiama",
      "lat": 8.0166667,
      "lng": -11.3833333
    },
    {
      "cityName": "Kata",
      "lat": 7.9211111,
      "lng": -12.9355556
    },
    {
      "cityName": "Katema",
      "lat": 8.2833333,
      "lng": -11.9166667
    },
    {
      "cityName": "Kathin",
      "lat": 7.3747222,
      "lng": -12.2219444
    },
    {
      "cityName": "Katomahun",
      "lat": 8.2166667,
      "lng": -11.5833333
    },
    {
      "cityName": "Katoma",
      "lat": 8.3666667,
      "lng": -11.9666667
    },
    {
      "cityName": "Kawaia",
      "lat": 7.9597222,
      "lng": -12.2941667
    },
    {
      "cityName": "Kawala",
      "lat": 7.0230556,
      "lng": -11.5202778
    },
    {
      "cityName": "Kawoma",
      "lat": 8.4166667,
      "lng": -11.7
    },
    {
      "cityName": "Keba",
      "lat": 7.0691667,
      "lng": -11.4047222
    },
    {
      "cityName": "Kebawana",
      "lat": 7.3,
      "lng": -12.0666667
    },
    {
      "cityName": "Keiga",
      "lat": 7.5766667,
      "lng": -12.3055556
    },
    {
      "cityName": "Kelei",
      "lat": 7.4333333,
      "lng": -11.9833333
    },
    {
      "cityName": "Kendiama",
      "lat": 7.9333333,
      "lng": -11.7166667
    },
    {
      "cityName": "Kenema",
      "lat": 7.2266667,
      "lng": -11.4238889
    },
    {
      "cityName": "Kengesi",
      "lat": 7.4486111,
      "lng": -12.4272222
    },
    {
      "cityName": "Kente",
      "lat": 7.4686111,
      "lng": -12.4619444
    },
    {
      "cityName": "Kenyema",
      "lat": 8.0166667,
      "lng": -11.65
    },
    {
      "cityName": "Kerebu",
      "lat": 8,
      "lng": -12.05
    },
    {
      "cityName": "Ketuma",
      "lat": 8.3166667,
      "lng": -11.5166667
    },
    {
      "cityName": "Keyehun",
      "lat": 7.5666667,
      "lng": -12.0666667
    },
    {
      "cityName": "Kiambe",
      "lat": 7.7333333,
      "lng": -11.5833333
    },
    {
      "cityName": "Kigbai",
      "lat": 7.8444444,
      "lng": -11.7686111
    },
    {
      "cityName": "Kigbal",
      "lat": 7.8838889,
      "lng": -12.5844444
    },
    {
      "cityName": "Kimbima",
      "lat": 8.1833333,
      "lng": -12.1
    },
    {
      "cityName": "Kindema",
      "lat": 8.2,
      "lng": -12.4333333
    },
    {
      "cityName": "Kisewa",
      "lat": 7.5833333,
      "lng": -11.9833333
    },
    {
      "cityName": "Kisiwuru",
      "lat": 7.2666667,
      "lng": -11.2666667
    },
    {
      "cityName": "Kitoma",
      "lat": 7.7,
      "lng": -11.8166667
    },
    {
      "cityName": "Koadima",
      "lat": 7.6694444,
      "lng": -11.8133333
    },
    {
      "cityName": "Kobo",
      "lat": 7.5388889,
      "lng": -12.7883333
    },
    {
      "cityName": "Kobotu",
      "lat": 7.6086111,
      "lng": -12.0036111
    },
    {
      "cityName": "Kobu",
      "lat": 8.0666667,
      "lng": -11.6833333
    },
    {
      "cityName": "Kobumpe",
      "lat": 7.2,
      "lng": -11.8333333
    },
    {
      "cityName": "Kobundala",
      "lat": 8.1666667,
      "lng": -11.4333333
    },
    {
      "cityName": "Kodia",
      "lat": 8.1833333,
      "lng": -12.2
    },
    {
      "cityName": "Kofima",
      "lat": 8.3666667,
      "lng": -11.5833333
    },
    {
      "cityName": "Kogbotima",
      "lat": 8.0522222,
      "lng": -12.4669444
    },
    {
      "cityName": "Koijei",
      "lat": 6.9833333,
      "lng": -11.4666667
    },
    {
      "cityName": "Koindu",
      "lat": 7.1166667,
      "lng": -11.65
    },
    {
      "cityName": "Koinende",
      "lat": 7.9488889,
      "lng": -12.4661111
    },
    {
      "cityName": "Koiva",
      "lat": 7.5972222,
      "lng": -11.5702778
    },
    {
      "cityName": "Kolima",
      "lat": 7.3313889,
      "lng": -11.4233333
    },
    {
      "cityName": "Koma",
      "lat": 7.2833333,
      "lng": -11.2
    },
    {
      "cityName": "Kombeima",
      "lat": 7.2275,
      "lng": -11.6541667
    },
    {
      "cityName": "Komboya",
      "lat": 8.2,
      "lng": -11.5
    },
    {
      "cityName": "Komende",
      "lat": 7.2,
      "lng": -11.7
    },
    {
      "cityName": "Komendi",
      "lat": 7.4,
      "lng": -12.1166667
    },
    {
      "cityName": "Komima",
      "lat": 8.1,
      "lng": -11.65
    },
    {
      "cityName": "Komohun",
      "lat": 7.9333333,
      "lng": -11.4
    },
    {
      "cityName": "Konabu",
      "lat": 7.35,
      "lng": -11.65
    },
    {
      "cityName": "Konda",
      "lat": 7.7369444,
      "lng": -12.1072222
    },
    {
      "cityName": "Kondayama Junction",
      "lat": 8.3161111,
      "lng": -12.2330556
    },
    {
      "cityName": "Kondebotihun",
      "lat": 8.1666667,
      "lng": -12.0666667
    },
    {
      "cityName": "Kondiama",
      "lat": 8.05,
      "lng": -11.5
    },
    {
      "cityName": "Kondigbama",
      "lat": 7.3166667,
      "lng": -11.3833333
    },
    {
      "cityName": "Kondoma",
      "lat": 8.1833333,
      "lng": -11.7166667
    },
    {
      "cityName": "Konduwahun",
      "lat": 7.5283333,
      "lng": -11.4558333
    },
    {
      "cityName": "Konehun",
      "lat": 7.2541667,
      "lng": -11.44
    },
    {
      "cityName": "Konela",
      "lat": 7.5063889,
      "lng": -11.5911111
    },
    {
      "cityName": "Kongabahun",
      "lat": 8.1833333,
      "lng": -11.6666667
    },
    {
      "cityName": "Kongama",
      "lat": 8.15,
      "lng": -12.0166667
    },
    {
      "cityName": "Kongo",
      "lat": 7.4833333,
      "lng": -11.7333333
    },
    {
      "cityName": "Kongopa",
      "lat": 8.3833333,
      "lng": -11.6
    },
    {
      "cityName": "Konia",
      "lat": 7.4602778,
      "lng": -11.4291667
    },
    {
      "cityName": "Koni",
      "lat": 7.9833333,
      "lng": -11.95
    },
    {
      "cityName": "Konima",
      "lat": 7.9166667,
      "lng": -11.6833333
    },
    {
      "cityName": "Konjekehun",
      "lat": 8.0733333,
      "lng": -12.0141667
    },
    {
      "cityName": "Konko",
      "lat": 7.5833333,
      "lng": -11.3833333
    },
    {
      "cityName": "Konolo",
      "lat": 7.6166667,
      "lng": -12.6833333
    },
    {
      "cityName": "Konovulahun",
      "lat": 7.3833333,
      "lng": -11.55
    },
    {
      "cityName": "Kopama",
      "lat": 7.8080556,
      "lng": -12.2419444
    },
    {
      "cityName": "Koribundu",
      "lat": 7.7113889,
      "lng": -11.6922222
    },
    {
      "cityName": "Korjehun",
      "lat": 8.1,
      "lng": -11.3333333
    },
    {
      "cityName": "Korkorti",
      "lat": 8.2,
      "lng": -11.4
    },
    {
      "cityName": "Kotia",
      "lat": 8.1333333,
      "lng": -12.0333333
    },
    {
      "cityName": "Kotohun",
      "lat": 8.0666667,
      "lng": -11.7
    },
    {
      "cityName": "Kotomahun",
      "lat": 7.315,
      "lng": -11.7738889
    },
    {
      "cityName": "Kotumahun",
      "lat": 7.4333333,
      "lng": -11.4333333
    },
    {
      "cityName": "Kotuyama",
      "lat": 7.4616667,
      "lng": -11.715
    },
    {
      "cityName": "Kouma",
      "lat": 7.3577778,
      "lng": -11.3958333
    },
    {
      "cityName": "Kovehun",
      "lat": 8.0666667,
      "lng": -11.6666667
    },
    {
      "cityName": "Kowa",
      "lat": 8.2333333,
      "lng": -11.55
    },
    {
      "cityName": "Kowama",
      "lat": 7.4375,
      "lng": -11.5708333
    },
    {
      "cityName": "Kowehun",
      "lat": 8.2333333,
      "lng": -12
    },
    {
      "cityName": "Kowubu",
      "lat": 7.3686111,
      "lng": -11.4927778
    },
    {
      "cityName": "Koyama",
      "lat": 7.8541667,
      "lng": -11.4858333
    },
    {
      "cityName": "Koye",
      "lat": 7.8991667,
      "lng": -11.6383333
    },
    {
      "cityName": "Koyema",
      "lat": 7.4080556,
      "lng": -12.0508333
    },
    {
      "cityName": "Kpakayema",
      "lat": 7.3975,
      "lng": -11.5047222
    },
    {
      "cityName": "Kpakru",
      "lat": 7.9091667,
      "lng": -11.5033333
    },
    {
      "cityName": "Kpaku",
      "lat": 7.3755556,
      "lng": -11.6266667
    },
    {
      "cityName": "Kpakuma",
      "lat": 8.15,
      "lng": -11.5
    },
    {
      "cityName": "Kpandebu",
      "lat": 7.4438889,
      "lng": -11.9205556
    },
    {
      "cityName": "Kpandobu",
      "lat": 7.95,
      "lng": -12.55
    },
    {
      "cityName": "Kpangba",
      "lat": 7.4872222,
      "lng": -11.8397222
    },
    {
      "cityName": "Kpaoga",
      "lat": 8.0166667,
      "lng": -12.85
    },
    {
      "cityName": "Kpasambu",
      "lat": 7.2805556,
      "lng": -11.61
    },
    {
      "cityName": "Kpatobu",
      "lat": 8.0833333,
      "lng": -11.75
    },
    {
      "cityName": "Kpawula",
      "lat": 7.9205556,
      "lng": -11.6938889
    },
    {
      "cityName": "Kpetema",
      "lat": 7.7166667,
      "lng": -11.8833333
    },
    {
      "cityName": "Kpetewoma",
      "lat": 7.7333333,
      "lng": -11.8166667
    },
    {
      "cityName": "Kpeyima",
      "lat": 7.4391667,
      "lng": -11.6963889
    },
    {
      "cityName": "Kpombu",
      "lat": 7.45,
      "lng": -11.85
    },
    {
      "cityName": "Kponima",
      "lat": 7.6925,
      "lng": -11.5994444
    },
    {
      "cityName": "Kposso",
      "lat": 7.0191667,
      "lng": -11.5713889
    },
    {
      "cityName": "Kpowubu",
      "lat": 7.3458333,
      "lng": -11.5683333
    },
    {
      "cityName": "Kpowuibu",
      "lat": 7.4866667,
      "lng": -12.2011111
    },
    {
      "cityName": "Kpuawala",
      "lat": 7.7441667,
      "lng": -11.4491667
    },
    {
      "cityName": "Kpumbu",
      "lat": 7.9761111,
      "lng": -11.4869444
    },
    {
      "cityName": "Kpuwuta",
      "lat": 7.7,
      "lng": -11.95
    },
    {
      "cityName": "Kubong",
      "lat": 7.2308333,
      "lng": -11.7863889
    },
    {
      "cityName": "Kugbahun",
      "lat": 8.0333333,
      "lng": -11.4833333
    },
    {
      "cityName": "Kulako",
      "lat": 7,
      "lng": -11.45
    },
    {
      "cityName": "Kumbavulahun",
      "lat": 8.0333333,
      "lng": -11.7166667
    },
    {
      "cityName": "Kumrabai",
      "lat": 8.1666667,
      "lng": -12.6333333
    },
    {
      "cityName": "Kundawma",
      "lat": 8.25,
      "lng": -11.4666667
    },
    {
      "cityName": "Kundiama",
      "lat": 7.9658333,
      "lng": -11.85
    },
    {
      "cityName": "Kundobi",
      "lat": 8.1333333,
      "lng": -12.65
    },
    {
      "cityName": "Kundowahun",
      "lat": 7.1427778,
      "lng": -11.6288889
    },
    {
      "cityName": "Kungu",
      "lat": 8.3166667,
      "lng": -12.3333333
    },
    {
      "cityName": "Kunjogiehun",
      "lat": 8.1333333,
      "lng": -11.5166667
    },
    {
      "cityName": "Kunjondoma",
      "lat": 8.1,
      "lng": -11.5333333
    },
    {
      "cityName": "Kuraka",
      "lat": 7.3272222,
      "lng": -11.6333333
    },
    {
      "cityName": "Kurako",
      "lat": 6.9941667,
      "lng": -11.5183333
    },
    {
      "cityName": "Kwako",
      "lat": 7.3063889,
      "lng": -11.9972222
    },
    {
      "cityName": "Kwelu",
      "lat": 7.9561111,
      "lng": -11.5441667
    },
    {
      "cityName": "Kwiva",
      "lat": 8.1402778,
      "lng": -12.4033333
    },
    {
      "cityName": "Labiama",
      "lat": 7.6477778,
      "lng": -12.085
    },
    {
      "cityName": "Lago Junction",
      "lat": 7.8175,
      "lng": -12.3208333
    },
    {
      "cityName": "Lago",
      "lat": 7.3994444,
      "lng": -12.0233333
    },
    {
      "cityName": "Lah",
      "lat": 7.2,
      "lng": -11.85
    },
    {
      "cityName": "Lahun",
      "lat": 7.2658333,
      "lng": -11.6988889
    },
    {
      "cityName": "Lajelahun",
      "lat": 7.7475,
      "lng": -11.5036111
    },
    {
      "cityName": "Lantibul",
      "lat": 7.7752778,
      "lng": -12.7038889
    },
    {
      "cityName": "Laoma",
      "lat": 7.1833333,
      "lng": -11.55
    },
    {
      "cityName": "Largo",
      "lat": 8.2666667,
      "lng": -12.15
    },
    {
      "cityName": "Latu",
      "lat": 7.0127778,
      "lng": -11.5555556
    },
    {
      "cityName": "Lawa",
      "lat": 8.1,
      "lng": -11.6
    },
    {
      "cityName": "Lawana",
      "lat": 7.6436111,
      "lng": -12.0138889
    },
    {
      "cityName": "Leicester",
      "lat": 7.9758333,
      "lng": -12.8380556
    },
    {
      "cityName": "Lembema",
      "lat": 7.9013889,
      "lng": -11.8119444
    },
    {
      "cityName": "Lembilema",
      "lat": 7.2877778,
      "lng": -12.0047222
    },
    {
      "cityName": "Lembima",
      "lat": 7.8333333,
      "lng": -11.7333333
    },
    {
      "cityName": "Lenbo",
      "lat": 7.3166667,
      "lng": -11.9666667
    },
    {
      "cityName": "Leng",
      "lat": 7.5833333,
      "lng": -11.5333333
    },
    {
      "cityName": "Levuma",
      "lat": 7.4833333,
      "lng": -11.9666667
    },
    {
      "cityName": "Libi",
      "lat": 7.5666667,
      "lng": -11.7833333
    },
    {
      "cityName": "Likono",
      "lat": 7.5644444,
      "lng": -12.0466667
    },
    {
      "cityName": "Lilema",
      "lat": 7.2,
      "lng": -11.9833333
    },
    {
      "cityName": "Limayema",
      "lat": 8.0333333,
      "lng": -11.9666667
    },
    {
      "cityName": "Limba",
      "lat": 7.6444444,
      "lng": -11.7913889
    },
    {
      "cityName": "Logbana",
      "lat": 7.65,
      "lng": -12.1833333
    },
    {
      "cityName": "Lomboko",
      "lat": 7.4266667,
      "lng": -12.1533333
    },
    {
      "cityName": "Londila",
      "lat": 7.0344444,
      "lng": -11.6497222
    },
    {
      "cityName": "Londoma",
      "lat": 7.3,
      "lng": -11.2
    },
    {
      "cityName": "Lopa",
      "lat": 7.3816667,
      "lng": -12.2088889
    },
    {
      "cityName": "Loponga",
      "lat": 8.0166667,
      "lng": -12.0833333
    },
    {
      "cityName": "Lottu",
      "lat": 7.3075,
      "lng": -11.6883333
    },
    {
      "cityName": "Lowana",
      "lat": 8,
      "lng": -12.8
    },
    {
      "cityName": "Lower Moyamba",
      "lat": 8.1,
      "lng": -12.8166667
    },
    {
      "cityName": "Lower Saama",
      "lat": 7.65,
      "lng": -11.9333333
    },
    {
      "cityName": "Luawa",
      "lat": 7.6152778,
      "lng": -12.1430556
    },
    {
      "cityName": "Luguema",
      "lat": 7.4666667,
      "lng": -11.6333333
    },
    {
      "cityName": "Lumbebu",
      "lat": 8.2666667,
      "lng": -12.4666667
    },
    {
      "cityName": "Lungi",
      "lat": 7.6947222,
      "lng": -11.7177778
    },
    {
      "cityName": "Luvulu",
      "lat": 8.0666667,
      "lng": -11.65
    },
    {
      "cityName": "Mabake",
      "lat": 8.15,
      "lng": -12.8333333
    },
    {
      "cityName": "Mabambi",
      "lat": 7.88,
      "lng": -12.6361111
    },
    {
      "cityName": "Mabang",
      "lat": 8.35,
      "lng": -11.85
    },
    {
      "cityName": "Maboana",
      "lat": 7.9713889,
      "lng": -12.7069444
    },
    {
      "cityName": "Mabobo",
      "lat": 8.0841667,
      "lng": -12.6336111
    },
    {
      "cityName": "Mabombo",
      "lat": 7.5325,
      "lng": -12.1213889
    },
    {
      "cityName": "Mabompa",
      "lat": 7.2816667,
      "lng": -12.1344444
    },
    {
      "cityName": "Mabona",
      "lat": 8.0666667,
      "lng": -12.55
    },
    {
      "cityName": "Maboni",
      "lat": 7.8666667,
      "lng": -12.5833333
    },
    {
      "cityName": "Mabonkise",
      "lat": 7.8666667,
      "lng": -12.6333333
    },
    {
      "cityName": "Mabua",
      "lat": 7.9,
      "lng": -12.7333333
    },
    {
      "cityName": "Mabunsa",
      "lat": 7.9833333,
      "lng": -12.7333333
    },
    {
      "cityName": "Maburkise",
      "lat": 8.1833333,
      "lng": -12.85
    },
    {
      "cityName": "Machan",
      "lat": 7.6127778,
      "lng": -12.6363889
    },
    {
      "cityName": "Machebil",
      "lat": 7.8730556,
      "lng": -12.7911111
    },
    {
      "cityName": "Madeira",
      "lat": 7.1261111,
      "lng": -11.5283333
    },
    {
      "cityName": "Madima",
      "lat": 7.1458333,
      "lng": -11.7180556
    },
    {
      "cityName": "Madina",
      "lat": 7.0166667,
      "lng": -11.5
    },
    {
      "cityName": "Madina Taninahun",
      "lat": 8.2166667,
      "lng": -12.4666667
    },
    {
      "cityName": "Mafulumu",
      "lat": 8.3666667,
      "lng": -12.6833333
    },
    {
      "cityName": "Mafumgbe",
      "lat": 8.2333333,
      "lng": -12.7833333
    },
    {
      "cityName": "Mafuri",
      "lat": 7.6344444,
      "lng": -11.9788889
    },
    {
      "cityName": "Magbakan",
      "lat": 8.05,
      "lng": -12.8833333
    },
    {
      "cityName": "Magbanasatia",
      "lat": 8.2,
      "lng": -12.9166667
    },
    {
      "cityName": "Magbanawil",
      "lat": 8.1833333,
      "lng": -12.8833333
    },
    {
      "cityName": "Magbenka",
      "lat": 8.1833333,
      "lng": -12.05
    },
    {
      "cityName": "Magbese",
      "lat": 8.3166667,
      "lng": -12.6
    },
    {
      "cityName": "Magbwama",
      "lat": 8.2,
      "lng": -11.9
    },
    {
      "cityName": "Magbwema",
      "lat": 7.5169444,
      "lng": -11.4116667
    },
    {
      "cityName": "Magihun",
      "lat": 7.85,
      "lng": -12.1333333
    },
    {
      "cityName": "Magona",
      "lat": 7.6333333,
      "lng": -12.2666667
    },
    {
      "cityName": "Magonda",
      "lat": 7.1725,
      "lng": -11.7333333
    },
    {
      "cityName": "Maike",
      "lat": 7.3408333,
      "lng": -12.0897222
    },
    {
      "cityName": "Mai",
      "lat": 7.4666667,
      "lng": -12.3
    },
    {
      "cityName": "Maipeko",
      "lat": 7.2,
      "lng": -11.7166667
    },
    {
      "cityName": "Majihun",
      "lat": 7.7902778,
      "lng": -11.7525
    },
    {
      "cityName": "Majundu",
      "lat": 8.2333333,
      "lng": -12.3
    },
    {
      "cityName": "Makabi",
      "lat": 8.3166667,
      "lng": -12.7666667
    },
    {
      "cityName": "Makakamor",
      "lat": 8.0666667,
      "lng": -12.8666667
    },
    {
      "cityName": "Makali",
      "lat": 8.3666667,
      "lng": -12.8
    },
    {
      "cityName": "Maka",
      "lat": 7.1333333,
      "lng": -11.4
    },
    {
      "cityName": "Makanbu",
      "lat": 8.1833333,
      "lng": -12.9333333
    },
    {
      "cityName": "Makarambe",
      "lat": 8.2833333,
      "lng": -12.8333333
    },
    {
      "cityName": "Makase",
      "lat": 7.0833333,
      "lng": -11.5333333
    },
    {
      "cityName": "Makayoni",
      "lat": 7.8591667,
      "lng": -12.135
    },
    {
      "cityName": "Makma",
      "lat": 7.0666667,
      "lng": -11.4
    },
    {
      "cityName": "Makoande",
      "lat": 8.1333333,
      "lng": -12.85
    },
    {
      "cityName": "Makoba",
      "lat": 7.7544444,
      "lng": -11.9458333
    },
    {
      "cityName": "Makobo",
      "lat": 7.9544444,
      "lng": -12.6461111
    },
    {
      "cityName": "Makola",
      "lat": 7.5333333,
      "lng": -11.9833333
    },
    {
      "cityName": "Makolu",
      "lat": 7.8505556,
      "lng": -11.8838889
    },
    {
      "cityName": "Makoma",
      "lat": 7.3961111,
      "lng": -11.6391667
    },
    {
      "cityName": "Makombo",
      "lat": 7.9833333,
      "lng": -12.8666667
    },
    {
      "cityName": "Makondo",
      "lat": 8.0166667,
      "lng": -12.05
    },
    {
      "cityName": "Makore",
      "lat": 8.1783333,
      "lng": -12.2544444
    },
    {
      "cityName": "Makumba",
      "lat": 8.1333333,
      "lng": -12.8666667
    },
    {
      "cityName": "Makumpa",
      "lat": 7.8333333,
      "lng": -12.75
    },
    {
      "cityName": "Malegbema",
      "lat": 7.3166667,
      "lng": -11.5333333
    },
    {
      "cityName": "Male",
      "lat": 6.9830556,
      "lng": -11.5691667
    },
    {
      "cityName": "Mali",
      "lat": 7.1833333,
      "lng": -11.8333333
    },
    {
      "cityName": "Malima",
      "lat": 7.6,
      "lng": -11.7833333
    },
    {
      "cityName": "Malomai",
      "lat": 7.05,
      "lng": -11.4
    },
    {
      "cityName": "Malulom",
      "lat": 8.2666667,
      "lng": -12.7666667
    },
    {
      "cityName": "Mamara",
      "lat": 8.3333333,
      "lng": -12.6833333
    },
    {
      "cityName": "Mambayema",
      "lat": 8.2166667,
      "lng": -12.0833333
    },
    {
      "cityName": "Mamboima",
      "lat": 7.8077778,
      "lng": -11.7333333
    },
    {
      "cityName": "Mamboma",
      "lat": 7.8416667,
      "lng": -11.6569444
    },
    {
      "cityName": "Mambo",
      "lat": 7.1975,
      "lng": -11.5361111
    },
    {
      "cityName": "Mambuya",
      "lat": 7.6172222,
      "lng": -12.7633333
    },
    {
      "cityName": "Mambwema",
      "lat": 7.4333333,
      "lng": -12.1666667
    },
    {
      "cityName": "Mami",
      "lat": 7.4916667,
      "lng": -11.9855556
    },
    {
      "cityName": "Mamu",
      "lat": 7.4022222,
      "lng": -12.4841667
    },
    {
      "cityName": "Mandehun",
      "lat": 7.6833333,
      "lng": -11.8
    },
    {
      "cityName": "Mandema",
      "lat": 7.4411111,
      "lng": -11.7469444
    },
    {
      "cityName": "Mando",
      "lat": 7.2852778,
      "lng": -11.8013889
    },
    {
      "cityName": "Mandu",
      "lat": 7.4575,
      "lng": -12.0938889
    },
    {
      "cityName": "Manere",
      "lat": 8.2666667,
      "lng": -12.7833333
    },
    {
      "cityName": "Mangama",
      "lat": 7.7833333,
      "lng": -12.1333333
    },
    {
      "cityName": "Mange",
      "lat": 7.5113889,
      "lng": -12.6736111
    },
    {
      "cityName": "Mangeme",
      "lat": 7.7494444,
      "lng": -12.0088889
    },
    {
      "cityName": "Mangobo",
      "lat": 8.3333333,
      "lng": -11.7333333
    },
    {
      "cityName": "Mangoni",
      "lat": 8.2666667,
      "lng": -12.3166667
    },
    {
      "cityName": "Manguama",
      "lat": 8.0166667,
      "lng": -11.6833333
    },
    {
      "cityName": "Mania",
      "lat": 7.4,
      "lng": -12.5333333
    },
    {
      "cityName": "Mani",
      "lat": 7.1333333,
      "lng": -11.8166667
    },
    {
      "cityName": "Manjabai",
      "lat": 7.6,
      "lng": -12.75
    },
    {
      "cityName": "Manjama",
      "lat": 7.2708333,
      "lng": -11.3219444
    },
    {
      "cityName": "Manjawo",
      "lat": 8.2,
      "lng": -12.2
    },
    {
      "cityName": "Manjehun",
      "lat": 8.0666667,
      "lng": -12.1333333
    },
    {
      "cityName": "Manjema",
      "lat": 7.2666667,
      "lng": -11.4333333
    },
    {
      "cityName": "Mano-Bonjema",
      "lat": 7.1547222,
      "lng": -11.7522222
    },
    {
      "cityName": "Mano-Kpende",
      "lat": 6.9333333,
      "lng": -11.4833333
    },
    {
      "cityName": "Mano",
      "lat": 7.1333333,
      "lng": -11.5
    },
    {
      "cityName": "Mano Pendobu",
      "lat": 8.0666667,
      "lng": -11.5666667
    },
    {
      "cityName": "Mano Salija",
      "lat": 6.9369444,
      "lng": -11.5091667
    },
    {
      "cityName": "Manowa",
      "lat": 7.9833333,
      "lng": -11.5
    },
    {
      "cityName": "Manow",
      "lat": 7.6833333,
      "lng": -11.9166667
    },
    {
      "cityName": "Mapuntu",
      "lat": 8.0327778,
      "lng": -12.8511111
    },
    {
      "cityName": "Maramu",
      "lat": 8.3166667,
      "lng": -12.7
    },
    {
      "cityName": "Martin",
      "lat": 7.9669444,
      "lng": -12.8497222
    },
    {
      "cityName": "Masahun",
      "lat": 7.4088889,
      "lng": -12.2388889
    },
    {
      "cityName": "Masakpa",
      "lat": 7.45,
      "lng": -11.4166667
    },
    {
      "cityName": "Masa",
      "lat": 7.2166667,
      "lng": -11.9833333
    },
    {
      "cityName": "Masamwa",
      "lat": 7.3491667,
      "lng": -11.7583333
    },
    {
      "cityName": "Masanda",
      "lat": 8.2666667,
      "lng": -12.6166667
    },
    {
      "cityName": "Masanka",
      "lat": 8.3333333,
      "lng": -12.85
    },
    {
      "cityName": "Masanki",
      "lat": 8.3166667,
      "lng": -12.8
    },
    {
      "cityName": "Masan",
      "lat": 7.3541667,
      "lng": -11.6852778
    },
    {
      "cityName": "Masao",
      "lat": 7.2,
      "lng": -11.9666667
    },
    {
      "cityName": "Masatiamama",
      "lat": 8,
      "lng": -12.6
    },
    {
      "cityName": "Masau",
      "lat": 7.5,
      "lng": -11.6666667
    },
    {
      "cityName": "Masibi",
      "lat": 7.0833333,
      "lng": -11.6666667
    },
    {
      "cityName": "Masima",
      "lat": 7.2091667,
      "lng": -11.7675
    },
    {
      "cityName": "Masipema",
      "lat": 7.4166667,
      "lng": -11.6166667
    },
    {
      "cityName": "Masuworo",
      "lat": 8.2833333,
      "lng": -12.4666667
    },
    {
      "cityName": "Matagema",
      "lat": 7.4552778,
      "lng": -12.0630556
    },
    {
      "cityName": "Mataine",
      "lat": 8.25,
      "lng": -12.8166667
    },
    {
      "cityName": "Matakan",
      "lat": 7.6036111,
      "lng": -12.9025
    },
    {
      "cityName": "Matama",
      "lat": 8.0333333,
      "lng": -11.4
    },
    {
      "cityName": "Mateima",
      "lat": 7.9997222,
      "lng": -11.3936111
    },
    {
      "cityName": "Matepoma",
      "lat": 7.3666667,
      "lng": -11.5833333
    },
    {
      "cityName": "Matobon",
      "lat": 8.1208333,
      "lng": -12.8375
    },
    {
      "cityName": "Matongu",
      "lat": 8.3377778,
      "lng": -12.7986111
    },
    {
      "cityName": "Matonko",
      "lat": 8.2666667,
      "lng": -12.85
    },
    {
      "cityName": "Matru",
      "lat": 7.2666667,
      "lng": -11.75
    },
    {
      "cityName": "Mattr",
      "lat": 7.9466667,
      "lng": -11.7902778
    },
    {
      "cityName": "Mattru",
      "lat": 7.2641667,
      "lng": -12.1225
    },
    {
      "cityName": "Matula",
      "lat": 8.2333333,
      "lng": -12.9333333
    },
    {
      "cityName": "Maundu",
      "lat": 8.1166667,
      "lng": -12.7666667
    },
    {
      "cityName": "Mawoto",
      "lat": 8.1666667,
      "lng": -12.55
    },
    {
      "cityName": "Mawujo",
      "lat": 7.9333333,
      "lng": -12.25
    },
    {
      "cityName": "Mayemberi",
      "lat": 8.4166667,
      "lng": -11.75
    },
    {
      "cityName": "Mayutai",
      "lat": 7.9833333,
      "lng": -12.7
    },
    {
      "cityName": "Mbaoma",
      "lat": 7.6627778,
      "lng": -12.41
    },
    {
      "cityName": "Mbelebu",
      "lat": 7.5761111,
      "lng": -11.6033333
    },
    {
      "cityName": "Meboyama",
      "lat": 7.9922222,
      "lng": -11.8338889
    },
    {
      "cityName": "Megi",
      "lat": 7.5,
      "lng": -12.4333333
    },
    {
      "cityName": "Melima",
      "lat": 7.05,
      "lng": -11.4333333
    },
    {
      "cityName": "Mema",
      "lat": 7.4894444,
      "lng": -11.5227778
    },
    {
      "cityName": "Mendegerem",
      "lat": 8.45,
      "lng": -11.5833333
    },
    {
      "cityName": "Mende Kelema",
      "lat": 7.8008333,
      "lng": -11.6077778
    },
    {
      "cityName": "Mende",
      "lat": 7.1383333,
      "lng": -11.6705556
    },
    {
      "cityName": "Mendetown",
      "lat": 8.05,
      "lng": -12.8166667
    },
    {
      "cityName": "Mendewa",
      "lat": 8.1666667,
      "lng": -11.4833333
    },
    {
      "cityName": "Mesima",
      "lat": 7.2047222,
      "lng": -11.9788889
    },
    {
      "cityName": "Meyama",
      "lat": 7.7166667,
      "lng": -11.5666667
    },
    {
      "cityName": "Mina",
      "lat": 7.0236111,
      "lng": -11.6191667
    },
    {
      "cityName": "Misiba",
      "lat": 7.3158333,
      "lng": -11.4719444
    },
    {
      "cityName": "Misila",
      "lat": 7.2833333,
      "lng": -11.2166667
    },
    {
      "cityName": "Mobaikura",
      "lat": 7.9966667,
      "lng": -12.8663889
    },
    {
      "cityName": "Mobai",
      "lat": 8.3,
      "lng": -11.9833333
    },
    {
      "cityName": "Mobaiwa",
      "lat": 8.35,
      "lng": -11.8666667
    },
    {
      "cityName": "Mobang",
      "lat": 7.9005556,
      "lng": -12.6413889
    },
    {
      "cityName": "Mobasi",
      "lat": 7.9036111,
      "lng": -12.4963889
    },
    {
      "cityName": "Mobavi",
      "lat": 7.5166667,
      "lng": -12
    },
    {
      "cityName": "Mobeki",
      "lat": 7.7666667,
      "lng": -12.7666667
    },
    {
      "cityName": "Mobela",
      "lat": 7.9166667,
      "lng": -12.1833333
    },
    {
      "cityName": "Mobele",
      "lat": 8.0333333,
      "lng": -12.8166667
    },
    {
      "cityName": "Mobe",
      "lat": 7.3833333,
      "lng": -12.3666667
    },
    {
      "cityName": "Mobiakefi",
      "lat": 8.0166667,
      "lng": -12.75
    },
    {
      "cityName": "Mobiko",
      "lat": 8.0833333,
      "lng": -12.8333333
    },
    {
      "cityName": "Mobin",
      "lat": 7.9808333,
      "lng": -12.8322222
    },
    {
      "cityName": "Mobobu",
      "lat": 7.5833333,
      "lng": -12.3625
    },
    {
      "cityName": "Mobonda",
      "lat": 7.7972222,
      "lng": -12.5430556
    },
    {
      "cityName": "Moboso",
      "lat": 7.7,
      "lng": -12.4166667
    },
    {
      "cityName": "Mobunji",
      "lat": 7.8333333,
      "lng": -12.5833333
    },
    {
      "cityName": "Mobure",
      "lat": 8.15,
      "lng": -12.9
    },
    {
      "cityName": "Moburi",
      "lat": 7.5058333,
      "lng": -12.1730556
    },
    {
      "cityName": "Mochach",
      "lat": 7.3769444,
      "lng": -12.3522222
    },
    {
      "cityName": "Mochas",
      "lat": 7.5933333,
      "lng": -12.2797222
    },
    {
      "cityName": "Modagba",
      "lat": 7.7833333,
      "lng": -12.3166667
    },
    {
      "cityName": "Modavis",
      "lat": 7.4291667,
      "lng": -12.4102778
    },
    {
      "cityName": "Modenkema",
      "lat": 8.1833333,
      "lng": -12.7333333
    },
    {
      "cityName": "Modogbo",
      "lat": 7.8869444,
      "lng": -12.3322222
    },
    {
      "cityName": "Modrisa",
      "lat": 7.8,
      "lng": -12.55
    },
    {
      "cityName": "Mofanthane",
      "lat": 7.9175,
      "lng": -12.7180556
    },
    {
      "cityName": "Mofengari",
      "lat": 8.25,
      "lng": -12.8833333
    },
    {
      "cityName": "Mofindo",
      "lat": 7.85,
      "lng": -12.2166667
    },
    {
      "cityName": "Mofino",
      "lat": 8.0333333,
      "lng": -12.7333333
    },
    {
      "cityName": "Mofombu",
      "lat": 8.1333333,
      "lng": -11.9
    },
    {
      "cityName": "Mofos",
      "lat": 7.9466667,
      "lng": -12.7133333
    },
    {
      "cityName": "Mofoyo",
      "lat": 7.8580556,
      "lng": -12.1805556
    },
    {
      "cityName": "Mofumba",
      "lat": 7.3,
      "lng": -12
    },
    {
      "cityName": "Mofure",
      "lat": 8.0836111,
      "lng": -12.6825
    },
    {
      "cityName": "Mofwe",
      "lat": 7.6666667,
      "lng": -11.9666667
    },
    {
      "cityName": "Mogbago",
      "lat": 7.6,
      "lng": -12.6666667
    },
    {
      "cityName": "Mogbain",
      "lat": 7.6,
      "lng": -11.9
    },
    {
      "cityName": "Mogbambo",
      "lat": 7.8666667,
      "lng": -12.4
    },
    {
      "cityName": "Mogbamu",
      "lat": 8,
      "lng": -12.1
    },
    {
      "cityName": "Mogbanaboi",
      "lat": 8.1666667,
      "lng": -12.8833333
    },
    {
      "cityName": "Mogbandi",
      "lat": 7.7333333,
      "lng": -12.2
    },
    {
      "cityName": "Mogbando",
      "lat": 7.9388889,
      "lng": -12.6719444
    },
    {
      "cityName": "Mogbangumba",
      "lat": 7.7702778,
      "lng": -12.1791667
    },
    {
      "cityName": "Mogbap",
      "lat": 7.9666667,
      "lng": -12.8
    },
    {
      "cityName": "Mogbaseke",
      "lat": 8.0558333,
      "lng": -12.1997222
    },
    {
      "cityName": "Mogbei",
      "lat": 7.7,
      "lng": -12.1166667
    },
    {
      "cityName": "Mogbembo",
      "lat": 7.7694444,
      "lng": -12.3105556
    },
    {
      "cityName": "Mogbem",
      "lat": 7.9166667,
      "lng": -12.7
    },
    {
      "cityName": "Mogbencha",
      "lat": 8.1333333,
      "lng": -12.7666667
    },
    {
      "cityName": "Mogbende",
      "lat": 8.1166667,
      "lng": -11.5
    },
    {
      "cityName": "Mogbendu",
      "lat": 8.15,
      "lng": -12.7166667
    },
    {
      "cityName": "Mogbenje",
      "lat": 8.1333333,
      "lng": -12.7
    },
    {
      "cityName": "Mogben",
      "lat": 7.8066667,
      "lng": -12.5713889
    },
    {
      "cityName": "Mogbese",
      "lat": 7.2166667,
      "lng": -12
    },
    {
      "cityName": "Mogbetu",
      "lat": 8.2333333,
      "lng": -12.3833333
    },
    {
      "cityName": "Mogbevo",
      "lat": 7.6777778,
      "lng": -12.0211111
    },
    {
      "cityName": "Mogbewa",
      "lat": 7.2666667,
      "lng": -12.1166667
    },
    {
      "cityName": "Mogbewo",
      "lat": 7.7722222,
      "lng": -12.2933333
    },
    {
      "cityName": "Mogbintimi",
      "lat": 7.9666667,
      "lng": -12.6333333
    },
    {
      "cityName": "Mogbisi",
      "lat": 8.1,
      "lng": -11.9
    },
    {
      "cityName": "Mogbodo",
      "lat": 7.6672222,
      "lng": -12.1616667
    },
    {
      "cityName": "Mogbomo",
      "lat": 7.8072222,
      "lng": -12.355
    },
    {
      "cityName": "Mogbovu",
      "lat": 7.4641667,
      "lng": -12.59
    },
    {
      "cityName": "Mogbowu",
      "lat": 7.8666667,
      "lng": -12.6
    },
    {
      "cityName": "Mogbum",
      "lat": 7.5333333,
      "lng": -11.8833333
    },
    {
      "cityName": "Mogbundu",
      "lat": 8.2166667,
      "lng": -12.6833333
    },
    {
      "cityName": "Mogbun",
      "lat": 8.1,
      "lng": -12.8
    },
    {
      "cityName": "Mogbuya",
      "lat": 8.1833333,
      "lng": -12.7166667
    },
    {
      "cityName": "Mogbwe",
      "lat": 8.2333333,
      "lng": -11.6333333
    },
    {
      "cityName": "Mogongbe",
      "lat": 7.6830556,
      "lng": -12.1397222
    },
    {
      "cityName": "Mogoviwa",
      "lat": 8.05,
      "lng": -12.4
    },
    {
      "cityName": "Mohera",
      "lat": 7.9133333,
      "lng": -12.7913889
    },
    {
      "cityName": "Mohite",
      "lat": 7.8333333,
      "lng": -12.8166667
    },
    {
      "cityName": "Mohuwa",
      "lat": 7.5511111,
      "lng": -12.0316667
    },
    {
      "cityName": "Moindu",
      "lat": 8.35,
      "lng": -11.8333333
    },
    {
      "cityName": "Mojajua",
      "lat": 7.4780556,
      "lng": -12.4297222
    },
    {
      "cityName": "Mojohnson",
      "lat": 7.9322222,
      "lng": -12.4933333
    },
    {
      "cityName": "Mojoka",
      "lat": 7.9,
      "lng": -12.3166667
    },
    {
      "cityName": "Mojombo",
      "lat": 7.9166667,
      "lng": -12.3
    },
    {
      "cityName": "Mokaba",
      "lat": 7.1333333,
      "lng": -11.6833333
    },
    {
      "cityName": "Mokabanda",
      "lat": 7.9513889,
      "lng": -12.5813889
    },
    {
      "cityName": "Mokaipi",
      "lat": 7.7286111,
      "lng": -12.2819444
    },
    {
      "cityName": "Mokaisumana",
      "lat": 8,
      "lng": -12.8166667
    },
    {
      "cityName": "Mokamba",
      "lat": 8.05,
      "lng": -12.8666667
    },
    {
      "cityName": "Mokambebome",
      "lat": 7.8666667,
      "lng": -12.55
    },
    {
      "cityName": "Mokanagbo",
      "lat": 7.8,
      "lng": -12.3333333
    },
    {
      "cityName": "Mokana",
      "lat": 7.9333333,
      "lng": -12.7
    },
    {
      "cityName": "Mokanasi",
      "lat": 8,
      "lng": -12.7
    },
    {
      "cityName": "Mokande",
      "lat": 7.9,
      "lng": -11.9
    },
    {
      "cityName": "Mokando",
      "lat": 7.8925,
      "lng": -12.6911111
    },
    {
      "cityName": "Mokango",
      "lat": 7.8666667,
      "lng": -12.4333333
    },
    {
      "cityName": "Mokasi",
      "lat": 7.4308333,
      "lng": -12.2688889
    },
    {
      "cityName": "Mokawa",
      "lat": 8.0333333,
      "lng": -12.8
    },
    {
      "cityName": "Mokea",
      "lat": 8.3166667,
      "lng": -12.75
    },
    {
      "cityName": "Mokebe",
      "lat": 7.8875,
      "lng": -12.8075
    },
    {
      "cityName": "Mokebi",
      "lat": 8.2,
      "lng": -12.7333333
    },
    {
      "cityName": "Mokegbe",
      "lat": 7.9,
      "lng": -12.5833333
    },
    {
      "cityName": "Mokehe",
      "lat": 7.8833333,
      "lng": -12.55
    },
    {
      "cityName": "Mokele",
      "lat": 7.2,
      "lng": -11.9333333
    },
    {
      "cityName": "Mokelle",
      "lat": 7.7177778,
      "lng": -12.1638889
    },
    {
      "cityName": "Mokelpe",
      "lat": 7.725,
      "lng": -12.1652778
    },
    {
      "cityName": "Mokende",
      "lat": 7.7666667,
      "lng": -12.65
    },
    {
      "cityName": "Mokenewa",
      "lat": 7.4833333,
      "lng": -12.3166667
    },
    {
      "cityName": "Mokengi",
      "lat": 7.4,
      "lng": -11.7833333
    },
    {
      "cityName": "Mokeni",
      "lat": 7.9333333,
      "lng": -12.7833333
    },
    {
      "cityName": "Mokerifuma",
      "lat": 8.2333333,
      "lng": -12.5333333
    },
    {
      "cityName": "Mokewa",
      "lat": 7.9486111,
      "lng": -12.5875
    },
    {
      "cityName": "Mokime",
      "lat": 7.9666667,
      "lng": -12.0666667
    },
    {
      "cityName": "Mokiri",
      "lat": 8.3,
      "lng": -12.3
    },
    {
      "cityName": "Mokit",
      "lat": 8.1666667,
      "lng": -12.7166667
    },
    {
      "cityName": "Mokohun",
      "lat": 8.0833333,
      "lng": -12.65
    },
    {
      "cityName": "Mokoli",
      "lat": 7.9666667,
      "lng": -12.6666667
    },
    {
      "cityName": "Mokombe",
      "lat": 7.7563889,
      "lng": -12.3813889
    },
    {
      "cityName": "Mokombi",
      "lat": 7.5258333,
      "lng": -12.5711111
    },
    {
      "cityName": "Moko",
      "lat": 7.9269444,
      "lng": -12.5366667
    },
    {
      "cityName": "Mokonbeti",
      "lat": 8,
      "lng": -12.7666667
    },
    {
      "cityName": "Mokonde",
      "lat": 7.7641667,
      "lng": -12.1683333
    },
    {
      "cityName": "Mokone",
      "lat": 7.8461111,
      "lng": -12.1588889
    },
    {
      "cityName": "Mokonia",
      "lat": 8.1,
      "lng": -12.7333333
    },
    {
      "cityName": "Mokonowa",
      "lat": 8.2333333,
      "lng": -12.75
    },
    {
      "cityName": "Mokonvandi",
      "lat": 7.7666667,
      "lng": -12.7166667
    },
    {
      "cityName": "Mokori",
      "lat": 8.1833333,
      "lng": -12.5166667
    },
    {
      "cityName": "Mokota",
      "lat": 7.9025,
      "lng": -12.1444444
    },
    {
      "cityName": "Mokoti",
      "lat": 8.05,
      "lng": -12.7833333
    },
    {
      "cityName": "Mokpandimo",
      "lat": 7.7872222,
      "lng": -12.24
    },
    {
      "cityName": "Mokumbara",
      "lat": 7.9869444,
      "lng": -12.5441667
    },
    {
      "cityName": "Mokurigbe",
      "lat": 8.1333333,
      "lng": -12.6666667
    },
    {
      "cityName": "Mokusi",
      "lat": 7.2333333,
      "lng": -12.0333333
    },
    {
      "cityName": "Mokus",
      "lat": 7.4330556,
      "lng": -12.1505556
    },
    {
      "cityName": "Molaga",
      "lat": 7.8833333,
      "lng": -12.6833333
    },
    {
      "cityName": "Molain",
      "lat": 8.15,
      "lng": -12.7333333
    },
    {
      "cityName": "Molakul",
      "lat": 7.8,
      "lng": -12.6833333
    },
    {
      "cityName": "Molamina",
      "lat": 8.2333333,
      "lng": -12.8833333
    },
    {
      "cityName": "Molango",
      "lat": 8.0333333,
      "lng": -12.5666667
    },
    {
      "cityName": "Molankono",
      "lat": 8.2333333,
      "lng": -12.7166667
    },
    {
      "cityName": "Molemu",
      "lat": 8.2166667,
      "lng": -12.6666667
    },
    {
      "cityName": "Molunia",
      "lat": 7.8755556,
      "lng": -12.0655556
    },
    {
      "cityName": "Momaia",
      "lat": 7.9083333,
      "lng": -12.6716667
    },
    {
      "cityName": "Momajo",
      "lat": 7.5780556,
      "lng": -11.94
    },
    {
      "cityName": "Momaligi",
      "lat": 7.6105556,
      "lng": -12.3611111
    },
    {
      "cityName": "Momana",
      "lat": 7.9166667,
      "lng": -12.4
    },
    {
      "cityName": "Momange",
      "lat": 8.25,
      "lng": -12.4666667
    },
    {
      "cityName": "Mombawa",
      "lat": 7.7297222,
      "lng": -12.2163889
    },
    {
      "cityName": "Momengi",
      "lat": 7.8166667,
      "lng": -12.4166667
    },
    {
      "cityName": "Monaia",
      "lat": 7.5305556,
      "lng": -12.3997222
    },
    {
      "cityName": "Mondeko",
      "lat": 7.7533333,
      "lng": -12.2319444
    },
    {
      "cityName": "Mondema",
      "lat": 7.9166667,
      "lng": -12.6
    },
    {
      "cityName": "Mondoko",
      "lat": 7.5922222,
      "lng": -11.8505556
    },
    {
      "cityName": "Mondo",
      "lat": 8.1325,
      "lng": -12.2688889
    },
    {
      "cityName": "Monga",
      "lat": 7.7908333,
      "lng": -12.6205556
    },
    {
      "cityName": "Mongawo",
      "lat": 7.8333333,
      "lng": -12.25
    },
    {
      "cityName": "Mongeri",
      "lat": 7.5958333,
      "lng": -12.2227778
    },
    {
      "cityName": "Mongeriwo",
      "lat": 7.7022222,
      "lng": -12.2091667
    },
    {
      "cityName": "Mongheri",
      "lat": 8.3166667,
      "lng": -11.7333333
    },
    {
      "cityName": "Mongoro",
      "lat": 8.0666667,
      "lng": -12.05
    },
    {
      "cityName": "Mongutu",
      "lat": 7.9791667,
      "lng": -12.6419444
    },
    {
      "cityName": "Moniambe",
      "lat": 8.3166667,
      "lng": -12.85
    },
    {
      "cityName": "Monjalo",
      "lat": 7.85,
      "lng": -12.3833333
    },
    {
      "cityName": "Monjama",
      "lat": 8.0166667,
      "lng": -12.6666667
    },
    {
      "cityName": "Monjigba",
      "lat": 7.4355556,
      "lng": -12.0191667
    },
    {
      "cityName": "Monjobu",
      "lat": 8.25,
      "lng": -12.45
    },
    {
      "cityName": "Monunk",
      "lat": 7.8327778,
      "lng": -12.2408333
    },
    {
      "cityName": "Moogiba",
      "lat": 7.9311111,
      "lng": -12.0297222
    },
    {
      "cityName": "Mopalma",
      "lat": 7.2472222,
      "lng": -11.8394444
    },
    {
      "cityName": "Mopani",
      "lat": 7.4686111,
      "lng": -11.7716667
    },
    {
      "cityName": "Mopende",
      "lat": 7.7122222,
      "lng": -11.9511111
    },
    {
      "cityName": "Mopile",
      "lat": 7.8761111,
      "lng": -12.7372222
    },
    {
      "cityName": "Mopiye",
      "lat": 7.8333333,
      "lng": -12.8666667
    },
    {
      "cityName": "Moritown",
      "lat": 7.9833333,
      "lng": -12.85
    },
    {
      "cityName": "Moroso",
      "lat": 7.9458333,
      "lng": -11.9166667
    },
    {
      "cityName": "Mosadugu",
      "lat": 8.0666667,
      "lng": -12.7
    },
    {
      "cityName": "Mosagbe",
      "lat": 7.7911111,
      "lng": -12.5808333
    },
    {
      "cityName": "Mosago",
      "lat": 7.9833333,
      "lng": -12.5166667
    },
    {
      "cityName": "Mosaipe",
      "lat": 7.8305556,
      "lng": -12.4233333
    },
    {
      "cityName": "Mosako",
      "lat": 7.8436111,
      "lng": -12.5733333
    },
    {
      "cityName": "Mosala",
      "lat": 7.9180556,
      "lng": -12.3397222
    },
    {
      "cityName": "Mosampo",
      "lat": 7.55,
      "lng": -12.2
    },
    {
      "cityName": "Mosanasi",
      "lat": 8.1833333,
      "lng": -12.65
    },
    {
      "cityName": "Mosanda",
      "lat": 7.8955556,
      "lng": -12.6222222
    },
    {
      "cityName": "Mosandi",
      "lat": 7.9352778,
      "lng": -12.7311111
    },
    {
      "cityName": "Mosando",
      "lat": 8.2,
      "lng": -12.8
    },
    {
      "cityName": "Mosangawo",
      "lat": 7.8666667,
      "lng": -12.3333333
    },
    {
      "cityName": "Mosanjo",
      "lat": 7.4991667,
      "lng": -12.0752778
    },
    {
      "cityName": "Mosankon",
      "lat": 7.8758333,
      "lng": -12.7183333
    },
    {
      "cityName": "Mosan",
      "lat": 7.8008333,
      "lng": -12.8044444
    },
    {
      "cityName": "Mosapbo",
      "lat": 7.7666667,
      "lng": -12.1833333
    },
    {
      "cityName": "Mosavi",
      "lat": 7.6625,
      "lng": -12.2116667
    },
    {
      "cityName": "Mosawa",
      "lat": 8,
      "lng": -12.6666667
    },
    {
      "cityName": "Moseba",
      "lat": 7.4061111,
      "lng": -12.265
    },
    {
      "cityName": "Mosebana",
      "lat": 8.2333333,
      "lng": -12.85
    },
    {
      "cityName": "Mosebonkane",
      "lat": 8.15,
      "lng": -12.8666667
    },
    {
      "cityName": "Moseki",
      "lat": 7.9166667,
      "lng": -12.4833333
    },
    {
      "cityName": "Moselime",
      "lat": 8.2,
      "lng": -12.9
    },
    {
      "cityName": "Moselolo",
      "lat": 7.8494444,
      "lng": -12.4297222
    },
    {
      "cityName": "Mosendema",
      "lat": 8.1666667,
      "lng": -12.7333333
    },
    {
      "cityName": "Mosenengo",
      "lat": 7.8713889,
      "lng": -12.4213889
    },
    {
      "cityName": "Mosenge",
      "lat": 8.2166667,
      "lng": -12.1
    },
    {
      "cityName": "Mosengo",
      "lat": 8.25,
      "lng": -12.6333333
    },
    {
      "cityName": "Mosimbara",
      "lat": 8.05,
      "lng": -12.6666667
    },
    {
      "cityName": "Mosimbo",
      "lat": 7.5005556,
      "lng": -12.3430556
    },
    {
      "cityName": "Mosine",
      "lat": 7.1169444,
      "lng": -11.7688889
    },
    {
      "cityName": "Mosisiworo",
      "lat": 7.9094444,
      "lng": -12.6905556
    },
    {
      "cityName": "Mosogbo",
      "lat": 7.6166667,
      "lng": -11.95
    },
    {
      "cityName": "Mosunga",
      "lat": 7.5105556,
      "lng": -12.2016667
    },
    {
      "cityName": "Mosungi",
      "lat": 7.65,
      "lng": -12.05
    },
    {
      "cityName": "Mosungo",
      "lat": 8.1166667,
      "lng": -12.05
    },
    {
      "cityName": "Mosunkara",
      "lat": 8.0833333,
      "lng": -12.5333333
    },
    {
      "cityName": "Mosuri",
      "lat": 8.1833333,
      "lng": -12.8
    },
    {
      "cityName": "Motabe",
      "lat": 8.1333333,
      "lng": -12.8
    },
    {
      "cityName": "Motail",
      "lat": 8.2263889,
      "lng": -12.9433333
    },
    {
      "cityName": "Motainkil",
      "lat": 7.9797222,
      "lng": -12.7761111
    },
    {
      "cityName": "Motami",
      "lat": 7.6763889,
      "lng": -12.0994444
    },
    {
      "cityName": "Motanga",
      "lat": 7.1666667,
      "lng": -11.7666667
    },
    {
      "cityName": "Motaso",
      "lat": 7.8769444,
      "lng": -12.4655556
    },
    {
      "cityName": "Motaua",
      "lat": 7.6144444,
      "lng": -12.0463889
    },
    {
      "cityName": "Moteva",
      "lat": 7.6813889,
      "lng": -12.4288889
    },
    {
      "cityName": "Motifu",
      "lat": 7.4333333,
      "lng": -12.2166667
    },
    {
      "cityName": "Motimbo",
      "lat": 7.8833333,
      "lng": -12.7
    },
    {
      "cityName": "Motinga",
      "lat": 7.7333333,
      "lng": -12.2666667
    },
    {
      "cityName": "Motoko",
      "lat": 7.9166667,
      "lng": -12.0666667
    },
    {
      "cityName": "Motopi",
      "lat": 7.9219444,
      "lng": -12.1358333
    },
    {
      "cityName": "Motuakoi",
      "lat": 7.95,
      "lng": -12.6666667
    },
    {
      "cityName": "Motumbo",
      "lat": 7.9516667,
      "lng": -12.7755556
    },
    {
      "cityName": "Movaudi",
      "lat": 7.4869444,
      "lng": -12.5197222
    },
    {
      "cityName": "Movembe",
      "lat": 8.0833333,
      "lng": -12.7
    },
    {
      "cityName": "Mowago",
      "lat": 7.5836111,
      "lng": -12.1725
    },
    {
      "cityName": "Mowanga",
      "lat": 7.9333333,
      "lng": -12.6333333
    },
    {
      "cityName": "Mowe",
      "lat": 7.6,
      "lng": -11.9166667
    },
    {
      "cityName": "Mowil",
      "lat": 7.9594444,
      "lng": -12.755
    },
    {
      "cityName": "Mowoto",
      "lat": 7.7083333,
      "lng": -12.0033333
    },
    {
      "cityName": "Moyagba",
      "lat": 8,
      "lng": -12.7333333
    },
    {
      "cityName": "Moyambabasi",
      "lat": 8.3,
      "lng": -12.7666667
    },
    {
      "cityName": "Moyamba",
      "lat": 8.1666667,
      "lng": -12.4333333
    },
    {
      "cityName": "Moyambaworo",
      "lat": 8.0833333,
      "lng": -12.1333333
    },
    {
      "cityName": "Moya",
      "lat": 7.9666667,
      "lng": -12.8333333
    },
    {
      "cityName": "Moyavita",
      "lat": 7.9638889,
      "lng": -12.3811111
    },
    {
      "cityName": "Moyawo",
      "lat": 7.4788889,
      "lng": -11.9255556
    },
    {
      "cityName": "Moyegbe",
      "lat": 8.0666667,
      "lng": -12.6833333
    },
    {
      "cityName": "Moyema",
      "lat": 7.8938889,
      "lng": -12.7680556
    },
    {
      "cityName": "Moyemi",
      "lat": 8.0333333,
      "lng": -12.6666667
    },
    {
      "cityName": "Moyengi",
      "lat": 7.8461111,
      "lng": -12.8275
    },
    {
      "cityName": "Moyenken",
      "lat": 8.2833333,
      "lng": -12.6666667
    },
    {
      "cityName": "Moyeve",
      "lat": 7.7,
      "lng": -12.35
    },
    {
      "cityName": "Moyibo",
      "lat": 7.9666667,
      "lng": -12.5833333
    },
    {
      "cityName": "Moyirasa",
      "lat": 7.8833333,
      "lng": -12.4333333
    },
    {
      "cityName": "Moyogbo",
      "lat": 7.5333333,
      "lng": -12.1
    },
    {
      "cityName": "Moyogbu",
      "lat": 8.0166667,
      "lng": -11.9833333
    },
    {
      "cityName": "Moyoli",
      "lat": 7.9333333,
      "lng": -12.05
    },
    {
      "cityName": "Moyolo",
      "lat": 7.8833333,
      "lng": -12.8666667
    },
    {
      "cityName": "Moyomboma",
      "lat": 8.0166667,
      "lng": -12.1166667
    },
    {
      "cityName": "Moyombo",
      "lat": 7.9161111,
      "lng": -12.4169444
    },
    {
      "cityName": "Moyoro",
      "lat": 8.1666667,
      "lng": -12.35
    },
    {
      "cityName": "Moyowa",
      "lat": 7.6502778,
      "lng": -12.1019444
    },
    {
      "cityName": "Moyoworo",
      "lat": 7.7691667,
      "lng": -12.0125
    },
    {
      "cityName": "Naama",
      "lat": 7.2833333,
      "lng": -11.8
    },
    {
      "cityName": "Naba",
      "lat": 7.4166667,
      "lng": -12.1
    },
    {
      "cityName": "Nagbema",
      "lat": 7.8333333,
      "lng": -11.6333333
    },
    {
      "cityName": "Nagbena",
      "lat": 7.3,
      "lng": -11.25
    },
    {
      "cityName": "Nagbwema",
      "lat": 7.8975,
      "lng": -12.0608333
    },
    {
      "cityName": "Naiagoiehun",
      "lat": 7.6111111,
      "lng": -11.7166667
    },
    {
      "cityName": "Naiagolehun",
      "lat": 7.0155556,
      "lng": -11.5991667
    },
    {
      "cityName": "Naiaguehun",
      "lat": 7.8833333,
      "lng": -12.3666667
    },
    {
      "cityName": "Naiahun",
      "lat": 7.4594444,
      "lng": -11.8005556
    },
    {
      "cityName": "Naji",
      "lat": 7.3436111,
      "lng": -11.8233333
    },
    {
      "cityName": "Navali",
      "lat": 7.1702778,
      "lng": -11.4844444
    },
    {
      "cityName": "Nayema",
      "lat": 8.3166667,
      "lng": -11.7166667
    },
    {
      "cityName": "Ndendemoia",
      "lat": 7.7725,
      "lng": -12.2588889
    },
    {
      "cityName": "Ndogbogoma",
      "lat": 7.9166667,
      "lng": -11.4833333
    },
    {
      "cityName": "Neba",
      "lat": 7.5166667,
      "lng": -11.95
    },
    {
      "cityName": "Negbema",
      "lat": 7.7344444,
      "lng": -12.0066667
    },
    {
      "cityName": "Negdema",
      "lat": 8.1333333,
      "lng": -11.65
    },
    {
      "cityName": "Ngathun",
      "lat": 7.8911111,
      "lng": -12.2391667
    },
    {
      "cityName": "Ngeihehun",
      "lat": 7.9305556,
      "lng": -12.4630556
    },
    {
      "cityName": "Ngelehun",
      "lat": 8.1,
      "lng": -11.4166667
    },
    {
      "cityName": "Ngerehun",
      "lat": 7.3711111,
      "lng": -11.9413889
    },
    {
      "cityName": "Ngiyebu",
      "lat": 7.6358333,
      "lng": -12.0711111
    },
    {
      "cityName": "Ngiyema",
      "lat": 7.5838889,
      "lng": -12.0697222
    },
    {
      "cityName": "Ngoalu",
      "lat": 7.9,
      "lng": -11.6166667
    },
    {
      "cityName": "Ngorgo",
      "lat": 7.3166667,
      "lng": -11.6333333
    },
    {
      "cityName": "N'Gowyihun",
      "lat": 7.9516667,
      "lng": -11.6219444
    },
    {
      "cityName": "Ngukpabu",
      "lat": 7.92,
      "lng": -11.9630556
    },
    {
      "cityName": "Niagwehun",
      "lat": 8.3666667,
      "lng": -11.6
    },
    {
      "cityName": "Niahalahun",
      "lat": 8.1666667,
      "lng": -12.2
    },
    {
      "cityName": "Niama",
      "lat": 7.9575,
      "lng": -11.3630556
    },
    {
      "cityName": "Niayama",
      "lat": 7.4266667,
      "lng": -11.4902778
    },
    {
      "cityName": "Niti",
      "lat": 8.0833333,
      "lng": -12.2
    },
    {
      "cityName": "Njala",
      "lat": 7.0833333,
      "lng": -11.6333333
    },
    {
      "cityName": "Njale",
      "lat": 8.1177778,
      "lng": -12.0844444
    },
    {
      "cityName": "Njama",
      "lat": 8.0833333,
      "lng": -11.9333333
    },
    {
      "cityName": "Nomiama",
      "lat": 8.0833333,
      "lng": -11.3833333
    },
    {
      "cityName": "Nongowa",
      "lat": 7.4463889,
      "lng": -11.4725
    },
    {
      "cityName": "Nonkaba",
      "lat": 7.7333333,
      "lng": -12.65
    },
    {
      "cityName": "Nonkoba",
      "lat": 7.3913889,
      "lng": -12.2841667
    },
    {
      "cityName": "Nyadehun",
      "lat": 8.05,
      "lng": -10.9833333
    },
    {
      "cityName": "Nyalahun",
      "lat": 7.6666667,
      "lng": -11.9333333
    },
    {
      "cityName": "Nyalema",
      "lat": 7.85,
      "lng": -12.0333333
    },
    {
      "cityName": "Nyamawabu",
      "lat": 8.15,
      "lng": -12.05
    },
    {
      "cityName": "Nyandeama",
      "lat": 8.1166667,
      "lng": -11.6166667
    },