{
  "name": "Lorraine",
  "cities": [
    {
      "cityName": "Abainville",
      "lat": 48.533333,
      "lng": 5.5
    },
    {
      "cityName": "Abaucourt",
      "lat": 48.9,
      "lng": 6.25
    },
    {
      "cityName": "Abaucourt-lès-Souppleville",
      "lat": 49.2,
      "lng": 5.533333
    },
    {
      "cityName": "Abbeville",
      "lat": 49.2,
      "lng": 5.85
    },
    {
      "cityName": "Aboncourt",
      "lat": 48.366667,
      "lng": 5.966667
    },
    {
      "cityName": "Aboncourt-sur-Seille",
      "lat": 48.816667,
      "lng": 6.35
    },
    {
      "cityName": "Abreschviller",
      "lat": 48.633333,
      "lng": 7.1
    },
    {
      "cityName": "Achain",
      "lat": 48.916667,
      "lng": 6.583333
    },
    {
      "cityName": "Achâtel",
      "lat": 48.933333,
      "lng": 6.3
    },
    {
      "cityName": "Achen",
      "lat": 49.05,
      "lng": 7.183333
    },
    {
      "cityName": "Adaincourt",
      "lat": 49,
      "lng": 6.433333
    },
    {
      "cityName": "Adelange",
      "lat": 49,
      "lng": 6.616667
    },
    {
      "cityName": "Affléville",
      "lat": 49.266667,
      "lng": 5.766667
    },
    {
      "cityName": "Affracourt",
      "lat": 48.466667,
      "lng": 6.166667
    },
    {
      "cityName": "Agincourt",
      "lat": 48.733333,
      "lng": 6.233333
    },
    {
      "cityName": "Ahéville",
      "lat": 48.283333,
      "lng": 6.2
    },
    {
      "cityName": "Aideling-lès-Bouzonville",
      "lat": 49.3,
      "lng": 6.566667
    },
    {
      "cityName": "Ailly",
      "lat": 48.866667,
      "lng": 5.55
    },
    {
      "cityName": "Aincreville",
      "lat": 49.366667,
      "lng": 5.116667
    },
    {
      "cityName": "Aingeray",
      "lat": 48.733333,
      "lng": 6
    },
    {
      "cityName": "Aingeville",
      "lat": 48.2,
      "lng": 5.766667
    },
    {
      "cityName": "Ainvelle",
      "lat": 48,
      "lng": 5.833333
    },
    {
      "cityName": "Aix",
      "lat": 49.25,
      "lng": 5.75
    },
    {
      "cityName": "Ajoncourt",
      "lat": 48.85,
      "lng": 6.3
    },
    {
      "cityName": "Alaincourt",
      "lat": 48.9,
      "lng": 6.35
    },
    {
      "cityName": "Albesdorf",
      "lat": 48.933333,
      "lng": 6.85
    },
    {
      "cityName": "Algrange",
      "lat": 49.35,
      "lng": 6.05
    },
    {
      "cityName": "Allain",
      "lat": 48.55,
      "lng": 5.916667
    },
    {
      "cityName": "Allamont",
      "lat": 49.116667,
      "lng": 5.766667
    },
    {
      "cityName": "Allamps",
      "lat": 48.55,
      "lng": 5.816667
    },
    {
      "cityName": "Allarmont",
      "lat": 48.483333,
      "lng": 7.016667
    },
    {
      "cityName": "Allondrelle",
      "lat": 49.516667,
      "lng": 5.566667
    },
    {
      "cityName": "Alsting",
      "lat": 49.183333,
      "lng": 6.983333
    },
    {
      "cityName": "Althorn",
      "lat": 48.966667,
      "lng": 7.4
    },
    {
      "cityName": "Altrippe",
      "lat": 49.033333,
      "lng": 6.816667
    },
    {
      "cityName": "Altroff",
      "lat": 48.966667,
      "lng": 6.8
    },
    {
      "cityName": "Alt-Stieringen",
      "lat": 49.216667,
      "lng": 6.933333
    },
    {
      "cityName": "Altviller",
      "lat": 49.083333,
      "lng": 6.733333
    },
    {
      "cityName": "Alzing",
      "lat": 49.283333,
      "lng": 6.55
    },
    {
      "cityName": "Amance",
      "lat": 48.766667,
      "lng": 6.283333
    },
    {
      "cityName": "Amanty",
      "lat": 48.516667,
      "lng": 5.616667
    },
    {
      "cityName": "Amanviller",
      "lat": 49.166667,
      "lng": 6.033333
    },
    {
      "cityName": "Ambacourt",
      "lat": 48.35,
      "lng": 6.15
    },
    {
      "cityName": "Amblaincourt",
      "lat": 48.966667,
      "lng": 5.216667
    },
    {
      "cityName": "Ambly",
      "lat": 49.016667,
      "lng": 5.45
    },
    {
      "cityName": "Amel",
      "lat": 49.266667,
      "lng": 5.65
    },
    {
      "cityName": "Amélécourt",
      "lat": 48.833333,
      "lng": 6.5
    },
    {
      "cityName": "Amenoncourt",
      "lat": 48.633333,
      "lng": 6.783333
    },
    {
      "cityName": "Ameuvelle",
      "lat": 47.95,
      "lng": 5.95
    },
    {
      "cityName": "Amnéville",
      "lat": 49.266667,
      "lng": 6.15
    },
    {
      "cityName": "Ancemont",
      "lat": 49.066667,
      "lng": 5.416667
    },
    {
      "cityName": "Ancerville",
      "lat": 48.633333,
      "lng": 5.033333
    },
    {
      "cityName": "Ancerviller",
      "lat": 48.533333,
      "lng": 6.833333
    },
    {
      "cityName": "Ancerville-sur-Nied",
      "lat": 49.033333,
      "lng": 6.383333
    },
    {
      "cityName": "Ancy",
      "lat": 49.05,
      "lng": 6.066667
    },
    {
      "cityName": "Andernay",
      "lat": 48.8,
      "lng": 4.95
    },
    {
      "cityName": "Anderny",
      "lat": 49.333333,
      "lng": 5.866667
    },
    {
      "cityName": "Andilly",
      "lat": 48.766667,
      "lng": 5.883333
    },
    {
      "cityName": "Angevillers",
      "lat": 49.383333,
      "lng": 6.033333
    },
    {
      "cityName": "Anglemont",
      "lat": 48.383333,
      "lng": 6.666667
    },
    {
      "cityName": "Angomont",
      "lat": 48.516667,
      "lng": 6.95
    },
    {
      "cityName": "Angviller",
      "lat": 48.816667,
      "lng": 6.883333
    },
    {
      "cityName": "Anould",
      "lat": 48.183333,
      "lng": 6.95
    },
    {
      "cityName": "Anoux",
      "lat": 49.266667,
      "lng": 5.866667
    },
    {
      "cityName": "Ansauville",
      "lat": 48.816667,
      "lng": 5.833333
    },
    {
      "cityName": "Anthelupt",
      "lat": 48.616667,
      "lng": 6.416667
    },
    {
      "cityName": "Antilly",
      "lat": 49.2,
      "lng": 6.25
    },
    {
      "cityName": "Anzeling",
      "lat": 49.266667,
      "lng": 6.466667
    },
    {
      "cityName": "Aouze",
      "lat": 48.383333,
      "lng": 5.866667
    },
    {
      "cityName": "Apach",
      "lat": 49.45,
      "lng": 6.366667
    },
    {
      "cityName": "Apremont",
      "lat": 48.85,
      "lng": 5.633333
    },
    {
      "cityName": "Arches",
      "lat": 48.116667,
      "lng": 6.533333
    },
    {
      "cityName": "Argancy",
      "lat": 49.2,
      "lng": 6.2
    },
    {
      "cityName": "Armaucourt",
      "lat": 48.816667,
      "lng": 6.3
    },
    {
      "cityName": "Arnaville",
      "lat": 49,
      "lng": 6.033333
    },
    {
      "cityName": "Aroffe",
      "lat": 48.4,
      "lng": 5.9
    },
    {
      "cityName": "Arracourt",
      "lat": 48.733333,
      "lng": 6.533333
    },
    {
      "cityName": "Arraincourt",
      "lat": 48.966667,
      "lng": 6.533333
    },
    {
      "cityName": "Arrancy",
      "lat": 49.416667,
      "lng": 5.65
    },
    {
      "cityName": "Arraye",
      "lat": 48.833333,
      "lng": 6.3
    },
    {
      "cityName": "Arrentès",
      "lat": 48.133333,
      "lng": 6.866667
    },
    {
      "cityName": "Arriance",
      "lat": 49.016667,
      "lng": 6.5
    },
    {
      "cityName": "Arry",
      "lat": 49,
      "lng": 6.066667
    },
    {
      "cityName": "Ars",
      "lat": 49.083333,
      "lng": 6.066667
    },
    {
      "cityName": "Ars-Laquenexy",
      "lat": 49.083333,
      "lng": 6.283333
    },
    {
      "cityName": "Art",
      "lat": 48.65,
      "lng": 6.266667
    },
    {
      "cityName": "Arzchviller",
      "lat": 48.716667,
      "lng": 7.166667
    },
    {
      "cityName": "Aspach",
      "lat": 48.65,
      "lng": 6.966667
    },
    {
      "cityName": "Assenoncourt",
      "lat": 48.766667,
      "lng": 6.8
    },
    {
      "cityName": "Athienville",
      "lat": 48.716667,
      "lng": 6.5
    },
    {
      "cityName": "Attignéville",
      "lat": 48.383333,
      "lng": 5.816667
    },
    {
      "cityName": "Attigny",
      "lat": 48.066667,
      "lng": 6.033333
    },
    {
      "cityName": "Attilloncourt",
      "lat": 48.783333,
      "lng": 6.383333
    },
    {
      "cityName": "Atton",
      "lat": 48.9,
      "lng": 6.083333
    },
    {
      "cityName": "Aube",
      "lat": 49.033333,
      "lng": 6.333333
    },
    {
      "cityName": "Aubercy",
      "lat": 48.983333,
      "lng": 5.05
    },
    {
      "cityName": "Auboué",
      "lat": 49.216667,
      "lng": 5.983333
    },
    {
      "cityName": "Aubréville",
      "lat": 49.15,
      "lng": 5.083333
    },
    {
      "cityName": "Audun",
      "lat": 49.366667,
      "lng": 5.883333
    },
    {
      "cityName": "Audun-le-Tiche",
      "lat": 49.466667,
      "lng": 5.95
    },
    {
      "cityName": "Augny",
      "lat": 49.066667,
      "lng": 6.116667
    },
    {
      "cityName": "Aulnois",
      "lat": 48.25,
      "lng": 5.783333
    },
    {
      "cityName": "Aulnois-en-Perthois",
      "lat": 48.633333,
      "lng": 5.133333
    },
    {
      "cityName": "Aulnois-sous-Vertuzey",
      "lat": 48.75,
      "lng": 5.666667
    },
    {
      "cityName": "Aulnois-sur-Seille",
      "lat": 48.866667,
      "lng": 6.316667
    },
    {
      "cityName": "Aumetz",
      "lat": 49.416667,
      "lng": 5.933333
    },
    {
      "cityName": "Aumontzey",
      "lat": 48.166667,
      "lng": 6.783333
    },
    {
      "cityName": "Autigny",
      "lat": 48.4,
      "lng": 5.766667
    },
    {
      "cityName": "Autrécourt",
      "lat": 49.033333,
      "lng": 5.133333
    },
    {
      "cityName": "Autrepierre",
      "lat": 48.616667,
      "lng": 6.8
    },
    {
      "cityName": "Autreville",
      "lat": 48.483333,
      "lng": 5.85
    },
    {
      "cityName": "Autréville-Saint-Lambert",
      "lat": 49.566667,
      "lng": 5.116667
    },
    {
      "cityName": "Autreville-sur-Moselle",
      "lat": 48.816667,
      "lng": 6.116667
    },
    {
      "cityName": "Autrey",
      "lat": 48.3,
      "lng": 6.683333
    },
    {
      "cityName": "Auzainvilliers",
      "lat": 48.233333,
      "lng": 5.85
    },
    {
      "cityName": "Auzécourt",
      "lat": 48.883333,
      "lng": 4.983333
    },
    {
      "cityName": "Auzéville",
      "lat": 49.1,
      "lng": 5.1
    },
    {
      "cityName": "Avancy",
      "lat": 49.166667,
      "lng": 6.3
    },
    {
      "cityName": "Avillers",
      "lat": 48.316667,
      "lng": 6.216667
    },
    {
      "cityName": "Avillers-Sainte-Croix",
      "lat": 49.033333,
      "lng": 5.7
    },
    {
      "cityName": "Avioth",
      "lat": 49.566667,
      "lng": 5.4
    },
    {
      "cityName": "Avocourt",
      "lat": 49.2,
      "lng": 5.15
    },
    {
      "cityName": "Avrainville",
      "lat": 48.366667,
      "lng": 6.216667
    },
    {
      "cityName": "Avranville",
      "lat": 48.416667,
      "lng": 5.533333
    },
    {
      "cityName": "Avricourt",
      "lat": 48.65,
      "lng": 6.8
    },
    {
      "cityName": "Avril",
      "lat": 49.283333,
      "lng": 5.966667
    },
    {
      "cityName": "Ay",
      "lat": 49.25,
      "lng": 6.2
    },
    {
      "cityName": "Aydoilles",
      "lat": 48.216667,
      "lng": 6.566667
    },
    {
      "cityName": "Azannes",
      "lat": 49.3,
      "lng": 5.466667
    },
    {
      "cityName": "Azelot",
      "lat": 48.583333,
      "lng": 6.233333
    },
    {
      "cityName": "Azerailles",
      "lat": 48.483333,
      "lng": 6.7
    },
    {
      "cityName": "Azoudange",
      "lat": 48.733333,
      "lng": 6.816667
    },
    {
      "cityName": "Baâlon",
      "lat": 49.483333,
      "lng": 5.25
    },
    {
      "cityName": "Baccarat",
      "lat": 48.45,
      "lng": 6.75
    },
    {
      "cityName": "Bacourt",
      "lat": 48.933333,
      "lng": 6.416667
    },
    {
      "cityName": "Badménil-aux-Bois",
      "lat": 48.3,
      "lng": 6.516667
    },
    {
      "cityName": "Badonviller",
      "lat": 48.5,
      "lng": 6.9
    },
    {
      "cityName": "Badonvilliers",
      "lat": 48.55,
      "lng": 5.583333
    },
    {
      "cityName": "Baerenthal",
      "lat": 48.983333,
      "lng": 7.516667
    },
    {
      "cityName": "Bagneux",
      "lat": 48.55,
      "lng": 5.883333
    },
    {
      "cityName": "Bains",
      "lat": 48,
      "lng": 6.266667
    },
    {
      "cityName": "Bainville-aux-Miroirs",
      "lat": 48.433333,
      "lng": 6.283333
    },
    {
      "cityName": "Bainville-aux-Saules",
      "lat": 48.2,
      "lng": 6.133333
    },
    {
      "cityName": "Bainville-sur-Madon",
      "lat": 48.583333,
      "lng": 6.083333
    },
    {
      "cityName": "Baleicourt",
      "lat": 49.133333,
      "lng": 5.316667
    },
    {
      "cityName": "Balléville",
      "lat": 48.333333,
      "lng": 5.85
    },
    {
      "cityName": "Bambiderstroff",
      "lat": 49.1,
      "lng": 6.583333
    },
    {
      "cityName": "Ban-de-Laveline",
      "lat": 48.25,
      "lng": 7.066667
    },
    {
      "cityName": "Bannay",
      "lat": 49.133333,
      "lng": 6.466667
    },
    {
      "cityName": "Bannoncourt",
      "lat": 48.95,
      "lng": 5.5
    },
    {
      "cityName": "Ban-Saint-Martin",
      "lat": 49.116667,
      "lng": 6.15
    },
    {
      "cityName": "Bantheville",
      "lat": 49.35,
      "lng": 5.083333
    },
    {
      "cityName": "Bar",
      "lat": 48.783333,
      "lng": 5.166667
    },
    {
      "cityName": "Barbas",
      "lat": 48.566667,
      "lng": 6.85
    },
    {
      "cityName": "Barbey-Séroux",
      "lat": 48.133333,
      "lng": 6.833333
    },
    {
      "cityName": "Barbonville",
      "lat": 48.55,
      "lng": 6.35
    },
    {
      "cityName": "Barchain",
      "lat": 48.7,
      "lng": 6.966667
    },
    {
      "cityName": "Barisey-au-Plain",
      "lat": 48.533333,
      "lng": 5.85
    },
    {
      "cityName": "Barisey-la-Côte",
      "lat": 48.55,
      "lng": 5.85
    },
    {
      "cityName": "Baronville",
      "lat": 48.933333,
      "lng": 6.6
    },
    {
      "cityName": "Barst",
      "lat": 49.066667,
      "lng": 6.833333
    },
    {
      "cityName": "Barville",
      "lat": 48.383333,
      "lng": 5.783333
    },
    {
      "cityName": "Baslieux",
      "lat": 49.433333,
      "lng": 5.766667
    },
    {
      "cityName": "Basse Faulx",
      "lat": 48.8,
      "lng": 6.2
    },
    {
      "cityName": "Basse-Frizon",
      "lat": 48.3,
      "lng": 6.366667
    },
    {
      "cityName": "Basse-Ham",
      "lat": 49.383333,
      "lng": 6.25
    },
    {
      "cityName": "Basse Kontz",
      "lat": 49.45,
      "lng": 6.35
    },
    {
      "cityName": "Basse Parthe",
      "lat": 49.433333,
      "lng": 6.216667
    },
    {
      "cityName": "Basse-Rentgan",
      "lat": 49.483333,
      "lng": 6.2
    },
    {
      "cityName": "Basse-sur-le-Rupt",
      "lat": 47.983333,
      "lng": 6.75
    },
    {
      "cityName": "Basse-Yutz",
      "lat": 49.35,
      "lng": 6.183333
    },
    {
      "cityName": "Bassing",
      "lat": 48.866667,
      "lng": 6.8
    },
    {
      "cityName": "Bathelémont",
      "lat": 48.7,
      "lng": 6.533333
    },
    {
      "cityName": "Batilly",
      "lat": 49.166667,
      "lng": 5.966667
    },
    {
      "cityName": "Battexey",
      "lat": 48.383333,
      "lng": 6.183333
    },
    {
      "cityName": "Battigny",
      "lat": 48.45,
      "lng": 5.983333
    },
    {
      "cityName": "Baudignécourt",
      "lat": 48.566667,
      "lng": 5.466667
    },
    {
      "cityName": "Baudonvilliers",
      "lat": 48.683333,
      "lng": 5.016667
    },
    {
      "cityName": "Baudrecourt",
      "lat": 48.966667,
      "lng": 6.45
    },
    {
      "cityName": "Baudrémont",
      "lat": 48.833333,
      "lng": 5.383333
    },
    {
      "cityName": "Baudricourt",
      "lat": 48.316667,
      "lng": 6.05
    },
    {
      "cityName": "Baulny",
      "lat": 49.266667,
      "lng": 5.016667
    },
    {
      "cityName": "Bauzemont",
      "lat": 48.666667,
      "lng": 6.533333
    },
    {
      "cityName": "Bayecourt",
      "lat": 48.266667,
      "lng": 6.483333
    },
    {
      "cityName": "Bayon",
      "lat": 48.483333,
      "lng": 6.316667
    },
    {
      "cityName": "Bayonville",
      "lat": 49.016667,
      "lng": 5.983333
    },
    {
      "cityName": "Bazegney",
      "lat": 48.266667,
      "lng": 6.233333
    },
    {
      "cityName": "Bazeilles",
      "lat": 49.5,
      "lng": 5.433333
    },
    {
      "cityName": "Bazien",
      "lat": 48.416667,
      "lng": 6.683333
    },
    {
      "cityName": "Bazincourt",
      "lat": 48.683333,
      "lng": 5.133333
    },
    {
      "cityName": "Bazoilles",
      "lat": 48.266667,
      "lng": 6.1
    },
    {
      "cityName": "Bazoilles-sur-Meuse",
      "lat": 48.3,
      "lng": 5.65
    },
    {
      "cityName": "Bazoncourt",
      "lat": 49.05,
      "lng": 6.366667
    },
    {
      "cityName": "Beauclair",
      "lat": 49.466667,
      "lng": 5.116667
    },
    {
      "cityName": "Beaufremont",
      "lat": 48.25,
      "lng": 5.75
    },
    {
      "cityName": "Beaulieu",
      "lat": 49.033333,
      "lng": 5.066667
    },
    {
      "cityName": "Beauménil",
      "lat": 48.183333,
      "lng": 6.733333
    },
    {
      "cityName": "Beaumont",
      "lat": 48.85,
      "lng": 5.783333
    },
    {
      "cityName": "Beauzée",
      "lat": 48.966667,
      "lng": 5.2
    },
    {
      "cityName": "Bébing",
      "lat": 48.7,
      "lng": 7
    },
    {
      "cityName": "Béchamps",
      "lat": 49.216667,
      "lng": 5.733333
    },
    {
      "cityName": "Béchy",
      "lat": 48.983333,
      "lng": 6.383333
    },
    {
      "cityName": "Begnécourt",
      "lat": 48.2,
      "lng": 6.15
    },
    {
      "cityName": "Behonne",
      "lat": 48.8,
      "lng": 5.183333
    },
    {
      "cityName": "Behren",
      "lat": 49.166667,
      "lng": 6.95
    },
    {
      "cityName": "Bellange",
      "lat": 48.9,
      "lng": 6.583333
    },
    {
      "cityName": "Belleau",
      "lat": 48.833333,
      "lng": 6.183333
    },
    {
      "cityName": "Bellefontaine",
      "lat": 48.016667,
      "lng": 6.45
    },
    {
      "cityName": "Belleray",
      "lat": 49.133333,
      "lng": 5.4
    },
    {
      "cityName": "Belleville",
      "lat": 48.816667,
      "lng": 6.1
    },
    {
      "cityName": "Belleville-sur-Meuse",
      "lat": 49.183333,
      "lng": 5.383333
    },
    {
      "cityName": "Belmach",
      "lat": 49.45,
      "lng": 6.4
    },
    {
      "cityName": "Belmont",
      "lat": 48.083333,
      "lng": 6.016667
    },
    {
      "cityName": "Belmont-sur-Bullane",
      "lat": 48.216667,
      "lng": 6.766667
    },
    {
      "cityName": "Belmont-sur-Vair",
      "lat": 48.25,
      "lng": 5.9
    },
    {
      "cityName": "Belrain",
      "lat": 48.866667,
      "lng": 5.316667
    },
    {
      "cityName": "Belrupt",
      "lat": 48.083333,
      "lng": 6.1
    },
    {
      "cityName": "Belrupt-en-Verdunois",
      "lat": 49.133333,
      "lng": 5.433333
    },
    {
      "cityName": "Belval",
      "lat": 48.416667,
      "lng": 7.05
    },
    {
      "cityName": "Bénaménil",
      "lat": 48.566667,
      "lng": 6.666667
    },
    {
      "cityName": "Bénestroff",
      "lat": 48.916667,
      "lng": 6.75
    },
    {
      "cityName": "Beney",
      "lat": 48.966667,
      "lng": 5.833333
    },
    {
      "cityName": "Bening",
      "lat": 49.133333,
      "lng": 6.833333
    },
    {
      "cityName": "Benney",
      "lat": 48.516667,
      "lng": 6.216667
    },
    {
      "cityName": "Benoîte-Vaux",
      "lat": 48.966667,
      "lng": 5.35
    },
    {
      "cityName": "Berg",
      "lat": 49.433333,
      "lng": 6.316667
    },
    {
      "cityName": "Bérig",
      "lat": 48.966667,
      "lng": 6.7
    },
    {
      "cityName": "Berling",
      "lat": 48.8,
      "lng": 7.25
    },
    {
      "cityName": "Bermering",
      "lat": 48.933333,
      "lng": 6.7
    },
    {
      "cityName": "Bernécourt",
      "lat": 48.85,
      "lng": 5.833333
    },
    {
      "cityName": "Berthelming",
      "lat": 48.816667,
      "lng": 7
    },
    {
      "cityName": "Bertrambois",
      "lat": 48.6,
      "lng": 6.983333
    },
    {
      "cityName": "Bertrange",
      "lat": 49.3,
      "lng": 6.183333
    },
    {
      "cityName": "Bertrichamps",
      "lat": 48.433333,
      "lng": 6.8
    },
    {
      "cityName": "Bertrimoutier",
      "lat": 48.266667,
      "lng": 7.05
    },
    {
      "cityName": "Bertring",
      "lat": 48.966667,
      "lng": 6.733333
    },
    {
      "cityName": "Berviller",
      "lat": 49.266667,
      "lng": 6.65
    },
    {
      "cityName": "Béthelainville",
      "lat": 49.166667,
      "lng": 5.233333
    },
    {
      "cityName": "Béthincourt",
      "lat": 49.25,
      "lng": 5.233333
    },
    {
      "cityName": "Bettainvillers",
      "lat": 49.3,
      "lng": 5.9
    },
    {
      "cityName": "Bettange",
      "lat": 49.233333,
      "lng": 6.483333
    },
    {
      "cityName": "Bettborn",
      "lat": 48.8,
      "lng": 7.016667
    },
    {
      "cityName": "Bettegney",
      "lat": 48.3,
      "lng": 6.3
    },
    {
      "cityName": "Bettelainville",
      "lat": 49.233333,
      "lng": 6.3
    },
    {
      "cityName": "Betting",
      "lat": 49.116667,
      "lng": 6.816667
    },
    {
      "cityName": "Bettoncourt",
      "lat": 48.35,
      "lng": 6.166667
    },
    {
      "cityName": "Bettviller",
      "lat": 49.083333,
      "lng": 7.283333
    },
    {
      "cityName": "Beulay",
      "lat": 48.3,
      "lng": 7.066667
    },
    {
      "cityName": "Beurey",
      "lat": 48.75,
      "lng": 5.033333
    },
    {
      "cityName": "Beuvange",
      "lat": 49.366667,
      "lng": 6.083333
    },
    {
      "cityName": "Beuveille",
      "lat": 49.433333,
      "lng": 5.683333
    },
    {
      "cityName": "Beuvezin",
      "lat": 48.383333,
      "lng": 5.966667
    },
    {
      "cityName": "Beuvillers",
      "lat": 49.383333,
      "lng": 5.916667
    },
    {
      "cityName": "Beux",
      "lat": 49,
      "lng": 6.316667
    },
    {
      "cityName": "Bey",
      "lat": 48.8,
      "lng": 6.333333
    },
    {
      "cityName": "Beyren",
      "lat": 49.466667,
      "lng": 6.283333
    },
    {
      "cityName": "Bezange",
      "lat": 48.733333,
      "lng": 6.616667
    },
    {
      "cityName": "Bezange-la-Grande",
      "lat": 48.75,
      "lng": 6.466667
    },
    {
      "cityName": "Bezaumont",
      "lat": 48.85,
      "lng": 6.1
    },
    {
      "cityName": "Biarville",
      "lat": 48.333333,
      "lng": 6.866667
    },
    {
      "cityName": "Biberkirch",
      "lat": 48.666667,
      "lng": 7.116667
    },
    {
      "cityName": "Bibiche",
      "lat": 49.333333,
      "lng": 6.483333
    },
    {
      "cityName": "Bickenholtz",
      "lat": 48.8,
      "lng": 7.166667
    },
    {
      "cityName": "Bicqueley",
      "lat": 48.633333,
      "lng": 5.916667
    },
    {
      "cityName": "Bidestroff",
      "lat": 48.85,
      "lng": 6.783333
    },
    {
      "cityName": "Biding",
      "lat": 49.05,
      "lng": 6.783333
    },
    {
      "cityName": "Biécourt",
      "lat": 48.316667,
      "lng": 5.95
    },
    {
      "cityName": "Biencourt",
      "lat": 48.566667,
      "lng": 5.35
    },
    {
      "cityName": "Bienville",
      "lat": 48.633333,
      "lng": 6.516667
    },
    {
      "cityName": "Biffontaine",
      "lat": 48.216667,
      "lng": 6.8
    },
    {
      "cityName": "Billy",
      "lat": 49.016667,
      "lng": 5.683333
    },
    {
      "cityName": "Billy-sous-Mangiennes",
      "lat": 49.333333,
      "lng": 5.583333
    },
    {
      "cityName": "Bining",
      "lat": 49.033333,
      "lng": 7.25
    },
    {
      "cityName": "Bioncourt",
      "lat": 48.783333,
      "lng": 6.366667
    },
    {
      "cityName": "Bionville-sur-Nied",
      "lat": 49.1,
      "lng": 6.483333
    },
    {
      "cityName": "Bislée",
      "lat": 48.866667,
      "lng": 5.5
    },
    {
      "cityName": "Bisping",
      "lat": 48.8,
      "lng": 6.883333
    },
    {
      "cityName": "Bisten",
      "lat": 49.166667,
      "lng": 6.6
    },
    {
      "cityName": "Bistroff",
      "lat": 49,
      "lng": 6.716667
    },
    {
      "cityName": "Bitche",
      "lat": 49.05,
      "lng": 7.433333
    },
    {
      "cityName": "Blainville",
      "lat": 48.55,
      "lng": 6.4
    },
    {
      "cityName": "Blâmont",
      "lat": 48.583333,
      "lng": 6.85
    },
    {
      "cityName": "Blanche-Église",
      "lat": 48.8,
      "lng": 6.666667
    },
    {
      "cityName": "Blanzée",
      "lat": 49.166667,
      "lng": 5.533333
    },
    {
      "cityName": "Blémerey",
      "lat": 48.583333,
      "lng": 6.733333
    },
    {
      "cityName": "Blémery",
      "lat": 48.366667,
      "lng": 6.05
    },
    {
      "cityName": "Blénod",
      "lat": 48.6,
      "lng": 5.833333
    },
    {
      "cityName": "Blénod-lès-Pont-à-Mousson",
      "lat": 48.883333,
      "lng": 6.05
    },
    {
      "cityName": "Blercourt",
      "lat": 49.1,
      "lng": 5.233333
    },
    {
      "cityName": "Bleurville",
      "lat": 48.066667,
      "lng": 5.966667
    },
    {
      "cityName": "Blevaincourt",
      "lat": 48.116667,
      "lng": 5.683333
    },
    {
      "cityName": "Bliesbauchen",
      "lat": 49.116667,
      "lng": 7.183333
    },
    {
      "cityName": "Blies-Ébersing",
      "lat": 49.116667,
      "lng": 7.15
    },
    {
      "cityName": "Bliesgersviller",
      "lat": 49.15,
      "lng": 7.083333
    },
    {
      "cityName": "Bockange",
      "lat": 49.233333,
      "lng": 6.433333
    },
    {
      "cityName": "Bocquegney",
      "lat": 48.216667,
      "lng": 6.3
    },
    {
      "cityName": "Boinville",
      "lat": 49.183333,
      "lng": 5.666667
    },
    {
      "cityName": "Boismont",
      "lat": 49.4,
      "lng": 5.733333
    },
    {
      "cityName": "Boler",
      "lat": 49.45,
      "lng": 6.233333
    },
    {
      "cityName": "Boncourt",
      "lat": 48.8,
      "lng": 5.566667
    },
    {
      "cityName": "Bonnet",
      "lat": 48.516667,
      "lng": 5.433333
    },
    {
      "cityName": "Bonviller",
      "lat": 48.633333,
      "lng": 6.5
    },
    {
      "cityName": "Bonvillers",
      "lat": 49.333333,
      "lng": 5.85
    },
    {
      "cityName": "Bonzée",
      "lat": 49.1,
      "lng": 5.6
    },
    {
      "cityName": "Borny",
      "lat": 49.116667,
      "lng": 6.233333
    },
    {
      "cityName": "Borville",
      "lat": 48.45,
      "lng": 6.4
    },
    {
      "cityName": "Boucheporn",
      "lat": 49.15,
      "lng": 6.6
    },
    {
      "cityName": "Bouconville",
      "lat": 48.85,
      "lng": 5.716667
    },
    {
      "cityName": "Boucq",
      "lat": 48.75,
      "lng": 5.766667
    },
    {
      "cityName": "Boudrezy",
      "lat": 49.366667,
      "lng": 5.8
    },
    {
      "cityName": "Bouillonville",
      "lat": 48.95,
      "lng": 5.85
    },
    {
      "cityName": "Boulaincourt",
      "lat": 48.366667,
      "lng": 6.083333
    },
    {
      "cityName": "Boulange",
      "lat": 49.383333,
      "lng": 5.95
    },
    {
      "cityName": "Boulay",
      "lat": 49.183333,
      "lng": 6.5
    },
    {
      "cityName": "Bouligny",
      "lat": 49.283333,
      "lng": 5.75
    },
    {
      "cityName": "Bouquemont",
      "lat": 48.983333,
      "lng": 5.45
    },
    {
      "cityName": "Bourdonnay",
      "lat": 48.716667,
      "lng": 6.716667
    },
    {
      "cityName": "Boureuilles",
      "lat": 49.2,
      "lng": 5.05
    },
    {
      "cityName": "Bourgaltroff",
      "lat": 48.866667,
      "lng": 6.75
    },
    {
      "cityName": "Bourgogne",
      "lat": 48.95,
      "lng": 5.1
    },
    {
      "cityName": "Bourscheid",
      "lat": 48.766667,
      "lng": 7.183333
    },
    {
      "cityName": "Bousbach",
      "lat": 49.15,
      "lng": 6.95
    },
    {
      "cityName": "Bousse",
      "lat": 49.283333,
      "lng": 6.2
    },
    {
      "cityName": "Bousseviller",
      "lat": 49.116667,
      "lng": 7.466667
    },
    {
      "cityName": "Boust",
      "lat": 49.433333,
      "lng": 6.183333
    },
    {
      "cityName": "Boustroff",
      "lat": 49,
      "lng": 6.633333
    },
    {
      "cityName": "Bouvron",
      "lat": 48.733333,
      "lng": 5.883333
    },
    {
      "cityName": "Bouxières-aux-Bois",
      "lat": 48.266667,
      "lng": 6.316667
    },
    {
      "cityName": "Bouxières-aux-Chênes",
      "lat": 48.766667,
      "lng": 6.266667
    },
    {
      "cityName": "Bouxières-aux-Dames",
      "lat": 48.75,
      "lng": 6.166667
    },
    {
      "cityName": "Bouxières-sous-Froidmont",
      "lat": 48.95,
      "lng": 6.083333
    },
    {
      "cityName": "Bouxurulles",
      "lat": 48.333333,
      "lng": 6.233333
    },
    {
      "cityName": "Bouzanville",
      "lat": 48.366667,
      "lng": 6.1
    },
    {
      "cityName": "Bouzemont",
      "lat": 48.25,
      "lng": 6.233333
    },
    {
      "cityName": "Bouzonville",
      "lat": 49.3,
      "lng": 6.533333
    },
    {
      "cityName": "Bovée",
      "lat": 48.65,
      "lng": 5.516667
    },
    {
      "cityName": "Boviolles",
      "lat": 48.65,
      "lng": 5.416667
    },
    {
      "cityName": "Brabant",
      "lat": 48.85,
      "lng": 4.983333
    },
    {
      "cityName": "Brabant-en-Argonne",
      "lat": 49.116667,
      "lng": 5.133333
    },
    {
      "cityName": "Brabant-sur-Meuse",
      "lat": 49.266667,
      "lng": 5.316667
    },
    {
      "cityName": "Brainville",
      "lat": 49.133333,
      "lng": 5.8
    },
    {
      "cityName": "Bralleville",
      "lat": 48.4,
      "lng": 6.183333
    },
    {
      "cityName": "Brancourt",
      "lat": 48.416667,
      "lng": 5.733333
    },
    {
      "cityName": "Brandeville",
      "lat": 49.383333,
      "lng": 5.3
    },
    {
      "cityName": "Brantigny",
      "lat": 48.35,
      "lng": 6.283333
    },
    {
      "cityName": "Braquis",
      "lat": 49.15,
      "lng": 5.616667
    },
    {
      "cityName": "Bras",
      "lat": 49.216667,
      "lng": 5.383333
    },
    {
      "cityName": "Brasseitte",
      "lat": 48.85,
      "lng": 5.516667
    },
    {
      "cityName": "Bratte",
      "lat": 48.816667,
      "lng": 6.216667
    },
    {
      "cityName": "Braumont",
      "lat": 49.466667,
      "lng": 5.633333
    },
    {
      "cityName": "Brauvilliers",
      "lat": 48.583333,
      "lng": 5.15
    },
    {
      "cityName": "Bréchainville",
      "lat": 48.366667,
      "lng": 5.483333
    },
    {
      "cityName": "Bréhain",
      "lat": 48.916667,
      "lng": 6.533333
    },
    {
      "cityName": "Bréhain-la-Ville",
      "lat": 49.433333,
      "lng": 5.883333
    },
    {
      "cityName": "Bréhéville",
      "lat": 49.383333,
      "lng": 5.333333
    },
    {
      "cityName": "Breidenbach",
      "lat": 49.133333,
      "lng": 7.416667
    },
    {
      "cityName": "Breistroff",
      "lat": 49.45,
      "lng": 6.216667
    },
    {
      "cityName": "Bréménil",
      "lat": 48.516667,
      "lng": 6.916667
    },
    {
      "cityName": "Brémoncourt",
      "lat": 48.483333,
      "lng": 6.35
    },
    {
      "cityName": "Brettnach",
      "lat": 49.25,
      "lng": 6.566667
    },
    {
      "cityName": "Breux",
      "lat": 49.6,
      "lng": 5.383333
    },
    {
      "cityName": "Brieulles",
      "lat": 49.333333,
      "lng": 5.183333
    },
    {
      "cityName": "Briey",
      "lat": 49.25,
      "lng": 5.933333
    },
    {
      "cityName": "Brillon",
      "lat": 48.716667,
      "lng": 5.1
    },
    {
      "cityName": "Brin",
      "lat": 48.783333,
      "lng": 6.35
    },
    {
      "cityName": "Brixey-aux-Chanoines",
      "lat": 48.466667,
      "lng": 5.716667
    },
    {
      "cityName": "Brizeaux",
      "lat": 49,
      "lng": 5.05
    },
    {
      "cityName": "Brocourt",
      "lat": 49.116667,
      "lng": 5.166667
    },
    {
      "cityName": "Bronvaux",
      "lat": 49.2,
      "lng": 6.083333
    },
    {
      "cityName": "Brouck",
      "lat": 49.133333,
      "lng": 6.516667
    },
    {
      "cityName": "Brouderdorff",
      "lat": 48.7,
      "lng": 7.1
    },
    {
      "cityName": "Brouennes",
      "lat": 49.516667,
      "lng": 5.25
    },
    {
      "cityName": "Broussey",
      "lat": 48.633333,
      "lng": 5.55
    },
    {
      "cityName": "Broussey-en-Woëvre",
      "lat": 48.816667,
      "lng": 5.7
    },
    {
      "cityName": "Brouvelieures",
      "lat": 48.233333,
      "lng": 6.733333
    },
    {
      "cityName": "Brouville",
      "lat": 48.5,
      "lng": 6.75
    },
    {
      "cityName": "Brouviller",
      "lat": 48.766667,
      "lng": 7.15
    },
    {
      "cityName": "Brû",
      "lat": 48.35,
      "lng": 6.683333
    },
    {
      "cityName": "Brulange",
      "lat": 48.966667,
      "lng": 6.55
    },
    {
      "cityName": "Bruley",
      "lat": 48.716667,
      "lng": 5.85
    },
    {
      "cityName": "Bruville",
      "lat": 49.133333,
      "lng": 5.916667
    },
    {
      "cityName": "Bruyères",
      "lat": 48.2,
      "lng": 6.716667
    },
    {
      "cityName": "Buchy",
      "lat": 48.983333,
      "lng": 6.283333
    },
    {
      "cityName": "Budange",
      "lat": 49.283333,
      "lng": 6.35
    },
    {
      "cityName": "Buding",
      "lat": 49.333333,
      "lng": 6.316667
    },
    {
      "cityName": "Budling",
      "lat": 49.35,
      "lng": 6.35
    },
    {
      "cityName": "Buhl",
      "lat": 48.716667,
      "lng": 7.083333
    },
    {
      "cityName": "Buissoncourt",
      "lat": 48.683333,
      "lng": 6.35
    },
    {
      "cityName": "Bulainville",
      "lat": 49,
      "lng": 5.183333
    },
    {
      "cityName": "Bulgnéville",
      "lat": 48.216667,
      "lng": 5.833333
    },
    {
      "cityName": "Bulligny",
      "lat": 48.583333,
      "lng": 5.85
    },
    {
      "cityName": "Bult",
      "lat": 48.3,
      "lng": 6.6
    },
    {
      "cityName": "Bure",
      "lat": 48.5,
      "lng": 5.35
    },
    {
      "cityName": "Buré-la-Ville",
      "lat": 49.533333,
      "lng": 5.633333
    },
    {
      "cityName": "Bures",
      "lat": 48.7,
      "lng": 6.583333
    },
    {
      "cityName": "Burey",
      "lat": 48.5,
      "lng": 5.7
    },
    {
      "cityName": "Burey-en-Vaux",
      "lat": 48.566667,
      "lng": 5.666667
    },
    {
      "cityName": "Buriville",
      "lat": 48.533333,
      "lng": 6.7
    },
    {
      "cityName": "Burthecourt-aux-Chênes",
      "lat": 48.583333,
      "lng": 6.25
    },
    {
      "cityName": "Burtoncourt",
      "lat": 49.216667,
      "lng": 6.416667
    },
    {
      "cityName": "Bussang",
      "lat": 47.883333,
      "lng": 6.85
    },
    {
      "cityName": "Bussy",
      "lat": 48.816667,
      "lng": 5.083333
    },
    {
      "cityName": "Butgnéville",
      "lat": 49.083333,
      "lng": 5.716667
    },
    {
      "cityName": "Buxerulles",
      "lat": 48.9,
      "lng": 5.666667
    },
    {
      "cityName": "Buxières",
      "lat": 48.916667,
      "lng": 5.666667
    },
    {
      "cityName": "Buzy",
      "lat": 49.166667,
      "lng": 5.7
    },
    {
      "cityName": "Cantebonne",
      "lat": 49.466667,
      "lng": 5.933333
    },
    {
      "cityName": "Cappel",
      "lat": 49.066667,
      "lng": 6.85
    },
    {
      "cityName": "Carling",
      "lat": 49.166667,
      "lng": 6.716667
    },
    {
      "cityName": "Cattenom",
      "lat": 49.416667,
      "lng": 6.25
    },
    {
      "cityName": "Ceintrey",
      "lat": 48.533333,
      "lng": 6.166667
    },
    {
      "cityName": "Celles",
      "lat": 48.466667,
      "lng": 6.95
    },
    {
      "cityName": "Cercueil",
      "lat": 48.7,
      "lng": 6.316667
    },
    {
      "cityName": "Certilleux",
      "lat": 48.316667,
      "lng": 5.733333
    },
    {
      "cityName": "Cesse",
      "lat": 49.516667,
      "lng": 5.166667
    },
    {
      "cityName": "Chaillon",
      "lat": 48.95,
      "lng": 5.633333
    },
    {
      "cityName": "Chailly",
      "lat": 49.2,
      "lng": 6.233333
    },
    {
      "cityName": "Chalaines",
      "lat": 48.6,
      "lng": 5.683333
    },
    {
      "cityName": "Chaligny",
      "lat": 48.633333,
      "lng": 6.083333
    },
    {
      "cityName": "Chamagne",
      "lat": 48.416667,
      "lng": 6.283333
    },
    {
      "cityName": "Chambley-Bussières",
      "lat": 49.05,
      "lng": 5.9
    },
    {
      "cityName": "Chambrey",
      "lat": 48.783333,
      "lng": 6.466667
    },
    {
      "cityName": "Champdray",
      "lat": 48.133333,
      "lng": 6.75
    },
    {
      "cityName": "Champenoux",
      "lat": 48.75,
      "lng": 6.35
    },
    {
      "cityName": "Champey",
      "lat": 48.95,
      "lng": 6.066667
    },
    {
      "cityName": "Champigneulles",
      "lat": 48.733333,
      "lng": 6.166667
    },
    {
      "cityName": "Champlon",
      "lat": 49.083333,
      "lng": 5.65
    },
    {
      "cityName": "Champneuville",
      "lat": 49.233333,
      "lng": 5.316667
    },
    {
      "cityName": "Champougny",
      "lat": 48.55,
      "lng": 5.7
    },
    {
      "cityName": "Chanteheux",
      "lat": 48.6,
      "lng": 6.533333
    },
    {
      "cityName": "Chantraine",
      "lat": 48.166667,
      "lng": 6.433333
    },
    {
      "cityName": "Chanville",
      "lat": 49.05,
      "lng": 6.433333
    },
    {
      "cityName": "Chaouilley",
      "lat": 48.433333,
      "lng": 6.066667
    },
    {
      "cityName": "Chardogne",
      "lat": 48.833333,
      "lng": 5.116667
    },
    {
      "cityName": "Charency",
      "lat": 49.483333,
      "lng": 5.516667
    },
    {
      "cityName": "Charey",
      "lat": 49,
      "lng": 5.883333
    },
    {
      "cityName": "Charleville",
      "lat": 49.183333,
      "lng": 6.416667
    },
    {
      "cityName": "Charly",
      "lat": 49.166667,
      "lng": 6.25
    },
    {
      "cityName": "Charmes",
      "lat": 48.366667,
      "lng": 6.283333
    },
    {
      "cityName": "Charmes-la-Côte",
      "lat": 48.633333,
      "lng": 5.833333
    },
    {
      "cityName": "Charmois",
      "lat": 48.1,
      "lng": 6.266667
    },
    {
      "cityName": "Charmois-devant-Bruyères",
      "lat": 48.166667,
      "lng": 6.6
    },
    {
      "cityName": "Charny",
      "lat": 49.2,
      "lng": 5.366667
    },
    {
      "cityName": "Charpentry",
      "lat": 49.266667,
      "lng": 5.033333
    },
    {
      "cityName": "Chassey-Beaupré",
      "lat": 48.466667,
      "lng": 5.433333
    },
    {
      "cityName": "Châtas",
      "lat": 48.366667,
      "lng": 7.033333
    },
    {
      "cityName": "Château-Bréhain",
      "lat": 48.9,
      "lng": 6.516667
    },
    {
      "cityName": "Château-Rouge",
      "lat": 49.283333,
      "lng": 6.6
    },
    {
      "cityName": "Château-Salins",
      "lat": 48.816667,
      "lng": 6.5
    },
    {
      "cityName": "Château-Voué",
      "lat": 48.85,
      "lng": 6.616667
    },
    {
      "cityName": "Châtel",
      "lat": 48.3,
      "lng": 6.4
    },
    {
      "cityName": "Châtel-Saint-Germain",
      "lat": 49.116667,
      "lng": 6.083333
    },
    {
      "cityName": "Châtenois",
      "lat": 48.3,
      "lng": 5.833333
    },
    {
      "cityName": "Chatillon",
      "lat": 47.95,
      "lng": 5.883333
    },
    {
      "cityName": "Châtillon-sous-les-Côtes",
      "lat": 49.15,
      "lng": 5.533333
    },
    {
      "cityName": "Chattancourt",
      "lat": 49.216667,
      "lng": 5.266667
    },
    {
      "cityName": "Chaudenay",
      "lat": 48.65,
      "lng": 5.9
    },
    {
      "cityName": "Chauffecourt",
      "lat": 48.333333,
      "lng": 6.15
    },
    {
      "cityName": "Chaumont",
      "lat": 48.933333,
      "lng": 5.25
    },
    {
      "cityName": "Chaumont-devant-Damvillers",
      "lat": 49.3,
      "lng": 5.433333
    },
    {
      "cityName": "Chaumousey",
      "lat": 48.166667,
      "lng": 6.333333
    },
    {
      "cityName": "Chauvency-le-Château",
      "lat": 49.516667,
      "lng": 5.3
    },
    {
      "cityName": "Chauvency-Saint-Hubert",
      "lat": 49.533333,
      "lng": 5.3
    },
    {
      "cityName": "Chauvoncourt",
      "lat": 48.9,
      "lng": 5.516667
    },
    {
      "cityName": "Chavelot",
      "lat": 48.233333,
      "lng": 6.433333
    },
    {
      "cityName": "Chavigny",
      "lat": 48.633333,
      "lng": 6.133333
    },
    {
      "cityName": "Chazelles",
      "lat": 48.583333,
      "lng": 6.783333
    },
    {
      "cityName": "Chef-Haut",
      "lat": 48.35,
      "lng": 6.016667
    },
    {
      "cityName": "Chémery",
      "lat": 49.3,
      "lng": 6.433333
    },
    {
      "cityName": "Cheminot",
      "lat": 48.933333,
      "lng": 6.133333
    },
    {
      "cityName": "Chenevières",
      "lat": 48.516667,
      "lng": 6.633333
    },
    {
      "cityName": "Chenicourt",
      "lat": 48.85,
      "lng": 6.283333
    },
    {
      "cityName": "Chénières",
      "lat": 49.466667,
      "lng": 5.766667
    },
    {
      "cityName": "Cheniménil",
      "lat": 48.133333,
      "lng": 6.6
    },
    {
      "cityName": "Chennevières",
      "lat": 48.666667,
      "lng": 5.4
    },
    {
      "cityName": "Chenois",
      "lat": 48.966667,
      "lng": 6.5
    },
    {
      "cityName": "Cheppy",
      "lat": 49.233333,
      "lng": 5.066667
    },
    {
      "cityName": "Chérisey",
      "lat": 49.016667,
      "lng": 6.233333
    },
    {
      "cityName": "Chermisey",
      "lat": 48.416667,
      "lng": 5.566667
    },
    {
      "cityName": "Chesny",
      "lat": 49.05,
      "lng": 6.25
    },
    {
      "cityName": "Chicourt",
      "lat": 48.916667,
      "lng": 6.5
    },
    {
      "cityName": "Chieulles",
      "lat": 49.166667,
      "lng": 6.233333
    },
    {
      "cityName": "Choloy",
      "lat": 48.666667,
      "lng": 5.816667
    },
    {
      "cityName": "Chonville",
      "lat": 48.75,
      "lng": 5.5
    },
    {
      "cityName": "Cierges-sous-Montfaucon",
      "lat": 49.3,
      "lng": 5.083333
    },
    {
      "cityName": "Circourt",
      "lat": 48.25,
      "lng": 6.283333
    },
    {
      "cityName": "Cirey",
      "lat": 48.583333,
      "lng": 6.95
    },
    {
      "cityName": "Claudon",
      "lat": 48.033333,
      "lng": 6.033333
    },
    {
      "cityName": "Clayeures",
      "lat": 48.466667,
      "lng": 6.4
    },
    {
      "cityName": "Clefcy",
      "lat": 48.166667,
      "lng": 6.983333
    },
    {
      "cityName": "Clémery",
      "lat": 48.9,
      "lng": 6.183333
    },
    {
      "cityName": "Clérey",
      "lat": 48.483333,
      "lng": 5.766667
    },
    {
      "cityName": "Clérey-sur-Brénon",
      "lat": 48.5,
      "lng": 6.133333
    },
    {
      "cityName": "Clermont",
      "lat": 49.1,
      "lng": 5.066667
    },
    {
      "cityName": "Cléry-Grand",
      "lat": 49.366667,
      "lng": 5.15
    },
    {
      "cityName": "Cléry-le-Petit",
      "lat": 49.366667,
      "lng": 5.183333
    },
    {
      "cityName": "Clézentaine",
      "lat": 48.416667,
      "lng": 6.533333
    },
    {
      "cityName": "Clouange",
      "lat": 49.266667,
      "lng": 6.1
    },
    {
      "cityName": "Cocheren",
      "lat": 49.15,
      "lng": 6.85
    },
    {
      "cityName": "Coinches",
      "lat": 48.25,
      "lng": 7.033333
    },
    {
      "cityName": "Coincourt",
      "lat": 48.7,
      "lng": 6.616667
    },
    {
      "cityName": "Coincy",
      "lat": 49.1,
      "lng": 6.283333
    },
    {
      "cityName": "Coin-lès-Cuvry",
      "lat": 49.033333,
      "lng": 6.15
    },
    {
      "cityName": "Coin-sur-Seille",
      "lat": 49,
      "lng": 6.166667
    },
    {
      "cityName": "Colligny",
      "lat": 49.1,
      "lng": 6.333333
    },
    {
      "cityName": "Colmen",
      "lat": 49.35,
      "lng": 6.533333
    },
    {
      "cityName": "Colmey",
      "lat": 49.45,
      "lng": 5.55
    },
    {
      "cityName": "Colombey",
      "lat": 48.533333,
      "lng": 5.9
    },
    {
      "cityName": "Colroy-la-Grande",
      "lat": 48.316667,
      "lng": 7.116667
    },
    {
      "cityName": "Combles",
      "lat": 48.75,
      "lng": 5.116667
    },
    {
      "cityName": "Combres",
      "lat": 49.05,
      "lng": 5.633333
    },
    {
      "cityName": "Combrimont",
      "lat": 48.283333,
      "lng": 7.066667
    },
    {
      "cityName": "Commercy",
      "lat": 48.75,
      "lng": 5.583333
    },
    {
      "cityName": "Condé",
      "lat": 48.866667,
      "lng": 5.166667
    },
    {
      "cityName": "Condé-Northen",
      "lat": 49.166667,
      "lng": 6.433333
    },
    {
      "cityName": "Conflans",
      "lat": 49.166667,
      "lng": 5.85
    },
    {
      "cityName": "Consenvoye",
      "lat": 49.283333,
      "lng": 5.283333
    },
    {
      "cityName": "Cons-la-Grandville",
      "lat": 49.483333,
      "lng": 5.7
    },
    {
      "cityName": "Contebault",
      "lat": 47.2,
      "lng": 0.233333
    },
    {
      "cityName": "Conthil",
      "lat": 48.9,
      "lng": 6.65
    },
    {
      "cityName": "Contrexéville",
      "lat": 48.183333,
      "lng": 5.9
    },
    {
      "cityName": "Contz Haute",
      "lat": 49.45,
      "lng": 6.316667
    },
    {
      "cityName": "Corcieux",
      "lat": 48.166667,
      "lng": 6.883333
    },
    {
      "cityName": "Corniéville",
      "lat": 48.766667,
      "lng": 5.7
    },
    {
      "cityName": "Cornimont",
      "lat": 47.966667,
      "lng": 6.833333
    },
    {
      "cityName": "Corny",
      "lat": 49.033333,
      "lng": 6.066667
    },
    {
      "cityName": "Cosnes",
      "lat": 49.516667,
      "lng": 5.716667
    },
    {
      "cityName": "Coume",
      "lat": 49.2,
      "lng": 6.566667
    },
    {
      "cityName": "Courbesseaux",
      "lat": 48.683333,
      "lng": 6.4
    },
    {
      "cityName": "Courcelles-Chaussy",
      "lat": 49.116667,
      "lng": 6.4
    },
    {
      "cityName": "Courcelles",
      "lat": 48.333333,
      "lng": 5.816667
    },
    {
      "cityName": "Courcelles-en-Barrois",
      "lat": 48.816667,
      "lng": 5.45
    },
    {
      "cityName": "Courcelles-sur-Nied",
      "lat": 49.066667,
      "lng": 6.3
    },
    {
      "cityName": "Courouvre",
      "lat": 48.933333,
      "lng": 5.366667
    },
    {
      "cityName": "Courupt",
      "lat": 49.066667,
      "lng": 5
    },
    {
      "cityName": "Cousancelles",
      "lat": 48.616667,
      "lng": 5.083333
    },
    {
      "cityName": "Cousances-aux-Bois",
      "lat": 48.783333,
      "lng": 5.433333
    },
    {
      "cityName": "Cousances-aux-Forges",
      "lat": 48.6,
      "lng": 5.083333
    },
    {
      "cityName": "Cousftgen",
      "lat": 49.45,
      "lng": 6.133333
    },
    {
      "cityName": "Coussey",
      "lat": 48.416667,
      "lng": 5.683333
    },
    {
      "cityName": "Couvertpuis",
      "lat": 48.583333,
      "lng": 5.3
    },
    {
      "cityName": "Couvonges",
      "lat": 48.783333,
      "lng": 5.033333
    },
    {
      "cityName": "Coyviller",
      "lat": 48.583333,
      "lng": 6.283333
    },
    {
      "cityName": "Craincourt",
      "lat": 48.883333,
      "lng": 6.316667
    },
    {
      "cityName": "Crainvilliers",
      "lat": 48.15,
      "lng": 5.833333
    },
    {
      "cityName": "Crantenoy",
      "lat": 48.466667,
      "lng": 6.233333
    },
    {
      "cityName": "Créhange",
      "lat": 49.05,
      "lng": 6.583333
    },
    {
      "cityName": "Crépey",
      "lat": 48.533333,
      "lng": 5.966667
    },
    {
      "cityName": "Crépion",
      "lat": 49.3,
      "lng": 5.383333
    },
    {
      "cityName": "Creuë",
      "lat": 48.966667,
      "lng": 5.666667
    },
    {
      "cityName": "Creutzwald",
      "lat": 49.2,
      "lng": 6.683333
    },
    {
      "cityName": "Crévéchamps",
      "lat": 48.533333,
      "lng": 6.266667
    },
    {
      "cityName": "Crévic",
      "lat": 48.633333,
      "lng": 6.4
    },
    {
      "cityName": "Crézilles",
      "lat": 48.583333,
      "lng": 5.883333
    },
    {
      "cityName": "Crion",
      "lat": 48.633333,
      "lng": 6.533333
    },
    {
      "cityName": "Croismare",
      "lat": 48.6,
      "lng": 6.566667
    },
    {
      "cityName": "Crusnes",
      "lat": 49.433333,
      "lng": 5.916667
    },
    {
      "cityName": "Cuisy",
      "lat": 49.266667,
      "lng": 5.183333
    },
    {
      "cityName": "Culey",
      "lat": 48.75,
      "lng": 5.266667
    },
    {
      "cityName": "Cunel",
      "lat": 49.333333,
      "lng": 5.116667
    },
    {
      "cityName": "Cussigny",
      "lat": 49.55,
      "lng": 5.683333
    },
    {
      "cityName": "Custines",
      "lat": 48.8,
      "lng": 6.15
    },
    {
      "cityName": "Cutry",
      "lat": 49.483333,
      "lng": 5.75
    },
    {
      "cityName": "Cutting",
      "lat": 48.85,
      "lng": 6.833333
    },
    {
      "cityName": "Cuvry",
      "lat": 49.033333,
      "lng": 6.166667
    },
    {
      "cityName": "Dabo",
      "lat": 48.65,
      "lng": 7.233333
    },
    {
      "cityName": "Dagonville",
      "lat": 48.783333,
      "lng": 5.4
    },
    {
      "cityName": "Dain",
      "lat": 49.016667,
      "lng": 6.35
    },
    {
      "cityName": "Dainville-Bertheléville",
      "lat": 48.433333,
      "lng": 5.516667
    },
    {
      "cityName": "Dalem",
      "lat": 49.233333,
      "lng": 6.6
    },
    {
      "cityName": "Dalhain",
      "lat": 48.883333,
      "lng": 6.55
    },
    {
      "cityName": "Dalstein",
      "lat": 49.3,
      "lng": 6.4
    },
    {
      "cityName": "Damas-aux-Bois",
      "lat": 48.4,
      "lng": 6.45
    },
    {
      "cityName": "Damas",
      "lat": 48.216667,
      "lng": 6.266667
    },
    {
      "cityName": "Damblain",
      "lat": 48.1,
      "lng": 5.65
    },
    {
      "cityName": "Damelevières",
      "lat": 48.55,
      "lng": 6.383333
    },
    {
      "cityName": "Damloup",
      "lat": 49.2,
      "lng": 5.5
    },
    {
      "cityName": "Dammarie",
      "lat": 48.6,
      "lng": 5.233333
    },
    {
      "cityName": "Dampvitoux",
      "lat": 49.016667,
      "lng": 5.85
    },
    {
      "cityName": "Damvillers",
      "lat": 49.333333,
      "lng": 5.4
    },
    {
      "cityName": "Danne",
      "lat": 48.766667,
      "lng": 7.3
    },
    {
      "cityName": "Dannelbourg",
      "lat": 48.733333,
      "lng": 7.233333
    },
    {
      "cityName": "Dannevoux",
      "lat": 49.3,
      "lng": 5.233333
    },
    {
      "cityName": "Darmont",
      "lat": 49.183333,
      "lng": 5.7
    },
    {
      "cityName": "Darney-aux-Chênes",
      "lat": 48.283333,
      "lng": 5.816667
    },
    {
      "cityName": "Darney",
      "lat": 48.083333,
      "lng": 6.05
    },
    {
      "cityName": "Darnieulles",
      "lat": 48.2,
      "lng": 6.35
    },
    {
      "cityName": "Deinvillers",
      "lat": 48.416667,
      "lng": 6.55
    },
    {
      "cityName": "Delme",
      "lat": 48.883333,
      "lng": 6.4
    },
    {
      "cityName": "Delouze",
      "lat": 48.566667,
      "lng": 5.516667
    },
    {
      "cityName": "Delut",
      "lat": 49.4,
      "lng": 5.433333
    },
    {
      "cityName": "Demange-aux-Eaux",
      "lat": 48.583333,
      "lng": 5.466667
    },
    {
      "cityName": "Deneuvre",
      "lat": 48.45,
      "lng": 6.733333
    },
    {
      "cityName": "Denipaire",
      "lat": 48.35,
      "lng": 6.966667
    },
    {
      "cityName": "Denting",
      "lat": 49.2,
      "lng": 6.533333
    },
    {
      "cityName": "Derbamont",
      "lat": 48.266667,
      "lng": 6.266667
    },
    {
      "cityName": "Desseling",
      "lat": 48.783333,
      "lng": 6.833333
    },
    {
      "cityName": "Destord",
      "lat": 48.266667,
      "lng": 6.616667
    },
    {
      "cityName": "Destry",
      "lat": 48.95,
      "lng": 6.583333
    },
    {
      "cityName": "Deuxnouds-aux-Bois",
      "lat": 48.983333,
      "lng": 5.616667
    },
    {
      "cityName": "Deuxnouds",
      "lat": 48.983333,
      "lng": 5.233333
    },
    {
      "cityName": "Deuxville",
      "lat": 48.616667,
      "lng": 6.45
    },
    {
      "cityName": "Devant-les-Ponts",
      "lat": 49.133333,
      "lng": 6.15
    },
    {
      "cityName": "Deycimont",
      "lat": 48.166667,
      "lng": 6.65
    },
    {
      "cityName": "Deyvillers",
      "lat": 48.2,
      "lng": 6.516667
    },
    {
      "cityName": "Diane-Capelle",
      "lat": 48.733333,
      "lng": 6.933333
    },
    {
      "cityName": "Diarville",
      "lat": 48.4,
      "lng": 6.133333
    },
    {
      "cityName": "Diebling",
      "lat": 49.116667,
      "lng": 6.933333
    },
    {
      "cityName": "Diedenhofen",
      "lat": 49.366667,
      "lng": 6.166667
    },
    {
      "cityName": "Dieppe",
      "lat": 49.216667,
      "lng": 5.516667
    },
    {
      "cityName": "Diesen",
      "lat": 49.183333,
      "lng": 6.666667
    },
    {
      "cityName": "Dieulouard",
      "lat": 48.85,
      "lng": 6.066667
    },
    {
      "cityName": "Dieuze",
      "lat": 48.816667,
      "lng": 6.716667
    },
    {
      "cityName": "Diffembach",
      "lat": 49,
      "lng": 6.833333
    },
    {
      "cityName": "Dignonville",
      "lat": 48.25,
      "lng": 6.5
    },
    {
      "cityName": "Dinozé",
      "lat": 48.133333,
      "lng": 6.483333
    },
    {
      "cityName": "Distroff",
      "lat": 49.333333,
      "lng": 6.266667
    },
    {
      "cityName": "Divodurum",
      "lat": 49.133333,
      "lng": 6.166667
    },
    {
      "cityName": "Docelles",
      "lat": 48.15,
      "lng": 6.616667
    },
    {
      "cityName": "Dodenhoven",
      "lat": 49.466667,
      "lng": 6.2
    },
    {
      "cityName": "Dogneville",
      "lat": 48.216667,
      "lng": 6.45
    },
    {
      "cityName": "Dolcourt",
      "lat": 48.483333,
      "lng": 5.983333
    },
    {
      "cityName": "Dollenbach",
      "lat": 49.1,
      "lng": 7.35
    },
    {
      "cityName": "Dolving",
      "lat": 48.766667,
      "lng": 7.016667
    },
    {
      "cityName": "Dombasle-devant-Darney",
      "lat": 48.133333,
      "lng": 6.083333
    },
    {
      "cityName": "Dombasle-en-Argonne",
      "lat": 49.133333,
      "lng": 5.183333
    },
    {
      "cityName": "Dombasle-en-Xaintois",
      "lat": 48.3,
      "lng": 6
    },
    {
      "cityName": "Dombasle-sur-Meurthe",
      "lat": 48.633333,
      "lng": 6.35
    },
    {
      "cityName": "Dombras",
      "lat": 49.383333,
      "lng": 5.466667
    },
    {
      "cityName": "Dombrot",
      "lat": 48.15,
      "lng": 5.916667
    },
    {
      "cityName": "Dombrot-sur-Vair",
      "lat": 48.266667,
      "lng": 5.883333
    },
    {
      "cityName": "Domèvre",
      "lat": 48.216667,
      "lng": 6.383333
    },
    {
      "cityName": "Domèvre-en-Haye",
      "lat": 48.816667,
      "lng": 5.916667
    },
    {
      "cityName": "Domèvre-sous Monfort",
      "lat": 48.25,
      "lng": 6.066667
    },
    {
      "cityName": "Domèvre-sur-Durbion",
      "lat": 48.283333,
      "lng": 6.466667
    },
    {
      "cityName": "Domèvre-sur-Vezouze",
      "lat": 48.566667,
      "lng": 6.8
    },
    {
      "cityName": "Domfaing",
      "lat": 48.233333,
      "lng": 6.75
    },
    {
      "cityName": "Domgermain",
      "lat": 48.65,
      "lng": 5.816667
    },
    {
      "cityName": "Domjevin",
      "lat": 48.583333,
      "lng": 6.7
    },
    {
      "cityName": "Domjulien",
      "lat": 48.25,
      "lng": 6
    },
    {
      "cityName": "Dommar",
      "lat": 48.716667,
      "lng": 6.216667
    },
    {
      "cityName": "Dommarie-Eulmont",
      "lat": 48.433333,
      "lng": 6.033333
    },
    {
      "cityName": "Dommartin-aux-Bois",
      "lat": 48.166667,
      "lng": 6.266667
    },
    {
      "cityName": "Dommartin",
      "lat": 48.15,
      "lng": 6.083333
    },
    {
      "cityName": "Dommartin-la-Chapelle",
      "lat": 49.016667,
      "lng": 5.866667
    },
    {
      "cityName": "Dommartin-la-Montagne",
      "lat": 49.033333,
      "lng": 5.616667
    },
    {
      "cityName": "Dommartin-lès-Remiremont",
      "lat": 48,
      "lng": 6.65
    },
    {
      "cityName": "Dommartin-lès-Toul",
      "lat": 48.666667,
      "lng": 5.9
    },
    {
      "cityName": "Dommartin-sur-Vraine",
      "lat": 48.333333,
      "lng": 5.9
    },
    {
      "cityName": "Dommartin-sur-Yèvre",
      "lat": 48.966667,
      "lng": 4.766667
    },
    {
      "cityName": "Dommary-Baroncourt",
      "lat": 49.283333,
      "lng": 5.7
    },
    {
      "cityName": "Domnom",
      "lat": 48.866667,
      "lng": 6.816667
    },
    {
      "cityName": "Dompaire",
      "lat": 48.216667,
      "lng": 6.216667
    },
    {
      "cityName": "Dompcevrin",
      "lat": 48.933333,
      "lng": 5.483333
    },
    {
      "cityName": "Dompierre-aux-Bois",
      "lat": 49,
      "lng": 5.583333
    },
    {
      "cityName": "Dompierre",
      "lat": 48.25,
      "lng": 6.566667
    },
    {
      "cityName": "Domprix",
      "lat": 49.333333,
      "lng": 5.75
    },
    {
      "cityName": "Domptail",
      "lat": 48.45,
      "lng": 6.616667
    },
    {
      "cityName": "Domptail-en l'Air",
      "lat": 48.516667,
      "lng": 6.333333
    },
    {
      "cityName": "Domrémy-aux-Bois",
      "lat": 48.733333,
      "lng": 5.416667
    },
    {
      "cityName": "Domrémy",
      "lat": 48.45,
      "lng": 5.683333
    },
    {
      "cityName": "Domrémy-la-Canne",
      "lat": 49.3,
      "lng": 5.7
    },
    {
      "cityName": "Domvallier",
      "lat": 48.316667,
      "lng": 6.083333
    },
    {
      "cityName": "Doncières",
      "lat": 48.4,
      "lng": 6.633333
    },
    {
      "cityName": "Doncourt-aux-Templiers",
      "lat": 49.066667,
      "lng": 5.733333
    },
    {
      "cityName": "Doncourt-en-Jarnisy",
      "lat": 49.15,
      "lng": 5.933333
    },
    {
      "cityName": "Doncourt-lès-Longuyon",
      "lat": 49.433333,
      "lng": 5.716667
    },
    {
      "cityName": "Donnelay",
      "lat": 48.75,
      "lng": 6.683333
    },
    {
      "cityName": "Dornot",
      "lat": 49.05,
      "lng": 6.05
    },
    {
      "cityName": "Dorviller",
      "lat": 49.083333,
      "lng": 6.566667
    },
    {
      "cityName": "Doulcon",
      "lat": 49.366667,
      "lng": 5.166667
    },
    {
      "cityName": "Dounoux",
      "lat": 48.1,
      "lng": 6.45
    },
    {
      "cityName": "Dourd'hal",
      "lat": 49.1,
      "lng": 6.666667
    },
    {
      "cityName": "Drillancourt",
      "lat": 49.266667,
      "lng": 5.25
    },
    {
      "cityName": "Droitaumont",
      "lat": 49.15,
      "lng": 5.883333
    },
    {
      "cityName": "Drouville",
      "lat": 48.666667,
      "lng": 6.4
    },
    {
      "cityName": "Dugny",
      "lat": 49.1,
      "lng": 5.383333
    },
    {
      "cityName": "Dun",
      "lat": 49.383333,
      "lng": 5.183333
    },
    {
      "cityName": "Duzey",
      "lat": 49.366667,
      "lng": 5.633333
    },
    {
      "cityName": "Ébange",
      "lat": 49.316667,
      "lng": 6.133333
    },
    {
      "cityName": "Ebersviller",
      "lat": 49.283333,
      "lng": 6.4
    },
    {
      "cityName": "Éblange",
      "lat": 49.216667,
      "lng": 6.483333
    },
    {
      "cityName": "Écouviez",
      "lat": 49.533333,
      "lng": 5.45
    },
    {
      "cityName": "Écrouves",
      "lat": 48.683333,
      "lng": 5.85
    },
    {
      "cityName": "Écurey",
      "lat": 48.566667,
      "lng": 5.266667
    },
    {
      "cityName": "Ecurey-en-Verdunois",
      "lat": 49.366667,
      "lng": 5.35
    },
    {
      "cityName": "Éguelshardt",
      "lat": 49.016667,
      "lng": 7.5
    },
    {
      "cityName": "Eincheville",
      "lat": 48.983333,
      "lng": 6.6
    },
    {
      "cityName": "Einvaux",
      "lat": 48.483333,
      "lng": 6.4
    },
    {
      "cityName": "Einville-au-Jard",
      "lat": 48.65,
      "lng": 6.483333
    },
    {
      "cityName": "Eix",
      "lat": 49.183333,
      "lng": 5.5
    },
    {
      "cityName": "Éloyes",
      "lat": 48.1,
      "lng": 6.616667
    },
    {
      "cityName": "Elvange",
      "lat": 49.066667,
      "lng": 6.55
    },
    {
      "cityName": "Elzange",
      "lat": 49.366667,
      "lng": 6.283333
    },
    {
      "cityName": "Emberménil",
      "lat": 48.633333,
      "lng": 6.7
    },
    {
      "cityName": "Enchenberg",
      "lat": 49.016667,
      "lng": 7.333333
    },
    {
      "cityName": "Ennery",
      "lat": 49.216667,
      "lng": 6.216667
    },
    {
      "cityName": "Entrange",
      "lat": 49.416667,
      "lng": 6.1
    },
    {
      "cityName": "Entre-deux-Eaux",
      "lat": 48.233333,
      "lng": 7
    },
    {
      "cityName": "Épiez",
      "lat": 48.55,
      "lng": 5.633333
    },
    {
      "cityName": "Épiez-sur-Chiers",
      "lat": 49.483333,
      "lng": 5.5
    },
    {
      "cityName": "Épinal",
      "lat": 48.183333,
      "lng": 6.45
    },
    {
      "cityName": "Épinonville",
      "lat": 49.283333,
      "lng": 5.083333
    },
    {
      "cityName": "Éply",
      "lat": 48.916667,
      "lng": 6.183333
    },
    {
      "cityName": "Epping",
      "lat": 49.116667,
      "lng": 7.316667
    },
    {
      "cityName": "Erbéviller",
      "lat": 48.733333,
      "lng": 6.383333
    },
    {
      "cityName": "Erchingen",
      "lat": 49.116667,
      "lng": 7.266667
    },
    {
      "cityName": "Érize",
      "lat": 48.816667,
      "lng": 5.283333
    },
    {
      "cityName": "Érize-la-Brûlée",
      "lat": 48.85,
      "lng": 5.266667
    },
    {
      "cityName": "Érize-la-Grande",
      "lat": 48.9,
      "lng": 5.233333
    },
    {
      "cityName": "Érize-la-Petite",
      "lat": 48.916667,
      "lng": 5.25
    },
    {
      "cityName": "Ernestviller",
      "lat": 49.066667,
      "lng": 6.966667
    },
    {
      "cityName": "Errouville",
      "lat": 49.416667,
      "lng": 5.9
    },
    {
      "cityName": "Erstroff",
      "lat": 48.983333,
      "lng": 6.766667
    },
    {
      "cityName": "Erzange",
      "lat": 49.316667,
      "lng": 6.083333
    },
    {
      "cityName": "Escherange",
      "lat": 49.416667,
      "lng": 6.066667
    },
    {
      "cityName": "Escles",
      "lat": 48.133333,
      "lng": 6.183333
    },
    {
      "cityName": "Esley",
      "lat": 48.166667,
      "lng": 6.066667
    },
    {
      "cityName": "Esnes-en-Argonne",
      "lat": 49.216667,
      "lng": 5.216667
    },
    {
      "cityName": "Essegney",
      "lat": 48.366667,
      "lng": 6.316667
    },
    {
      "cityName": "Essey",
      "lat": 48.433333,
      "lng": 6.466667
    },
    {
      "cityName": "Essey-et-Maizerais",
      "lat": 48.916667,
      "lng": 5.816667
    },
    {
      "cityName": "Essey-lès-Nancy",
      "lat": 48.7,
      "lng": 6.233333
    },
    {
      "cityName": "Estrennes",
      "lat": 48.266667,
      "lng": 6.05
    },
    {
      "cityName": "Étain",
      "lat": 49.216667,
      "lng": 5.633333
    },
    {
      "cityName": "Étival-Clairefontaine",
      "lat": 48.366667,
      "lng": 6.883333
    },
    {
      "cityName": "Éton",
      "lat": 49.283333,
      "lng": 5.666667
    },
    {
      "cityName": "Étraye",
      "lat": 49.333333,
      "lng": 5.383333
    },
    {
      "cityName": "Étreval",
      "lat": 48.45,
      "lng": 6.05
    },
    {
      "cityName": "Etting",
      "lat": 49.033333,
      "lng": 7.183333
    },
    {
      "cityName": "Etzling",
      "lat": 49.183333,
      "lng": 6.966667
    },
    {
      "cityName": "Eulmont",
      "lat": 48.75,
      "lng": 6.233333
    },
    {
      "cityName": "Euvezin",
      "lat": 48.916667,
      "lng": 5.833333
    },
    {
      "cityName": "Euville",
      "lat": 48.75,
      "lng": 5.616667
    },
    {
      "cityName": "Évaux-et-Ménil",
      "lat": 48.333333,
      "lng": 6.3
    },
    {
      "cityName": "Evendorff",
      "lat": 49.416667,
      "lng": 6.416667
    },
    {
      "cityName": "Évrange",
      "lat": 49.5,
      "lng": 6.2
    },
    {
      "cityName": "Évres",
      "lat": 48.983333,
      "lng": 5.116667
    },
    {
      "cityName": "Failly",
      "lat": 49.15,
      "lng": 6.266667
    },
    {
      "cityName": "Fains",
      "lat": 48.783333,
      "lng": 5.133333
    },
    {
      "cityName": "Falck",
      "lat": 49.233333,
      "lng": 6.633333
    },
    {
      "cityName": "Fameck",
      "lat": 49.3,
      "lng": 6.116667
    },
    {
      "cityName": "Farébersviller",
      "lat": 49.116667,
      "lng": 6.85
    },
    {
      "cityName": "Farschviller",
      "lat": 49.1,
      "lng": 6.9
    },
    {
      "cityName": "Faucompierre",
      "lat": 48.133333,
      "lng": 6.666667
    },
    {
      "cityName": "Fauconcourt",
      "lat": 48.366667,
      "lng": 6.533333
    },
    {
      "cityName": "Faulbach",
      "lat": 49.45,
      "lng": 6.25
    },
    {
      "cityName": "Faulquemont",
      "lat": 49.05,
      "lng": 6.6
    },
    {
      "cityName": "Favières",
      "lat": 48.466667,
      "lng": 5.95
    },
    {
      "cityName": "Faymont",
      "lat": 47.95,
      "lng": 6.533333
    },
    {
      "cityName": "Fays",
      "lat": 48.2,
      "lng": 6.683333
    },
    {
      "cityName": "Fécocourt",
      "lat": 48.4,
      "lng": 6
    },
    {
      "cityName": "Fénétrange",
      "lat": 48.85,
      "lng": 7.016667
    },
    {
      "cityName": "Fenneviller",
      "lat": 48.483333,
      "lng": 6.883333
    },
    {
      "cityName": "Ferdrupt",
      "lat": 47.9,
      "lng": 6.716667
    },
    {
      "cityName": "Fermont",
      "lat": 49.466667,
      "lng": 5.666667
    },
    {
      "cityName": "Ferrières-Basse",
      "lat": 48.55,
      "lng": 6.3
    },
    {
      "cityName": "Fèves",
      "lat": 49.2,
      "lng": 6.116667
    },
    {
      "cityName": "Fey-en-Haye",
      "lat": 48.9,
      "lng": 5.966667
    },
    {
      "cityName": "Fignévelle",
      "lat": 47.983333,
      "lng": 5.916667
    },
    {
      "cityName": "Fillières",
      "lat": 49.4,
      "lng": 5.833333
    },
    {
      "cityName": "Filstroff",
      "lat": 49.316667,
      "lng": 6.55
    },
    {
      "cityName": "Fiménil",
      "lat": 48.183333,
      "lng": 6.716667
    },
    {
      "cityName": "Fixem",
      "lat": 49.433333,
      "lng": 6.266667
    },
    {
      "cityName": "Flabas",
      "lat": 49.283333,
      "lng": 5.4
    },
    {
      "cityName": "Flabeuville",
      "lat": 49.466667,
      "lng": 5.533333
    },
    {
      "cityName": "Flainval",
      "lat": 48.616667,
      "lng": 6.4
    },
    {
      "cityName": "Flassigny",
      "lat": 49.466667,
      "lng": 5.433333
    },
    {
      "cityName": "Flastroff",
      "lat": 49.366667,
      "lng": 6.533333
    },
    {
      "cityName": "Flavigny",
      "lat": 48.566667,
      "lng": 6.183333
    },
    {
      "cityName": "Fleisheim",
      "lat": 48.783333,
      "lng": 7.166667
    },
    {
      "cityName": "Flétrange",
      "lat": 49.066667,
      "lng": 6.566667
    },
    {
      "cityName": "Fleury",
      "lat": 49.016667,
      "lng": 5.166667
    },
    {
      "cityName": "Fléville-devant-Nancy",
      "lat": 48.633333,
      "lng": 6.216667
    },
    {
      "cityName": "Fléville-Lixières",
      "lat": 49.25,
      "lng": 5.816667
    },
    {
      "cityName": "Flévy",
      "lat": 49.233333,
      "lng": 6.25
    },
    {
      "cityName": "Flin",
      "lat": 48.5,
      "lng": 6.65
    },
    {
      "cityName": "Flirey",
      "lat": 48.883333,
      "lng": 5.833333
    },
    {
      "cityName": "Flocourt",
      "lat": 48.966667,
      "lng": 6.416667
    },
    {
      "cityName": "Florange",
      "lat": 49.333333,
      "lng": 6.116667
    },
    {
      "cityName": "Florémont",
      "lat": 48.366667,
      "lng": 6.25
    },
    {
      "cityName": "Foameix",
      "lat": 49.233333,
      "lng": 5.6
    },
    {
      "cityName": "Folckling",
      "lat": 49.15,
      "lng": 6.9
    },
    {
      "cityName": "Folschviller",
      "lat": 49.066667,
      "lng": 6.683333
    },
    {
      "cityName": "Fomerey",
      "lat": 48.216667,
      "lng": 6.333333
    },
    {
      "cityName": "Fontaines",
      "lat": 48.366667,
      "lng": 5.233333
    },
    {
      "cityName": "Fontenay",
      "lat": 48.216667,
      "lng": 6.583333
    },
    {
      "cityName": "Fontenoy",
      "lat": 47.966667,
      "lng": 6.2
    },
    {
      "cityName": "Fontenoy-la-Joûte",
      "lat": 48.45,
      "lng": 6.666667
    },
    {
      "cityName": "Fontenoy-sur-Moselle",
      "lat": 48.716667,
      "lng": 5.983333
    },
    {
      "cityName": "Fonteny",
      "lat": 48.883333,
      "lng": 6.466667
    },
    {
      "cityName": "Fontoy",
      "lat": 49.35,
      "lng": 6
    },
    {
      "cityName": "Forbach",
      "lat": 49.183333,
      "lng": 6.9
    },
    {
      "cityName": "Forcelles",
      "lat": 48.45,
      "lng": 6.1
    },
    {
      "cityName": "Forcelles-sous-Gugney",
      "lat": 48.4,
      "lng": 6.083333
    },
    {
      "cityName": "Forges",
      "lat": 49.266667,
      "lng": 5.283333
    },
    {
      "cityName": "Fossieux",
      "lat": 48.85,
      "lng": 6.333333
    },
    {
      "cityName": "Foucaucourt",
      "lat": 49,
      "lng": 5.1
    },
    {
      "cityName": "Fouchécourt",
      "lat": 48.016667,
      "lng": 5.866667
    },
    {
      "cityName": "Fouchères-aux-Bois",
      "lat": 48.616667,
      "lng": 5.25
    },
    {
      "cityName": "Foug",
      "lat": 48.683333,
      "lng": 5.783333
    },
    {
      "cityName": "Foulcrey",
      "lat": 48.633333,
      "lng": 6.866667
    },
    {
      "cityName": "Fouligny",
      "lat": 49.1,
      "lng": 6.5
    },
    {
      "cityName": "Fourneau-Neuf",
      "lat": 48.983333,
      "lng": 7.483333
    },
    {
      "cityName": "Foville",
      "lat": 48.916667,
      "lng": 6.333333
    },
    {
      "cityName": "Fraimbois",
      "lat": 48.533333,
      "lng": 6.55
    },
    {
      "cityName": "Frain",
      "lat": 48.083333,
      "lng": 5.883333
    },
    {
      "cityName": "Fraisnes-en-Saintois",
      "lat": 48.383333,
      "lng": 6.05
    },
    {
      "cityName": "Fraize",
      "lat": 48.183333,
      "lng": 7
    },
    {
      "cityName": "Francheville",
      "lat": 48.733333,
      "lng": 5.933333
    },
    {
      "cityName": "Franconville",
      "lat": 48.5,
      "lng": 6.45
    },
    {
      "cityName": "Fraquelfing",
      "lat": 48.633333,
      "lng": 6.983333
    },
    {
      "cityName": "Frauenberg",
      "lat": 49.133333,
      "lng": 7.133333
    },
    {
      "cityName": "Frebécourt",
      "lat": 48.383333,
      "lng": 5.666667
    },
    {
      "cityName": "Frécourt",
      "lat": 49.083333,
      "lng": 6.416667
    },
    {
      "cityName": "Freistroff",
      "lat": 49.283333,
      "lng": 6.483333
    },
    {
      "cityName": "Fréménil",
      "lat": 48.566667,
      "lng": 6.716667
    },
    {
      "cityName": "Frémereville",
      "lat": 48.8,
      "lng": 5.65
    },
    {
      "cityName": "Frémery",
      "lat": 48.916667,
      "lng": 6.466667
    },
    {
      "cityName": "Frémestroff",
      "lat": 49.016667,
      "lng": 6.783333
    },
    {
      "cityName": "Frémifontaine",
      "lat": 48.266667,
      "lng": 6.683333
    },
    {
      "cityName": "Frémonville",
      "lat": 48.6,
      "lng": 6.883333
    },
    {
      "cityName": "Frenelle-la-Grande",
      "lat": 48.35,
      "lng": 6.083333
    },
    {
      "cityName": "Frenelle-la-Petite",
      "lat": 48.35,
      "lng": 6.066667
    },
    {
      "cityName": "Frénois",
      "lat": 48.183333,
      "lng": 6.116667
    },
    {
      "cityName": "Fresnes-au-Mont",
      "lat": 48.9,
      "lng": 5.433333
    },
    {
      "cityName": "Fresnes-en-Saulnois",
      "lat": 48.833333,
      "lng": 6.433333
    },
    {
      "cityName": "Fresnes-en-Woëvre",
      "lat": 49.1,
      "lng": 5.616667
    },
    {
      "cityName": "Fresnois",
      "lat": 49.5,
      "lng": 5.65
    },
    {
      "cityName": "Fresse",
      "lat": 47.866667,
      "lng": 6.783333
    },
    {
      "cityName": "Fréville",
      "lat": 48.333333,
      "lng": 5.616667
    },
    {
      "cityName": "Freybouse",
      "lat": 49,
      "lng": 6.766667
    },
    {
      "cityName": "Freyming",
      "lat": 49.15,
      "lng": 6.783333
    },
    {
      "cityName": "Friauville",
      "lat": 49.15,
      "lng": 5.85
    },
    {
      "cityName": "Fribourg",
      "lat": 48.766667,
      "lng": 6.85
    },
    {
      "cityName": "Frizon-Haute",
      "lat": 48.283333,
      "lng": 6.366667
    },
    {
      "cityName": "Froidos",
      "lat": 49.05,
      "lng": 5.116667
    },
    {
      "cityName": "Frolois",
      "lat": 48.566667,
      "lng": 6.133333
    },
    {
      "cityName": "Fromeréville",
      "lat": 49.15,
      "lng": 5.283333
    },
    {
      "cityName": "Fromezey",
      "lat": 49.216667,
      "lng": 5.583333
    },
    {
      "cityName": "Frouard",
      "lat": 48.766667,
      "lng": 6.133333
    },
    {
      "cityName": "Froville",
      "lat": 48.466667,
      "lng": 6.35
    },
    {
      "cityName": "Fruze",
      "lat": 48.4,
      "lng": 5.733333
    },
    {
      "cityName": "Futeau",
      "lat": 49.083333,
      "lng": 5
    },
    {
      "cityName": "Gandrange",
      "lat": 49.266667,
      "lng": 6.133333
    },
    {
      "cityName": "Garche",
      "lat": 49.4,
      "lng": 6.2
    },
    {
      "cityName": "Garrebourg",
      "lat": 48.716667,
      "lng": 7.233333
    },
    {
      "cityName": "Gavisse",
      "lat": 49.433333,
      "lng": 6.283333
    },
    {
      "cityName": "Geblingen",
      "lat": 48.966667,
      "lng": 6.966667
    },
    {
      "cityName": "Gélacourt",
      "lat": 48.483333,
      "lng": 6.733333
    },
    {
      "cityName": "Gellenoncourt",
      "lat": 48.683333,
      "lng": 6.383333
    },
    {
      "cityName": "Gélucourt",
      "lat": 48.766667,
      "lng": 6.716667
    },
    {
      "cityName": "Gelvécourt-et-Adompt",
      "lat": 48.2,
      "lng": 6.183333
    },
    {
      "cityName": "Gemaingoute",
      "lat": 48.25,
      "lng": 7.083333
    },
    {
      "cityName": "Gemmelaincourt",
      "lat": 48.283333,
      "lng": 5.966667
    },
    {
      "cityName": "Gémonville",
      "lat": 48.416667,
      "lng": 5.883333
    },
    {
      "cityName": "Gendreville",
      "lat": 48.233333,
      "lng": 5.716667
    },
    {
      "cityName": "Génicourt-sur-Meuse",
      "lat": 49.033333,
      "lng": 5.433333
    },
    {
      "cityName": "Gérardmer",
      "lat": 48.066667,
      "lng": 6.883333
    },
    {
      "cityName": "Gérauvilliers",
      "lat": 48.55,
      "lng": 5.566667
    },
    {
      "cityName": "Gerbécourt-et-Haplemont",
      "lat": 48.483333,
      "lng": 6.166667
    },
    {
      "cityName": "Gerbépal",
      "lat": 48.15,
      "lng": 6.916667
    },
    {
      "cityName": "Gerbéviller",
      "lat": 48.5,
      "lng": 6.516667
    },
    {
      "cityName": "Gercourt-et-Drillancourt",
      "lat": 49.283333,
      "lng": 5.233333
    },
    {
      "cityName": "Germiny",
      "lat": 48.55,
      "lng": 6
    },
    {
      "cityName": "Germonville",
      "lat": 48.4,
      "lng": 6.216667
    },
    {
      "cityName": "Géry",
      "lat": 48.783333,
      "lng": 5.3
    },
    {
      "cityName": "Gesnes-en-Argonne",
      "lat": 49.3,
      "lng": 5.066667
    },
    {
      "cityName": "Gézoncourt",
      "lat": 48.833333,
      "lng": 6
    },
    {
      "cityName": "Gibeaumeix",
      "lat": 48.583333,
      "lng": 5.733333
    },
    {
      "cityName": "Gibercy",
      "lat": 49.316667,
      "lng": 5.416667
    },
    {
      "cityName": "Gignéville",
      "lat": 48.116667,
      "lng": 5.916667
    },
    {
      "cityName": "Gigney",
      "lat": 48.233333,
      "lng": 6.333333
    },
    {
      "cityName": "Gimécourt",
      "lat": 48.85,
      "lng": 5.366667
    },
    {
      "cityName": "Gincrey",
      "lat": 49.25,
      "lng": 5.566667
    },
    {
      "cityName": "Girancourt",
      "lat": 48.166667,
      "lng": 6.316667
    },
    {
      "cityName": "Giraumont",
      "lat": 49.166667,
      "lng": 5.916667
    },
    {
      "cityName": "Girauvoisin",
      "lat": 48.8,
      "lng": 5.633333
    },
    {
      "cityName": "Gircourt",
      "lat": 48.333333,
      "lng": 6.2
    },
    {
      "cityName": "Girecourt",
      "lat": 48.25,
      "lng": 6.6
    },
    {
      "cityName": "Giriviller",
      "lat": 48.45,
      "lng": 6.483333
    },
    {
      "cityName": "Girmont du Levral",
      "lat": 48.266667,
      "lng": 6.433333
    },
    {
      "cityName": "Girmont",
      "lat": 47.95,
      "lng": 6.55
    },
    {
      "cityName": "Gironcourt",
      "lat": 48.316667,
      "lng": 5.933333
    },
    {
      "cityName": "Gironville",
      "lat": 48.8,
      "lng": 5.666667
    },
    {
      "cityName": "Girovillers",
      "lat": 48.25,
      "lng": 6.016667
    },
    {
      "cityName": "Givrauval",
      "lat": 48.666667,
      "lng": 5.316667
    },
    {
      "cityName": "Givrycourt",
      "lat": 48.916667,
      "lng": 6.916667
    },
    {
      "cityName": "Glatigny",
      "lat": 49.15,
      "lng": 6.333333
    },
    {
      "cityName": "Glonville",
      "lat": 48.466667,
      "lng": 6.683333
    },
    {
      "cityName": "Godbrange",
      "lat": 49.5,
      "lng": 5.866667
    },
    {
      "cityName": "Godoncourt",
      "lat": 48,
      "lng": 5.916667
    },
    {
      "cityName": "Goetzenbruck",
      "lat": 48.983333,
      "lng": 7.383333
    },
    {
      "cityName": "Gogney",
      "lat": 48.616667,
      "lng": 6.866667
    },
    {
      "cityName": "Goin",
      "lat": 48.983333,
      "lng": 6.216667
    },
    {
      "cityName": "Golbey",
      "lat": 48.2,
      "lng": 6.433333
    },
    {
      "cityName": "Gomelange",
      "lat": 49.25,
      "lng": 6.466667
    },
    {
      "cityName": "Gondrecourt-Aix",
      "lat": 49.25,
      "lng": 5.766667
    },
    {
      "cityName": "Gondrecourt",
      "lat": 48.516667,
      "lng": 5.5
    },
    {
      "cityName": "Gondreville",
      "lat": 48.7,
      "lng": 5.966667
    },
    {
      "cityName": "Gondrexange",
      "lat": 48.683333,
      "lng": 6.933333
    },
    {
      "cityName": "Gondrexon",
      "lat": 48.6,
      "lng": 6.766667
    },
    {
      "cityName": "Gorcy-Cussigny",
      "lat": 49.533333,
      "lng": 5.7
    },
    {
      "cityName": "Gorhey",
      "lat": 48.2,
      "lng": 6.283333
    },
    {
      "cityName": "Gorze",
      "lat": 49.05,
      "lng": 6
    },
    {
      "cityName": "Gosselming",
      "lat": 48.783333,
      "lng": 7
    },
    {
      "cityName": "Gouécourt",
      "lat": 48.416667,
      "lng": 5.7
    },
    {
      "cityName": "Gouraincourt",
      "lat": 49.3,
      "lng": 5.65
    },
    {
      "cityName": "Goussaincourt",
      "lat": 48.483333,
      "lng": 5.7
    },
    {
      "cityName": "Goviller",
      "lat": 48.5,
      "lng": 6.016667
    },
    {
      "cityName": "Grande Moyeuvre",
      "lat": 49.25,
      "lng": 6.033333
    },
    {
      "cityName": "Grand-Failly",
      "lat": 49.416667,
      "lng": 5.5
    },
    {
      "cityName": "Grand",
      "lat": 48.383333,
      "lng": 5.483333
    },
    {
      "cityName": "Grandrupt-de-Bains",
      "lat": 48.066667,
      "lng": 6.183333
    },
    {
      "cityName": "Grandvillers",
      "lat": 48.233333,
      "lng": 6.683333
    },
    {
      "cityName": "Granges",
      "lat": 48.15,
      "lng": 6.783333
    },
    {
      "cityName": "Gravelotte",
      "lat": 49.116667,
      "lng": 6.016667
    },
    {
      "cityName": "Grémecey",
      "lat": 48.8,
      "lng": 6.416667
    },
    {
      "cityName": "Gréning",
      "lat": 48.966667,
      "lng": 6.85
    },
    {
      "cityName": "Grignoncourt",
      "lat": 47.966667,
      "lng": 5.9
    },
    {
      "cityName": "Grimaucourt-en-Woëvre",
      "lat": 49.166667,
      "lng": 5.55
    },
    {
      "cityName": "Grimaucourt",
      "lat": 48.8,
      "lng": 5.466667
    },
    {
      "cityName": "Grimonviller",
      "lat": 48.383333,
      "lng": 6
    },
    {
      "cityName": "Grindorff",
      "lat": 49.383333,
      "lng": 6.516667
    },
    {
      "cityName": "Gripport",
      "lat": 48.416667,
      "lng": 6.25
    },
    {
      "cityName": "Griscourt",
      "lat": 48.833333,
      "lng": 6.016667
    },
    {
      "cityName": "Grosbliederstroff",
      "lat": 49.15,
      "lng": 7.016667
    },
    {
      "cityName": "Gros-Réderching",
      "lat": 49.066667,
      "lng": 7.216667
    },
    {
      "cityName": "Grosrouvres",
      "lat": 48.833333,
      "lng": 5.833333
    },
    {
      "cityName": "Grostenquin",
      "lat": 48.983333,
      "lng": 6.733333
    },
    {
      "cityName": "Gruey",
      "lat": 48.033333,
      "lng": 6.183333
    },
    {
      "cityName": "Grundviller",
      "lat": 49.05,
      "lng": 6.966667
    },
    {
      "cityName": "Guebenhausen",
      "lat": 49.083333,
      "lng": 6.95
    },
    {
      "cityName": "Guébestroff",
      "lat": 48.833333,
      "lng": 6.716667
    },
    {
      "cityName": "Guéblange",
      "lat": 48.766667,
      "lng": 6.7
    },
    {
      "cityName": "Guébling",
      "lat": 48.866667,
      "lng": 6.733333
    },
    {
      "cityName": "Güé",
      "lat": 48.616667,
      "lng": 5.016667
    },
    {
      "cityName": "Guénestroff",
      "lat": 48.833333,
      "lng": 6.7
    },
    {
      "cityName": "Guenviller",
      "lat": 49.1,
      "lng": 6.8
    },
    {
      "cityName": "Guermange",
      "lat": 48.8,
      "lng": 6.8
    },
    {
      "cityName": "Guerpont",
      "lat": 48.733333,
      "lng": 5.266667
    },
    {
      "cityName": "Guerstling",
      "lat": 49.333333,
      "lng": 6.583333
    },
    {
      "cityName": "Guerting",
      "lat": 49.183333,
      "lng": 6.616667
    },
    {
      "cityName": "Guessling",
      "lat": 49.033333,
      "lng": 6.65
    },
    {
      "cityName": "Gugnécourt",
      "lat": 48.25,
      "lng": 6.616667
    },
    {
      "cityName": "Gugney-aux-Aulx",
      "lat": 48.3,
      "lng": 6.266667
    },
    {
      "cityName": "Guiderkirch",
      "lat": 49.1,
      "lng": 7.266667
    },
    {
      "cityName": "Guinglange",
      "lat": 49.066667,
      "lng": 6.516667
    },
    {
      "cityName": "Guinkirchen",
      "lat": 49.2,
      "lng": 6.45
    },
    {
      "cityName": "Guinzeling",
      "lat": 48.883333,
      "lng": 6.833333
    },
    {
      "cityName": "Guirlange",
      "lat": 49.216667,
      "lng": 6.466667
    },
    {
      "cityName": "Gussainville",
      "lat": 49.166667,
      "lng": 5.683333
    },
    {
      "cityName": "Gye",
      "lat": 48.616667,
      "lng": 5.883333
    },
    {
      "cityName": "Hablainville",
      "lat": 48.516667,
      "lng": 6.733333
    },
    {
      "cityName": "Haboudange",
      "lat": 48.883333,
      "lng": 6.616667
    },
    {
      "cityName": "Hadigny",
      "lat": 48.316667,
      "lng": 6.466667
    },
    {
      "cityName": "Hadol",
      "lat": 48.083333,
      "lng": 6.483333
    },
    {
      "cityName": "Hadonville",
      "lat": 49.05,
      "lng": 5.816667
    },
    {
      "cityName": "Hagécourt",
      "lat": 48.233333,
      "lng": 6.15
    },
    {
      "cityName": "Hagen",
      "lat": 49.5,
      "lng": 6.166667
    },
    {
      "cityName": "Hagéville",
      "lat": 49.033333,
      "lng": 5.866667
    },
    {
      "cityName": "Hagnéville",
      "lat": 48.25,
      "lng": 5.8
    },
    {
      "cityName": "Hagondange",
      "lat": 49.25,
      "lng": 6.166667
    },
    {
      "cityName": "Haillainville",
      "lat": 48.4,
      "lng": 6.483333
    },
    {
      "cityName": "Haironville",
      "lat": 48.683333,
      "lng": 5.083333
    },
    {
      "cityName": "Hallering",
      "lat": 49.116667,
      "lng": 6.55
    },
    {
      "cityName": "Halles",
      "lat": 49.45,
      "lng": 5.116667
    },
    {
      "cityName": "Halling",
      "lat": 49.15,
      "lng": 6.516667
    },
    {
      "cityName": "Halloville",
      "lat": 48.55,
      "lng": 6.866667
    },
    {
      "cityName": "Halstroff",
      "lat": 49.4,
      "lng": 6.483333
    },
    {
      "cityName": "Hambach",
      "lat": 49.066667,
      "lng": 7.033333
    },
    {
      "cityName": "Ham",
      "lat": 49.183333,
      "lng": 6.633333
    },
    {
      "cityName": "Hammeville",
      "lat": 48.5,
      "lng": 6.066667
    },
    {
      "cityName": "Hamonville",
      "lat": 48.833333,
      "lng": 5.816667
    },
    {
      "cityName": "Hampont",
      "lat": 48.833333,
      "lng": 6.583333
    },
    {
      "cityName": "Han-devant-Pierrepont",
      "lat": 49.4,
      "lng": 5.7
    },
    {
      "cityName": "Hangviller",
      "lat": 48.816667,
      "lng": 7.233333
    },
    {
      "cityName": "Han",
      "lat": 48.866667,
      "lng": 5.533333
    },
    {
      "cityName": "Han-lès-Juvigny",
      "lat": 49.483333,
      "lng": 5.333333
    },
    {
      "cityName": "Hannocourt",
      "lat": 48.9,
      "lng": 6.466667
    },
    {
      "cityName": "Hannonville-au-Passage",
      "lat": 49.1,
      "lng": 5.833333
    },
    {
      "cityName": "Hannonville",
      "lat": 49.033333,
      "lng": 5.666667
    },
    {
      "cityName": "Han-sur-Nied",
      "lat": 48.983333,
      "lng": 6.433333
    },
    {
      "cityName": "Hanviller",
      "lat": 49.1,
      "lng": 7.466667
    },
    {
      "cityName": "Haraucourt",
      "lat": 48.666667,
      "lng": 6.366667
    },
    {
      "cityName": "Haraucourt-sur-Seille",
      "lat": 48.8,
      "lng": 6.6
    },
    {
      "cityName": "Haraumont",
      "lat": 49.35,
      "lng": 5.266667
    },
    {
      "cityName": "Harbouey",
      "lat": 48.566667,
      "lng": 6.883333
    },
    {
      "cityName": "Hardancourt",
      "lat": 48.383333,
      "lng": 6.566667
    },
    {
      "cityName": "Haréville",
      "lat": 48.2,
      "lng": 6
    },
    {
      "cityName": "Hargarten-aux-Mines",
      "lat": 49.216667,
      "lng": 6.6
    },
    {
      "cityName": "Hargeville",
      "lat": 48.85,
      "lng": 5.183333
    },
    {
      "cityName": "Harmonville",
      "lat": 48.483333,
      "lng": 5.866667
    },
    {
      "cityName": "Harol",
      "lat": 48.15,
      "lng": 6.25
    },
    {
      "cityName": "Haroué",
      "lat": 48.466667,
      "lng": 6.183333
    },
    {
      "cityName": "Harprich",
      "lat": 48.966667,
      "lng": 6.65
    },
    {
      "cityName": "Harreberg",
      "lat": 48.666667,
      "lng": 7.166667
    },
    {
      "cityName": "Harsault",
      "lat": 48.066667,
      "lng": 6.233333
    },
    {
      "cityName": "Hartzviller",
      "lat": 48.666667,
      "lng": 7.083333
    },
    {
      "cityName": "Harville",
      "lat": 49.1,
      "lng": 5.733333
    },
    {
      "cityName": "Haselbourg",
      "lat": 48.683333,
      "lng": 7.2
    },
    {
      "cityName": "Haspelschiedt",
      "lat": 49.083333,
      "lng": 7.483333
    },
    {
      "cityName": "Hasseling",
      "lat": 49.183333,
      "lng": 7
    },
    {
      "cityName": "Hatrize",
      "lat": 49.2,
      "lng": 5.916667
    },
    {
      "cityName": "Hattigny",
      "lat": 48.633333,
      "lng": 6.966667
    },
    {
      "cityName": "Hattonchâtel",
      "lat": 48.983333,
      "lng": 5.7
    },
    {
      "cityName": "Hattonville",
      "lat": 48.983333,
      "lng": 5.716667
    },
    {
      "cityName": "Hauconcourt",
      "lat": 49.216667,
      "lng": 6.183333
    },
    {
      "cityName": "Haucourt",
      "lat": 49.316667,
      "lng": 5.733333
    },
    {
      "cityName": "Haucourt-Moulaine",
      "lat": 49.483333,
      "lng": 5.8
    },
    {
      "cityName": "Haudainville",
      "lat": 49.116667,
      "lng": 5.416667
    },
    {
      "cityName": "Haudiomont",
      "lat": 49.116667,
      "lng": 5.566667
    },
    {
      "cityName": "Haudonville",
      "lat": 48.5,
      "lng": 6.5
    },
    {
      "cityName": "Haumont",
      "lat": 49.016667,
      "lng": 5.816667
    },
    {
      "cityName": "Haussonville",
      "lat": 48.533333,
      "lng": 6.333333
    },
    {
      "cityName": "Haut-Clocher",
      "lat": 48.75,
      "lng": 7
    },
    {
      "cityName": "Hautecourt",
      "lat": 49.2,
      "lng": 5.566667
    },
    {
      "cityName": "Haute Parthe",
      "lat": 49.433333,
      "lng": 6.2
    },
    {
      "cityName": "Haute-Rentgen",
      "lat": 49.483333,
      "lng": 6.183333
    },
    {
      "cityName": "Haute-Sierck",
      "lat": 49.383333,
      "lng": 6.383333
    },
    {
      "cityName": "Haute-Vigneulle",
      "lat": 49.1,
      "lng": 6.55
    },
    {
      "cityName": "Haute-Yutz",
      "lat": 49.35,
      "lng": 6.2
    },
    {
      "cityName": "Hautmougey",
      "lat": 48.033333,
      "lng": 6.233333
    },
    {
      "cityName": "Havange",
      "lat": 49.383333,
      "lng": 6
    },
    {
      "cityName": "Hayange",
      "lat": 49.333333,
      "lng": 6.05
    },
    {
      "cityName": "Haye",
      "lat": 49.166667,
      "lng": 6.366667
    },
    {
      "cityName": "Hazembourg",
      "lat": 48.966667,
      "lng": 6.933333
    },
    {
      "cityName": "Heillecourt",
      "lat": 48.65,
      "lng": 6.2
    },
    {
      "cityName": "Heining",
      "lat": 49.316667,
      "lng": 6.583333
    },
    {
      "cityName": "Heippes",
      "lat": 49,
      "lng": 5.3
    },
    {
      "cityName": "Hellering",
      "lat": 48.816667,
      "lng": 7.066667
    },
    {
      "cityName": "Hellimer",
      "lat": 49,
      "lng": 6.816667
    },
    {
      "cityName": "Helling",
      "lat": 49.333333,
      "lng": 6.366667
    },
    {
      "cityName": "Helstroff",
      "lat": 49.15,
      "lng": 6.483333
    },
    {
      "cityName": "Hémering",
      "lat": 49.033333,
      "lng": 6.666667
    },
    {
      "cityName": "Hémilly",
      "lat": 49.066667,
      "lng": 6.5
    },
    {
      "cityName": "Héming",
      "lat": 48.7,
      "lng": 6.95
    },
    {
      "cityName": "Hénaménil",
      "lat": 48.666667,
      "lng": 6.566667
    },
    {
      "cityName": "Hennecourt",
      "lat": 48.216667,
      "lng": 6.283333
    },
    {
      "cityName": "Hennemont",
      "lat": 49.133333,
      "lng": 5.666667
    },
    {
      "cityName": "Hennezel",
      "lat": 48.05,
      "lng": 6.116667
    },
    {
      "cityName": "Henridorff",
      "lat": 48.733333,
      "lng": 7.216667
    },
    {
      "cityName": "Henriville",
      "lat": 49.1,
      "lng": 6.85
    },
    {
      "cityName": "Hérange",
      "lat": 48.766667,
      "lng": 7.166667
    },
    {
      "cityName": "Herbéviller",
      "lat": 48.55,
      "lng": 6.75
    },
    {
      "cityName": "Hergugney",
      "lat": 48.383333,
      "lng": 6.2
    },
    {
      "cityName": "Hériménil",
      "lat": 48.566667,
      "lng": 6.5
    },
    {
      "cityName": "Hermelange",
      "lat": 48.683333,
      "lng": 7.016667
    },
    {
      "cityName": "Herméville-en-Woëvre",
      "lat": 49.183333,
      "lng": 5.583333
    },
    {
      "cityName": "Herny",
      "lat": 49,
      "lng": 6.483333
    },
    {
      "cityName": "Herpelmont",
      "lat": 48.166667,
      "lng": 6.733333
    },
    {
      "cityName": "Herserange",
      "lat": 49.516667,
      "lng": 5.783333
    },
    {
      "cityName": "Hertzing",
      "lat": 48.683333,
      "lng": 6.95
    },
    {
      "cityName": "Hesse",
      "lat": 48.7,
      "lng": 7.05
    },
    {
      "cityName": "Hestroff",
      "lat": 49.266667,
      "lng": 6.433333
    },
    {
      "cityName": "Hettange-Grande",
      "lat": 49.4,
      "lng": 6.15
    },
    {
      "cityName": "Heudicourt",
      "lat": 48.933333,
      "lng": 5.7
    },
    {
      "cityName": "Hévilliers",
      "lat": 48.6,
      "lng": 5.333333
    },
    {
      "cityName": "Hilbesheim",
      "lat": 48.766667,
      "lng": 7.1
    },
    {
      "cityName": "Hilsprich",
      "lat": 49.016667,
      "lng": 6.916667
    },
    {
      "cityName": "Himeling",
      "lat": 49.483333,
      "lng": 6.233333
    },
    {
      "cityName": "Hinckange",
      "lat": 49.183333,
      "lng": 6.45
    },
    {
      "cityName": "Hoéville",
      "lat": 48.7,
      "lng": 6.433333
    },
    {
      "cityName": "Hoff",
      "lat": 48.75,
      "lng": 7.05
    },
    {
      "cityName": "Holacourt",
      "lat": 48.966667,
      "lng": 6.516667
    },
    {
      "cityName": "Holling",
      "lat": 49.266667,
      "lng": 6.5
    },
    {
      "cityName": "Holvingen",
      "lat": 49,
      "lng": 6.95
    },
    {
      "cityName": "Hombourg-Bas",
      "lat": 49.133333,
      "lng": 6.783333
    },
    {
      "cityName": "Hombourg-Budange",
      "lat": 49.3,
      "lng": 6.333333
    },
    {
      "cityName": "Hombourg-Haut",
      "lat": 49.133333,
      "lng": 6.766667
    },
    {
      "cityName": "Homécourt",
      "lat": 49.233333,
      "lng": 5.983333
    },
    {
      "cityName": "Hommarting",
      "lat": 48.733333,
      "lng": 7.15
    },
    {
      "cityName": "Hommert",
      "lat": 48.683333,
      "lng": 7.183333
    },
    {
      "cityName": "Hondimont",
      "lat": 48.65,
      "lng": 6.183333
    },
    {
      "cityName": "Honskirch",
      "lat": 48.933333,
      "lng": 6.983333
    },
    {
      "cityName": "Horville-en-Ornois",
      "lat": 48.5,
      "lng": 5.466667
    },
    {
      "cityName": "Hoste-Bas",
      "lat": 49.066667,
      "lng": 6.883333
    },
    {
      "cityName": "Hottviller",
      "lat": 49.066667,
      "lng": 7.366667
    },
    {
      "cityName": "Houdelaincourt",
      "lat": 48.55,
      "lng": 5.466667
    },
    {
      "cityName": "Houdelaucourt",
      "lat": 49.316667,
      "lng": 5.683333
    },
    {
      "cityName": "Houdelmont",
      "lat": 48.533333,
      "lng": 6.083333
    },
    {
      "cityName": "Houdlémont",
      "lat": 49.533333,
      "lng": 5.683333
    },
    {
      "cityName": "Houdreville",
      "lat": 48.5,
      "lng": 6.1
    },
    {
      "cityName": "Houécourt",
      "lat": 48.3,
      "lng": 5.9
    },
    {
      "cityName": "Houéville",
      "lat": 48.366667,
      "lng": 5.816667
    },
    {
      "cityName": "Housselmont",
      "lat": 48.533333,
      "lng": 5.816667
    },
    {
      "cityName": "Housseras",
      "lat": 48.316667,
      "lng": 6.716667
    },
    {
      "cityName": "Housséville",
      "lat": 48.4,
      "lng": 6.116667
    },
    {
      "cityName": "Hudiviller",
      "lat": 48.6,
      "lng": 6.4
    },
    {
      "cityName": "Hultehouse",
      "lat": 48.716667,
      "lng": 7.266667
    },
    {
      "cityName": "Hundling",
      "lat": 49.1,
      "lng": 6.983333
    },
    {
      "cityName": "Hunting",
      "lat": 49.416667,
      "lng": 6.333333
    },
    {
      "cityName": "Hurbache",
      "lat": 48.35,
      "lng": 6.933333
    },
    {
      "cityName": "Hussigny-Godbrange",
      "lat": 49.483333,
      "lng": 5.866667
    },
    {
      "cityName": "Hymont",
      "lat": 48.266667,
      "lng": 6.15
    },
    {
      "cityName": "Ibigny",
      "lat": 48.65,
      "lng": 6.9
    },
    {
      "cityName": "Igney",
      "lat": 48.283333,
      "lng": 6.4
    },
    {
      "cityName": "Illange",
      "lat": 49.333333,
      "lng": 6.183333
    },
    {
      "cityName": "Imeldange",
      "lat": 49.316667,
      "lng": 6.183333
    },
    {
      "cityName": "Imling",
      "lat": 48.716667,
      "lng": 7.016667
    },
    {
      "cityName": "Inglange",
      "lat": 49.35,
      "lng": 6.3
    },
    {
      "cityName": "Inor",
      "lat": 49.55,
      "lng": 5.15
    },
    {
      "cityName": "Insming",
      "lat": 48.95,
      "lng": 6.866667
    },
    {
      "cityName": "Insviller",
      "lat": 48.883333,
      "lng": 6.9
    },
    {
      "cityName": "Ippécourt",
      "lat": 49.033333,
      "lng": 5.2
    },
    {
      "cityName": "Ippling",
      "lat": 49.1,
      "lng": 7
    },
    {
      "cityName": "Iré",
      "lat": 49.483333,
      "lng": 5.383333
    },
    {
      "cityName": "Isches",
      "lat": 48.016667,
      "lng": 5.833333
    },
    {
      "cityName": "Issoncourt",
      "lat": 48.966667,
      "lng": 5.283333
    },
    {
      "cityName": "Ivoiry",
      "lat": 49.266667,
      "lng": 5.1
    },
    {
      "cityName": "Jaillon",
      "lat": 48.75,
      "lng": 5.966667
    },
    {
      "cityName": "Jainvillotte",
      "lat": 48.266667,
      "lng": 5.7
    },
    {
      "cityName": "Jallaucourt",
      "lat": 48.833333,
      "lng": 6.4
    },
    {
      "cityName": "Jametz",
      "lat": 49.433333,
      "lng": 5.383333
    },
    {
      "cityName": "Jarménil",
      "lat": 48.116667,
      "lng": 6.566667
    },
    {
      "cityName": "Jarville",
      "lat": 48.666667,
      "lng": 6.216667
    },
    {
      "cityName": "Jaulny",
      "lat": 48.966667,
      "lng": 5.883333
    },
    {
      "cityName": "Jeandelaincourt",
      "lat": 48.85,
      "lng": 6.233333
    },
    {
      "cityName": "Jeandelize",
      "lat": 49.166667,
      "lng": 5.8
    },
    {
      "cityName": "Jeanménil",
      "lat": 48.333333,
      "lng": 6.683333
    },
    {
      "cityName": "Jésonville",
      "lat": 48.133333,
      "lng": 6.116667
    },
    {
      "cityName": "Jeuxey",
      "lat": 48.2,
      "lng": 6.483333
    },
    {
      "cityName": "Jevoncourt",
      "lat": 48.416667,
      "lng": 6.166667
    },
    {
      "cityName": "Jezainville",
      "lat": 48.866667,
      "lng": 6.033333
    },
    {
      "cityName": "Joeuf",
      "lat": 49.233333,
      "lng": 6.016667
    },
    {
      "cityName": "Jolivet",
      "lat": 48.6,
      "lng": 6.5
    },
    {
      "cityName": "Jonville-en-Woëvre",
      "lat": 49.066667,
      "lng": 5.783333
    },
    {
      "cityName": "Joppécourt",
      "lat": 49.383333,
      "lng": 5.783333
    },
    {
      "cityName": "Jorxey",
      "lat": 48.3,
      "lng": 6.233333
    },
    {
      "cityName": "Jouaville",
      "lat": 49.166667,
      "lng": 5.95
    },
    {
      "cityName": "Joudreville",
      "lat": 49.3,
      "lng": 5.783333
    },
    {
      "cityName": "Jouy-aux-Arches",
      "lat": 49.066667,
      "lng": 6.083333
    },
    {
      "cityName": "Jouy-en-Argonne",
      "lat": 49.133333,
      "lng": 5.216667
    },
    {
      "cityName": "Jouy",
      "lat": 48.766667,
      "lng": 5.683333
    },
    {
      "cityName": "Jubainville",
      "lat": 48.466667,
      "lng": 5.75
    },
    {
      "cityName": "Jubécourt",
      "lat": 49.083333,
      "lng": 5.166667
    },
    {
      "cityName": "Julvécourt",
      "lat": 49.066667,
      "lng": 5.183333
    },
    {
      "cityName": "Jury",
      "lat": 49.066667,
      "lng": 6.25
    },
    {
      "cityName": "Jussarupt",
      "lat": 48.166667,
      "lng": 6.75
    },
    {
      "cityName": "Jussy",
      "lat": 49.1,
      "lng": 6.083333
    },