{
  "name": "Poitou-Charentes",
  "cities": [
    {
      "cityName": "Abenoux",
      "lat": 46.333333,
      "lng": 0.933333
    },
    {
      "cityName": "Abzac",
      "lat": 46.1,
      "lng": 0.7
    },
    {
      "cityName": "Adilly",
      "lat": 46.683333,
      "lng": -0.316667
    },
    {
      "cityName": "Adriers",
      "lat": 46.25,
      "lng": 0.8
    },
    {
      "cityName": "Agonnay",
      "lat": 45.883333,
      "lng": -0.733333
    },
    {
      "cityName": "Agris",
      "lat": 45.783333,
      "lng": 0.333333
    },
    {
      "cityName": "Agudelle",
      "lat": 45.383333,
      "lng": -0.466667
    },
    {
      "cityName": "Aiffres",
      "lat": 46.283333,
      "lng": -0.416667
    },
    {
      "cityName": "Aignes",
      "lat": 45.45,
      "lng": 0.15
    },
    {
      "cityName": "Aigonnay",
      "lat": 46.316667,
      "lng": -0.25
    },
    {
      "cityName": "Aigre",
      "lat": 45.9,
      "lng": 0.016667
    },
    {
      "cityName": "Aigrefeuille",
      "lat": 46.116667,
      "lng": -0.933333
    },
    {
      "cityName": "Aillé",
      "lat": 46.683333,
      "lng": 0.416667
    },
    {
      "cityName": "Airon",
      "lat": 46.833333,
      "lng": -0.016667
    },
    {
      "cityName": "Airoux",
      "lat": 46.316667,
      "lng": 0.416667
    },
    {
      "cityName": "Airvault",
      "lat": 46.833333,
      "lng": -0.15
    },
    {
      "cityName": "Aizecq",
      "lat": 45.983333,
      "lng": 0.283333
    },
    {
      "cityName": "Allards",
      "lat": 45.933333,
      "lng": -1.266667
    },
    {
      "cityName": "Allas",
      "lat": 45.383333,
      "lng": -0.483333
    },
    {
      "cityName": "Allas-Champagne",
      "lat": 45.466667,
      "lng": -0.333333
    },
    {
      "cityName": "Allonne",
      "lat": 46.583333,
      "lng": -0.383333
    },
    {
      "cityName": "Alloué",
      "lat": 46.033333,
      "lng": 0.516667
    },
    {
      "cityName": "Amailloux",
      "lat": 46.75,
      "lng": -0.316667
    },
    {
      "cityName": "Ambérac",
      "lat": 45.85,
      "lng": 0.066667
    },
    {
      "cityName": "Ambernac",
      "lat": 45.983333,
      "lng": 0.533333
    },
    {
      "cityName": "Amberre",
      "lat": 46.783333,
      "lng": 0.15
    },
    {
      "cityName": "Ambleville",
      "lat": 45.55,
      "lng": -0.216667
    },
    {
      "cityName": "Amuré",
      "lat": 46.266667,
      "lng": -0.616667
    },
    {
      "cityName": "Anais",
      "lat": 45.766667,
      "lng": 0.216667
    },
    {
      "cityName": "Anché",
      "lat": 46.35,
      "lng": 0.266667
    },
    {
      "cityName": "Andillé",
      "lat": 46.483333,
      "lng": 0.333333
    },
    {
      "cityName": "Andilly",
      "lat": 46.25,
      "lng": -1.033333
    },
    {
      "cityName": "Angeac",
      "lat": 45.633333,
      "lng": -0.066667
    },
    {
      "cityName": "Angeac-Champagne",
      "lat": 45.6,
      "lng": -0.3
    },
    {
      "cityName": "Angeduc",
      "lat": 45.483333,
      "lng": -0.05
    },
    {
      "cityName": "Angles",
      "lat": 46.7,
      "lng": 0.883333
    },
    {
      "cityName": "Angliers",
      "lat": 46.216667,
      "lng": -0.95
    },
    {
      "cityName": "Angoulême",
      "lat": 45.65,
      "lng": 0.15
    },
    {
      "cityName": "Angoulins",
      "lat": 46.1,
      "lng": -1.083333
    },
    {
      "cityName": "Annepont",
      "lat": 45.85,
      "lng": -0.616667
    },
    {
      "cityName": "Annezay",
      "lat": 46.016667,
      "lng": -0.716667
    },
    {
      "cityName": "Ansac",
      "lat": 46,
      "lng": 0.65
    },
    {
      "cityName": "Antezant",
      "lat": 45.983333,
      "lng": -0.45
    },
    {
      "cityName": "Antignac",
      "lat": 45.5,
      "lng": -0.466667
    },
    {
      "cityName": "Antigny",
      "lat": 46.533333,
      "lng": 0.85
    },
    {
      "cityName": "Antoigné",
      "lat": 46.833333,
      "lng": 0.566667
    },
    {
      "cityName": "Antran",
      "lat": 46.85,
      "lng": 0.533333
    },
    {
      "cityName": "Anville",
      "lat": 45.833333,
      "lng": -0.1
    },
    {
      "cityName": "Anxaumont",
      "lat": 46.583333,
      "lng": 0.45
    },
    {
      "cityName": "Arçais",
      "lat": 46.3,
      "lng": -0.683333
    },
    {
      "cityName": "Arçay",
      "lat": 46.966667,
      "lng": 0.016667
    },
    {
      "cityName": "Arces",
      "lat": 45.55,
      "lng": -0.866667
    },
    {
      "cityName": "Archiac",
      "lat": 45.516667,
      "lng": -0.3
    },
    {
      "cityName": "Archigny",
      "lat": 46.666667,
      "lng": 0.65
    },
    {
      "cityName": "Archingeay",
      "lat": 45.933333,
      "lng": -0.7
    },
    {
      "cityName": "Ardilleux",
      "lat": 46.1,
      "lng": -0.033333
    },
    {
      "cityName": "Ardillières",
      "lat": 46.05,
      "lng": -0.883333
    },
    {
      "cityName": "Ardin",
      "lat": 46.483333,
      "lng": -0.55
    },
    {
      "cityName": "Argentine",
      "lat": 46.883333,
      "lng": -0.166667
    },
    {
      "cityName": "Argenton",
      "lat": 46.983333,
      "lng": -0.45
    },
    {
      "cityName": "Argenton-l' Eglise",
      "lat": 47.05,
      "lng": -0.266667
    },
    {
      "cityName": "Ars",
      "lat": 45.65,
      "lng": -0.383333
    },
    {
      "cityName": "Ars-en-Ré",
      "lat": 46.216667,
      "lng": -1.516667
    },
    {
      "cityName": "Artenac",
      "lat": 45.85,
      "lng": 0.333333
    },
    {
      "cityName": "Arthenac",
      "lat": 45.516667,
      "lng": -0.316667
    },
    {
      "cityName": "Artige",
      "lat": 46.6,
      "lng": 0.833333
    },
    {
      "cityName": "Arvert",
      "lat": 45.733333,
      "lng": -1.133333
    },
    {
      "cityName": "Aslonnes",
      "lat": 46.4,
      "lng": 0.333333
    },
    {
      "cityName": "Asnières",
      "lat": 45.716667,
      "lng": 0.05
    },
    {
      "cityName": "Asnières-en-Poitou",
      "lat": 46.1,
      "lng": -0.183333
    },
    {
      "cityName": "Asnières-la-Giraud",
      "lat": 45.883333,
      "lng": -0.5
    },
    {
      "cityName": "Asnières-sur-Blour",
      "lat": 46.166667,
      "lng": 0.8
    },
    {
      "cityName": "Asnois",
      "lat": 46.116667,
      "lng": 0.416667
    },
    {
      "cityName": "Assais",
      "lat": 46.783333,
      "lng": -0.05
    },
    {
      "cityName": "Aubeterre",
      "lat": 45.266667,
      "lng": 0.166667
    },
    {
      "cityName": "Aubeville",
      "lat": 45.5,
      "lng": -0.016667
    },
    {
      "cityName": "Aubigné",
      "lat": 46.05,
      "lng": -0.133333
    },
    {
      "cityName": "Aubigny",
      "lat": 46.733333,
      "lng": -0.133333
    },
    {
      "cityName": "Auge",
      "lat": 45.85,
      "lng": -0.1
    },
    {
      "cityName": "Auget",
      "lat": 46.4,
      "lng": 0.5
    },
    {
      "cityName": "Aujac",
      "lat": 45.85,
      "lng": -0.4
    },
    {
      "cityName": "Aulnay",
      "lat": 46.016667,
      "lng": -0.35
    },
    {
      "cityName": "Aumagne",
      "lat": 45.866667,
      "lng": -0.4
    },
    {
      "cityName": "Aunac",
      "lat": 45.916667,
      "lng": 0.25
    },
    {
      "cityName": "Aussac",
      "lat": 45.816667,
      "lng": 0.2
    },
    {
      "cityName": "Authon",
      "lat": 45.833333,
      "lng": -0.416667
    },
    {
      "cityName": "Auxances",
      "lat": 46.616667,
      "lng": 0.3
    },
    {
      "cityName": "Auzais",
      "lat": 46.983333,
      "lng": -0.433333
    },
    {
      "cityName": "Availlé",
      "lat": 46.816667,
      "lng": 0.716667
    },
    {
      "cityName": "Availles",
      "lat": 46.116667,
      "lng": 0.65
    },
    {
      "cityName": "Availles-de-Vouneuil",
      "lat": 46.75,
      "lng": 0.566667
    },
    {
      "cityName": "Availles-sur-Chizé",
      "lat": 46.1,
      "lng": -0.35
    },
    {
      "cityName": "Availles-Thouarsais",
      "lat": 46.85,
      "lng": -0.15
    },
    {
      "cityName": "Avanton",
      "lat": 46.666667,
      "lng": 0.316667
    },
    {
      "cityName": "Avon",
      "lat": 46.383333,
      "lng": 0
    },
    {
      "cityName": "Avrigny",
      "lat": 46.883333,
      "lng": 0.4
    },
    {
      "cityName": "Avy",
      "lat": 45.55,
      "lng": -0.5
    },
    {
      "cityName": "Ayron",
      "lat": 46.666667,
      "lng": 0.066667
    },
    {
      "cityName": "Aytré",
      "lat": 46.133333,
      "lng": -1.1
    },
    {
      "cityName": "Azay",
      "lat": 46.4,
      "lng": -0.25
    },
    {
      "cityName": "Azay-sur-Thouet",
      "lat": 46.616667,
      "lng": -0.35
    },
    {
      "cityName": "Bagneux",
      "lat": 47.083333,
      "lng": -0.216667
    },
    {
      "cityName": "Bagnizeau",
      "lat": 45.883333,
      "lng": -0.316667
    },
    {
      "cityName": "Baignes",
      "lat": 45.383333,
      "lng": -0.233333
    },
    {
      "cityName": "Balanzac",
      "lat": 45.733333,
      "lng": -0.833333
    },
    {
      "cityName": "Ballans",
      "lat": 45.816667,
      "lng": -0.216667
    },
    {
      "cityName": "Ballon",
      "lat": 46.05,
      "lng": -0.95
    },
    {
      "cityName": "Balzac",
      "lat": 45.7,
      "lng": 0.116667
    },
    {
      "cityName": "Bandiment",
      "lat": 46.75,
      "lng": 0.466667
    },
    {
      "cityName": "Baptresse",
      "lat": 46.433333,
      "lng": 0.283333
    },
    {
      "cityName": "Barbezières",
      "lat": 45.916667,
      "lng": -0.083333
    },
    {
      "cityName": "Barbezieux",
      "lat": 45.466667,
      "lng": -0.15
    },
    {
      "cityName": "Bardenac",
      "lat": 45.3,
      "lng": -0.016667
    },
    {
      "cityName": "Barret",
      "lat": 45.483333,
      "lng": -0.2
    },
    {
      "cityName": "Barro",
      "lat": 46,
      "lng": 0.216667
    },
    {
      "cityName": "Barzan",
      "lat": 45.533333,
      "lng": -0.85
    },
    {
      "cityName": "Bas-Orbé",
      "lat": 46.966667,
      "lng": -0.15
    },
    {
      "cityName": "Bassac",
      "lat": 45.666667,
      "lng": -0.1
    },
    {
      "cityName": "Basses",
      "lat": 47.033333,
      "lng": 0.116667
    },
    {
      "cityName": "Bayers",
      "lat": 45.916667,
      "lng": 0.233333
    },
    {
      "cityName": "Bazac",
      "lat": 45.216667,
      "lng": 0.05
    },
    {
      "cityName": "Bazauges",
      "lat": 45.916667,
      "lng": -0.166667
    },
    {
      "cityName": "Beau Chêne",
      "lat": 46.8,
      "lng": -0.683333
    },
    {
      "cityName": "Beaugeay",
      "lat": 45.866667,
      "lng": -0.983333
    },
    {
      "cityName": "Beaulieu",
      "lat": 45.55,
      "lng": 0.333333
    },
    {
      "cityName": "Beaulieu-sous-Bressuire",
      "lat": 46.866667,
      "lng": -0.533333
    },
    {
      "cityName": "Beaulieu-sous-Parthenay",
      "lat": 46.583333,
      "lng": -0.233333
    },
    {
      "cityName": "Beaulieu-sur-Sonnette",
      "lat": 45.933333,
      "lng": 0.383333
    },
    {
      "cityName": "Beaumont",
      "lat": 46.733333,
      "lng": 0.433333
    },
    {
      "cityName": "Beauregard",
      "lat": 46.35,
      "lng": 0.633333
    },
    {
      "cityName": "Beaussais",
      "lat": 46.283333,
      "lng": -0.15
    },
    {
      "cityName": "Beauvais",
      "lat": 45.883333,
      "lng": -0.183333
    },
    {
      "cityName": "Beauvoir",
      "lat": 46.166667,
      "lng": -0.466667
    },
    {
      "cityName": "Béceleuf",
      "lat": 46.466667,
      "lng": -0.5
    },
    {
      "cityName": "Bécheresse",
      "lat": 45.5,
      "lng": 0.083333
    },
    {
      "cityName": "Bédenac",
      "lat": 45.166667,
      "lng": -0.3
    },
    {
      "cityName": "Beillant",
      "lat": 45.7,
      "lng": -0.533333
    },
    {
      "cityName": "Bellefois",
      "lat": 46.683333,
      "lng": 0.266667
    },
    {
      "cityName": "Bellefonds",
      "lat": 46.633333,
      "lng": 0.583333
    },
    {
      "cityName": "Belleville",
      "lat": 46.116667,
      "lng": -0.5
    },
    {
      "cityName": "Bellevue",
      "lat": 46.141667,
      "lng": -1.147222
    },
    {
      "cityName": "Bellon",
      "lat": 45.3,
      "lng": 0.116667
    },
    {
      "cityName": "Belluire",
      "lat": 45.533333,
      "lng": -0.566667
    },
    {
      "cityName": "Benassay",
      "lat": 46.566667,
      "lng": 0.05
    },
    {
      "cityName": "Benest",
      "lat": 46.033333,
      "lng": 0.45
    },
    {
      "cityName": "Benon",
      "lat": 46.2,
      "lng": -0.816667
    },
    {
      "cityName": "Bercloux",
      "lat": 45.833333,
      "lng": -0.466667
    },
    {
      "cityName": "Bernac",
      "lat": 46.033333,
      "lng": 0.166667
    },
    {
      "cityName": "Bernai",
      "lat": 46.266667,
      "lng": 0.4
    },
    {
      "cityName": "Bernay",
      "lat": 46.066667,
      "lng": -0.616667
    },
    {
      "cityName": "Berneuil",
      "lat": 45.4,
      "lng": -0.066667
    },
    {
      "cityName": "Berrie",
      "lat": 47.066667,
      "lng": -0.066667
    },
    {
      "cityName": "Berthault",
      "lat": 46.8,
      "lng": 0.35
    },
    {
      "cityName": "Berthegon",
      "lat": 46.9,
      "lng": 0.266667
    },
    {
      "cityName": "Béruges",
      "lat": 46.566667,
      "lng": 0.2
    },
    {
      "cityName": "Bessac",
      "lat": 45.433333,
      "lng": -0.033333
    },
    {
      "cityName": "Bessé",
      "lat": 45.95,
      "lng": 0.066667
    },
    {
      "cityName": "Besselue",
      "lat": 46.136111,
      "lng": -1.147222
    },
    {
      "cityName": "Bessines",
      "lat": 46.3,
      "lng": -0.5
    },
    {
      "cityName": "Béthines",
      "lat": 46.55,
      "lng": 0.983333
    },
    {
      "cityName": "Beurlay",
      "lat": 45.866667,
      "lng": -0.833333
    },
    {
      "cityName": "Beuxes",
      "lat": 47.083333,
      "lng": 0.183333
    },
    {
      "cityName": "Biard",
      "lat": 46.566667,
      "lng": 0.3
    },
    {
      "cityName": "Biarge",
      "lat": 45.95,
      "lng": 0.35
    },
    {
      "cityName": "Bignac",
      "lat": 45.8,
      "lng": 0.066667
    },
    {
      "cityName": "Bignay",
      "lat": 45.916667,
      "lng": -0.6
    },
    {
      "cityName": "Bignoux",
      "lat": 46.6,
      "lng": 0.466667
    },
    {
      "cityName": "Bilazais",
      "lat": 46.933333,
      "lng": -0.1
    },
    {
      "cityName": "Bioussac",
      "lat": 46.033333,
      "lng": 0.283333
    },
    {
      "cityName": "Birac",
      "lat": 45.566667,
      "lng": -0.066667
    },
    {
      "cityName": "Biron",
      "lat": 45.566667,
      "lng": -0.466667
    },
    {
      "cityName": "Blalay",
      "lat": 46.75,
      "lng": 0.25
    },
    {
      "cityName": "Blanzac",
      "lat": 45.483333,
      "lng": 0.033333
    },
    {
      "cityName": "Blanzac-lès-Matha",
      "lat": 45.866667,
      "lng": -0.35
    },
    {
      "cityName": "Blanzaguet",
      "lat": 45.466667,
      "lng": 0.316667
    },
    {
      "cityName": "Blanzay",
      "lat": 46.05,
      "lng": -0.433333
    },
    {
      "cityName": "Boësse",
      "lat": 46.983333,
      "lng": -0.466667
    },
    {
      "cityName": "Bois Augeais",
      "lat": 45.966667,
      "lng": 0.316667
    },
    {
      "cityName": "Bois",
      "lat": 45.483333,
      "lng": -0.6
    },
    {
      "cityName": "Boisbreteau",
      "lat": 45.316667,
      "lng": -0.15
    },
    {
      "cityName": "Boismé",
      "lat": 46.783333,
      "lng": -0.433333
    },
    {
      "cityName": "Boisredon",
      "lat": 45.316667,
      "lng": -0.533333
    },
    {
      "cityName": "Boisserolles",
      "lat": 46.1,
      "lng": -0.466667
    },
    {
      "cityName": "Bois Tizon",
      "lat": 45.866667,
      "lng": 0.45
    },
    {
      "cityName": "Bondilly",
      "lat": 46.7,
      "lng": 0.483333
    },
    {
      "cityName": "Bonnes",
      "lat": 45.233333,
      "lng": 0.15
    },
    {
      "cityName": "Bonneuil",
      "lat": 45.583333,
      "lng": -0.133333
    },
    {
      "cityName": "Bonneuil-Matouis",
      "lat": 46.683333,
      "lng": 0.55
    },
    {
      "cityName": "Bonneville",
      "lat": 45.833333,
      "lng": -0.033333
    },
    {
      "cityName": "Bonnillet",
      "lat": 46.616667,
      "lng": 0.366667
    },
    {
      "cityName": "Borcq",
      "lat": 46.833333,
      "lng": -0.083333
    },
    {
      "cityName": "Bordas",
      "lat": 45.833333,
      "lng": 0.65
    },
    {
      "cityName": "Bords",
      "lat": 45.9,
      "lng": -0.8
    },
    {
      "cityName": "Boresse",
      "lat": 45.283333,
      "lng": -0.116667
    },
    {
      "cityName": "Bors",
      "lat": 45.316667,
      "lng": -0.2
    },
    {
      "cityName": "Bors-de-Montmoreau",
      "lat": 45.35,
      "lng": 0.166667
    },
    {
      "cityName": "Boscamnant",
      "lat": 45.2,
      "lng": -0.066667
    },
    {
      "cityName": "Bouesse",
      "lat": 46.583333,
      "lng": 0.933333
    },
    {
      "cityName": "Bouëx",
      "lat": 45.616667,
      "lng": 0.316667
    },
    {
      "cityName": "Bougneau",
      "lat": 45.6,
      "lng": -0.516667
    },
    {
      "cityName": "Bougon",
      "lat": 46.366667,
      "lng": -0.066667
    },
    {
      "cityName": "Bouhet",
      "lat": 46.166667,
      "lng": -0.866667
    },
    {
      "cityName": "Bouillé",
      "lat": 46.866667,
      "lng": -0.2
    },
    {
      "cityName": "Bouillé-Loretz",
      "lat": 47.083333,
      "lng": -0.283333
    },
    {
      "cityName": "Bouillé-Saint-Paul",
      "lat": 47.033333,
      "lng": -0.35
    },
    {
      "cityName": "Bouin",
      "lat": 46.083333,
      "lng": -0.016667
    },
    {
      "cityName": "Bourcefranc",
      "lat": 45.85,
      "lng": -1.15
    },
    {
      "cityName": "Bouresse",
      "lat": 46.366667,
      "lng": 0.616667
    },
    {
      "cityName": "Bourg-Archambault",
      "lat": 46.383333,
      "lng": 1
    },
    {
      "cityName": "Bourg",
      "lat": 45.666667,
      "lng": -0.233333
    },
    {
      "cityName": "Bourgneuf",
      "lat": 46.166667,
      "lng": -1.016667
    },
    {
      "cityName": "Bournand",
      "lat": 47.083333,
      "lng": 0.066667
    },
    {
      "cityName": "Boussac",
      "lat": 46.516667,
      "lng": 0.816667
    },
    {
      "cityName": "Boussageau",
      "lat": 46.8,
      "lng": 0.3
    },
    {
      "cityName": "Boussais",
      "lat": 46.75,
      "lng": 0.283333
    },
    {
      "cityName": "Bouteville",
      "lat": 45.6,
      "lng": -0.133333
    },
    {
      "cityName": "Boutiers",
      "lat": 45.716667,
      "lng": -0.3
    },
    {
      "cityName": "Boutins",
      "lat": 46.833333,
      "lng": 0.4
    },
    {
      "cityName": "Boyard-Ville",
      "lat": 45.966667,
      "lng": -1.25
    },
    {
      "cityName": "Bran",
      "lat": 45.35,
      "lng": -0.266667
    },
    {
      "cityName": "Breloux",
      "lat": 46.366667,
      "lng": -0.3
    },
    {
      "cityName": "Bresdon",
      "lat": 45.883333,
      "lng": -0.15
    },
    {
      "cityName": "Bressuire",
      "lat": 46.85,
      "lng": -0.483333
    },
    {
      "cityName": "Bretagne",
      "lat": 45.9875,
      "lng": -1.308333
    },
    {
      "cityName": "Brethenoux",
      "lat": 45.833333,
      "lng": 0.783333
    },
    {
      "cityName": "Brétignolle",
      "lat": 46.866667,
      "lng": -0.6
    },
    {
      "cityName": "Brettes",
      "lat": 46,
      "lng": 0.033333
    },
    {
      "cityName": "Breuil-Bernard",
      "lat": 46.716667,
      "lng": -0.55
    },
    {
      "cityName": "Breuil",
      "lat": 46.05,
      "lng": -0.683333
    },
    {
      "cityName": "Breuil-Chaussée",
      "lat": 46.833333,
      "lng": -0.55
    },
    {
      "cityName": "Breuillet",
      "lat": 45.7,
      "lng": -1.05
    },
    {
      "cityName": "Breuil-Magné",
      "lat": 45.983333,
      "lng": -0.966667
    },
    {
      "cityName": "Breuil-Mingot",
      "lat": 46.583333,
      "lng": 0.4
    },
    {
      "cityName": "Bréville",
      "lat": 45.8,
      "lng": -0.266667
    },
    {
      "cityName": "Brie",
      "lat": 45.316667,
      "lng": 0
    },
    {
      "cityName": "Brie-sous-Archiac",
      "lat": 45.483333,
      "lng": -0.3
    },
    {
      "cityName": "Brie-sous-Matha",
      "lat": 45.816667,
      "lng": -0.25
    },
    {
      "cityName": "Brie-sous-Mortagne",
      "lat": 45.5,
      "lng": -0.75
    },
    {
      "cityName": "Brieuil",
      "lat": 46.116667,
      "lng": -0.316667
    },
    {
      "cityName": "Brigueil-le-Chantre",
      "lat": 46.4,
      "lng": 1.083333
    },
    {
      "cityName": "Brigueuil",
      "lat": 45.95,
      "lng": 0.866667
    },
    {
      "cityName": "Brillac",
      "lat": 46.066667,
      "lng": 0.783333
    },
    {
      "cityName": "Brion",
      "lat": 46.35,
      "lng": 0.466667
    },
    {
      "cityName": "Brion-près-Thouet",
      "lat": 47.05,
      "lng": -0.183333
    },
    {
      "cityName": "Brioux",
      "lat": 46.133333,
      "lng": -0.216667
    },
    {
      "cityName": "Brives",
      "lat": 45.666667,
      "lng": -0.466667
    },
    {
      "cityName": "Brizambourg",
      "lat": 45.816667,
      "lng": -0.483333
    },
    {
      "cityName": "Brossac",
      "lat": 45.333333,
      "lng": -0.05
    },
    {
      "cityName": "Brouage",
      "lat": 45.866667,
      "lng": -1.066667
    },
    {
      "cityName": "Brouterie",
      "lat": 45.666667,
      "lng": 0.283333
    },
    {
      "cityName": "Brûlain",
      "lat": 46.2,
      "lng": -0.316667
    },
    {
      "cityName": "Brux",
      "lat": 46.233333,
      "lng": 0.2
    },
    {
      "cityName": "Bunzac",
      "lat": 45.7,
      "lng": 0.35
    },
    {
      "cityName": "Burgaud",
      "lat": 45.85,
      "lng": 0.4
    },
    {
      "cityName": "Burie",
      "lat": 45.766667,
      "lng": -0.416667
    },
    {
      "cityName": "Bussac",
      "lat": 45.216667,
      "lng": -0.366667
    },
    {
      "cityName": "Busseroux",
      "lat": 46.3,
      "lng": 0.516667
    },
    {
      "cityName": "Bussiereix",
      "lat": 45.933333,
      "lng": 0.85
    },
    {
      "cityName": "Buxerolles",
      "lat": 46.616667,
      "lng": 0.483333
    },
    {
      "cityName": "Buxeuil",
      "lat": 46.966667,
      "lng": 0.666667
    },
    {
      "cityName": "Cabariot",
      "lat": 45.916667,
      "lng": -0.85
    },
    {
      "cityName": "Caillere",
      "lat": 45.766667,
      "lng": 0.333333
    },
    {
      "cityName": "Caunay",
      "lat": 46.2,
      "lng": 0.083333
    },
    {
      "cityName": "Céaux",
      "lat": 46.316667,
      "lng": 0.233333
    },
    {
      "cityName": "Ceaux-en-Loudun",
      "lat": 47.016667,
      "lng": 0.233333
    },
    {
      "cityName": "Celle",
      "lat": 46.433333,
      "lng": 0.183333
    },
    {
      "cityName": "Cellefrouin",
      "lat": 45.9,
      "lng": 0.383333
    },
    {
      "cityName": "Celles",
      "lat": 45.6,
      "lng": -0.366667
    },
    {
      "cityName": "Celles-sur-Belle",
      "lat": 46.266667,
      "lng": -0.2
    },
    {
      "cityName": "Cellettes",
      "lat": 45.866667,
      "lng": 0.15
    },
    {
      "cityName": "Cenan",
      "lat": 46.633333,
      "lng": 0.716667
    },
    {
      "cityName": "Cenon",
      "lat": 46.766667,
      "lng": 0.533333
    },
    {
      "cityName": "Cercoux",
      "lat": 45.133333,
      "lng": -0.2
    },
    {
      "cityName": "Cerizay",
      "lat": 46.816667,
      "lng": -0.666667
    },
    {
      "cityName": "Cernay",
      "lat": 46.833333,
      "lng": 0.3
    },
    {
      "cityName": "Cersay",
      "lat": 47.05,
      "lng": -0.35
    },
    {
      "cityName": "Chabanais",
      "lat": 45.866667,
      "lng": 0.716667
    },
    {
      "cityName": "Chablanc",
      "lat": 45.783333,
      "lng": 0.616667
    },
    {
      "cityName": "Chabonne",
      "lat": 46.733333,
      "lng": 0.55
    },
    {
      "cityName": "Chabournay",
      "lat": 46.716667,
      "lng": 0.266667
    },
    {
      "cityName": "Chabrac",
      "lat": 45.933333,
      "lng": 0.733333
    },
    {
      "cityName": "Chadenac",
      "lat": 45.55,
      "lng": -0.433333
    },
    {
      "cityName": "Chadurie",
      "lat": 45.5,
      "lng": 0.133333
    },
    {
      "cityName": "Chail",
      "lat": 46.2,
      "lng": -0.1
    },
    {
      "cityName": "Chaillevette",
      "lat": 45.733333,
      "lng": -1.05
    },
    {
      "cityName": "Chalais",
      "lat": 45.283333,
      "lng": 0.033333
    },
    {
      "cityName": "Chalandray",
      "lat": 46.666667,
      "lng": 0
    },
    {
      "cityName": "Challignac",
      "lat": 45.416667,
      "lng": -0.083333
    },
    {
      "cityName": "Chambon",
      "lat": 46.133333,
      "lng": -0.85
    },
    {
      "cityName": "Chambroutet",
      "lat": 46.883333,
      "lng": -0.466667
    },
    {
      "cityName": "Chamouillac",
      "lat": 45.316667,
      "lng": -0.466667
    },
    {
      "cityName": "Champagnac",
      "lat": 45.416667,
      "lng": -0.383333
    },
    {
      "cityName": "Champagne",
      "lat": 45.516667,
      "lng": 0.033333
    },
    {
      "cityName": "Champagné-le-Sec",
      "lat": 46.183333,
      "lng": 0.2
    },
    {
      "cityName": "Champagne-Lureau",
      "lat": 46.2,
      "lng": 0.316667
    },
    {
      "cityName": "Champagne-Mouton",
      "lat": 45.983333,
      "lng": 0.416667
    },
    {
      "cityName": "Champagné-Saint-Hilaire",
      "lat": 46.316667,
      "lng": 0.333333
    },
    {
      "cityName": "Champagnolles",
      "lat": 45.516667,
      "lng": -0.633333
    },
    {
      "cityName": "Champau",
      "lat": 46.95,
      "lng": 0.233333
    },
    {
      "cityName": "Champ de Gain",
      "lat": 46.65,
      "lng": 0.45
    },
    {
      "cityName": "Champdeniers",
      "lat": 46.483333,
      "lng": -0.4
    },
    {
      "cityName": "Champdigon",
      "lat": 46.9,
      "lng": 0.516667
    },
    {
      "cityName": "Champdolent",
      "lat": 45.916667,
      "lng": -0.8
    },
    {
      "cityName": "Champeaux",
      "lat": 46.483333,
      "lng": -0.35
    },
    {
      "cityName": "Champigny",
      "lat": 46.716667,
      "lng": 0.15
    },
    {
      "cityName": "Champmillon",
      "lat": 45.633333,
      "lng": 0
    },
    {
      "cityName": "Champniers",
      "lat": 45.716667,
      "lng": 0.2
    },
    {
      "cityName": "Champ Salé",
      "lat": 46.85,
      "lng": 0.283333
    },
    {
      "cityName": "Champs",
      "lat": 46.35,
      "lng": 1
    },
    {
      "cityName": "Chaniers",
      "lat": 45.716667,
      "lng": -0.55
    },
    {
      "cityName": "Chantecorps",
      "lat": 46.5,
      "lng": -0.15
    },
    {
      "cityName": "Chanteloube",
      "lat": 45.9,
      "lng": 0.283333
    },
    {
      "cityName": "Chante Loube",
      "lat": 46.4,
      "lng": 1
    },
    {
      "cityName": "Chanteloup",
      "lat": 46.4,
      "lng": 0.633333
    },
    {
      "cityName": "Chantemerle",
      "lat": 45.983333,
      "lng": -0.65
    },
    {
      "cityName": "Chantillac",
      "lat": 45.333333,
      "lng": -0.25
    },
    {
      "cityName": "Chantrezac",
      "lat": 45.933333,
      "lng": 0.55
    },
    {
      "cityName": "Chapelle-Bâton",
      "lat": 46.183333,
      "lng": 0.4
    },
    {
      "cityName": "Chapelle",
      "lat": 46.483333,
      "lng": 0.6
    },
    {
      "cityName": "Chapelle-Montreuil",
      "lat": 46.533333,
      "lng": 0.116667
    },
    {
      "cityName": "Chapelle-Viviers",
      "lat": 46.483333,
      "lng": 0.733333
    },
    {
      "cityName": "Charasse",
      "lat": 46.616667,
      "lng": 0.466667
    },
    {
      "cityName": "Chardat",
      "lat": 46.116667,
      "lng": 0.733333
    },
    {
      "cityName": "Chardes",
      "lat": 45.3,
      "lng": -0.383333
    },
    {
      "cityName": "Charmant",
      "lat": 45.5,
      "lng": 0.183333
    },
    {
      "cityName": "Charmé",
      "lat": 45.95,
      "lng": 0.116667
    },
    {
      "cityName": "Charrais",
      "lat": 46.7,
      "lng": 0.183333
    },
    {
      "cityName": "Charras",
      "lat": 45.533333,
      "lng": 0.416667
    },
    {
      "cityName": "Charron",
      "lat": 46.283333,
      "lng": -1.1
    },
    {
      "cityName": "Charroux",
      "lat": 46.15,
      "lng": 0.4
    },
    {
      "cityName": "Chartuzac",
      "lat": 45.333333,
      "lng": -0.416667
    },
    {
      "cityName": "Chasseneuil",
      "lat": 45.816667,
      "lng": 0.45
    },
    {
      "cityName": "Chasseneuil-du-Poitou",
      "lat": 46.65,
      "lng": 0.366667
    },
    {
      "cityName": "Chassenon",
      "lat": 45.85,
      "lng": 0.766667
    },
    {
      "cityName": "Chassiecq",
      "lat": 45.95,
      "lng": 0.383333
    },
    {
      "cityName": "Chassigny",
      "lat": 46.95,
      "lng": -0.016667
    },
    {
      "cityName": "Chassiron",
      "lat": 46.041667,
      "lng": -1.4
    },
    {
      "cityName": "Chassors",
      "lat": 45.7,
      "lng": -0.216667
    },
    {
      "cityName": "Chatain-Besson",
      "lat": 45.683333,
      "lng": 0.55
    },
    {
      "cityName": "Chatain",
      "lat": 46.066667,
      "lng": 0.433333
    },
    {
      "cityName": "Châteaubernard",
      "lat": 45.666667,
      "lng": -0.333333
    },
    {
      "cityName": "Château-Garnier",
      "lat": 46.266667,
      "lng": 0.416667
    },
    {
      "cityName": "Château-Larcher",
      "lat": 46.416667,
      "lng": 0.316667
    },
    {
      "cityName": "Châteauneuf",
      "lat": 45.6,
      "lng": -0.05
    },
    {
      "cityName": "Châtelaillon",
      "lat": 46.066667,
      "lng": -1.083333
    },
    {
      "cityName": "Châtellerault",
      "lat": 46.8,
      "lng": 0.533333
    },
    {
      "cityName": "Châtenet",
      "lat": 45.3,
      "lng": -0.3
    },
    {
      "cityName": "Châtignac",
      "lat": 45.35,
      "lng": 0
    },
    {
      "cityName": "Châtillon",
      "lat": 46.316667,
      "lng": 0.2
    },
    {
      "cityName": "Châtillon-sur-Sèvre",
      "lat": 46.916667,
      "lng": -0.75
    },
    {
      "cityName": "Châtillon-sur-Thouet",
      "lat": 46.65,
      "lng": -0.233333
    },
    {
      "cityName": "Chaucre",
      "lat": 45.9875,
      "lng": -1.372222
    },
    {
      "cityName": "Chaunac",
      "lat": 45.366667,
      "lng": -0.366667
    },
    {
      "cityName": "Chaunay",
      "lat": 46.2,
      "lng": 0.166667
    },
    {
      "cityName": "Chauray",
      "lat": 46.35,
      "lng": -0.383333
    },
    {
      "cityName": "Chauvigny",
      "lat": 46.566667,
      "lng": 0.65
    },
    {
      "cityName": "Chavagnac",
      "lat": 45.883333,
      "lng": 0.416667
    },
    {
      "cityName": "Chavagné",
      "lat": 46.333333,
      "lng": -0.316667
    },
    {
      "cityName": "Chavenat",
      "lat": 45.45,
      "lng": 0.166667
    },
    {
      "cityName": "Chazelles",
      "lat": 45.65,
      "lng": 0.366667
    },
    {
      "cityName": "Chef-Boutonne",
      "lat": 46.1,
      "lng": -0.05
    },
    {
      "cityName": "Chenac",
      "lat": 45.516667,
      "lng": -0.816667
    },
    {
      "cityName": "Chenay",
      "lat": 46.316667,
      "lng": -0.033333
    },
    {
      "cityName": "Chéneché",
      "lat": 46.733333,
      "lng": 0.283333
    },
    {
      "cityName": "Chene l'Abbe",
      "lat": 46.616667,
      "lng": 0.533333
    },
    {
      "cityName": "Chenevelle",
      "lat": 46.716667,
      "lng": 0.616667
    },
    {
      "cityName": "Chenommet",
      "lat": 45.933333,
      "lng": 0.25
    },
    {
      "cityName": "Chenon",
      "lat": 45.95,
      "lng": 0.25
    },
    {
      "cityName": "Chepniers",
      "lat": 45.25,
      "lng": -0.3
    },
    {
      "cityName": "Chérac",
      "lat": 45.7,
      "lng": -0.433333
    },
    {
      "cityName": "Cherao",
      "lat": 45.75,
      "lng": -0.35
    },
    {
      "cityName": "Cherbonnières",
      "lat": 45.966667,
      "lng": -0.35
    },
    {
      "cityName": "Chérigné",
      "lat": 46.116667,
      "lng": -0.166667
    },
    {
      "cityName": "Chermignac",
      "lat": 45.683333,
      "lng": -0.666667
    },
    {
      "cityName": "Cherves-Châtelars",
      "lat": 45.8,
      "lng": 0.55
    },
    {
      "cityName": "Chervettes",
      "lat": 46.05,
      "lng": -0.7
    },
    {
      "cityName": "Cherveux",
      "lat": 46.416667,
      "lng": -0.35
    },
    {
      "cityName": "Chevanceaux",
      "lat": 45.3,
      "lng": -0.233333
    },
    {
      "cityName": "Chey",
      "lat": 46.3,
      "lng": -0.05
    },
    {
      "cityName": "Chez Clergeau",
      "lat": 45.666667,
      "lng": 0.516667
    },
    {
      "cityName": "Chez Léobé",
      "lat": 46.3,
      "lng": 0.983333
    },
    {
      "cityName": "Chez Pouvaraud",
      "lat": 45.966667,
      "lng": 0.4
    },
    {
      "cityName": "Chez-Roger",
      "lat": 45.85,
      "lng": 0.35
    },
    {
      "cityName": "Chez Vincent",
      "lat": 45.633333,
      "lng": 0.5
    },
    {
      "cityName": "Chiché",
      "lat": 46.8,
      "lng": -0.366667
    },
    {
      "cityName": "Chichiat",
      "lat": 45.85,
      "lng": 0.55
    },
    {
      "cityName": "Chillac",
      "lat": 45.366667,
      "lng": -0.083333
    },
    {
      "cityName": "Chincé",
      "lat": 46.7,
      "lng": 0.35
    },
    {
      "cityName": "Chirac",
      "lat": 45.916667,
      "lng": 0.65
    },
    {
      "cityName": "Chiré",
      "lat": 46.65,
      "lng": 0.133333
    },
    {
      "cityName": "Chiré-le-Bois",
      "lat": 46.416667,
      "lng": 0.483333
    },
    {
      "cityName": "Chives",
      "lat": 45.95,
      "lng": -0.116667
    },
    {
      "cityName": "Chizé",
      "lat": 46.116667,
      "lng": -0.35
    },
    {
      "cityName": "Chouppes",
      "lat": 46.816667,
      "lng": 0.166667
    },
    {
      "cityName": "Cierzac",
      "lat": 45.566667,
      "lng": -0.316667
    },
    {
      "cityName": "Ciré",
      "lat": 46.05,
      "lng": -0.933333
    },
    {
      "cityName": "Cirière",
      "lat": 46.833333,
      "lng": -0.616667
    },
    {
      "cityName": "Cissé",
      "lat": 46.65,
      "lng": 0.25
    },
    {
      "cityName": "Cité de Beauregard",
      "lat": 46.172222,
      "lng": -1.138889
    },
    {
      "cityName": "Cité de Bongraine",
      "lat": 46.140278,
      "lng": -1.138889
    },
    {
      "cityName": "Cité de la Vacherie",
      "lat": 46.165278,
      "lng": -1.195833
    },
    {
      "cityName": "Cité de Port-Neuf",
      "lat": 46.158333,
      "lng": -1.183333
    },
    {
      "cityName": "Cité du Prieuré",
      "lat": 46.177778,
      "lng": -1.145833
    },
    {
      "cityName": "Cité Franc-Espoir",
      "lat": 46.172222,
      "lng": -1.161111
    },
    {
      "cityName": "Cité Oncor",
      "lat": 46.169444,
      "lng": -1.195833
    },
    {
      "cityName": "Civaux",
      "lat": 46.45,
      "lng": 0.666667
    },
    {
      "cityName": "Civray",
      "lat": 46.15,
      "lng": 0.3
    },
    {
      "cityName": "Claix",
      "lat": 45.55,
      "lng": 0.05
    },
    {
      "cityName": "Clam",
      "lat": 45.5,
      "lng": -0.45
    },
    {
      "cityName": "Claunay",
      "lat": 46.983333,
      "lng": 0.2
    },
    {
      "cityName": "Clavé",
      "lat": 46.5,
      "lng": -0.216667
    },
    {
      "cityName": "Clavette",
      "lat": 46.133333,
      "lng": -1.016667
    },
    {
      "cityName": "Clazay",
      "lat": 46.8,
      "lng": -0.566667
    },
    {
      "cityName": "Clérac",
      "lat": 45.183333,
      "lng": -0.216667
    },
    {
      "cityName": "Clessé",
      "lat": 46.716667,
      "lng": -0.416667
    },
    {
      "cityName": "Clion",
      "lat": 45.483333,
      "lng": -0.5
    },
    {
      "cityName": "Cloué",
      "lat": 46.433333,
      "lng": 0.166667
    },
    {
      "cityName": "Cloulas",
      "lat": 45.55,
      "lng": 0.316667
    },
    {
      "cityName": "Clussais",
      "lat": 46.2,
      "lng": 0.05
    },
    {
      "cityName": "Cognac",
      "lat": 45.7,
      "lng": -0.333333
    },
    {
      "cityName": "Coivert",
      "lat": 46.066667,
      "lng": -0.45
    },
    {
      "cityName": "Colombiers",
      "lat": 45.65,
      "lng": -0.55
    },
    {
      "cityName": "Combiers",
      "lat": 45.5,
      "lng": 0.416667
    },
    {
      "cityName": "Combrand",
      "lat": 46.866667,
      "lng": -0.683333
    },
    {
      "cityName": "Concise",
      "lat": 46.45,
      "lng": 0.866667
    },
    {
      "cityName": "Condac",
      "lat": 46.016667,
      "lng": 0.233333
    },
    {
      "cityName": "Condadeuil",
      "lat": 45.75,
      "lng": 0.516667
    },
    {
      "cityName": "Condéon",
      "lat": 45.4,
      "lng": -0.133333
    },
    {
      "cityName": "Confolens",
      "lat": 46.016667,
      "lng": 0.666667
    },
    {
      "cityName": "Consac",
      "lat": 45.416667,
      "lng": -0.6
    },
    {
      "cityName": "Contré",
      "lat": 46.016667,
      "lng": -0.283333
    },
    {
      "cityName": "Corignac",
      "lat": 45.25,
      "lng": -0.383333
    },
    {
      "cityName": "Corme-Écluse",
      "lat": 45.633333,
      "lng": -0.85
    },
    {
      "cityName": "Cormenier",
      "lat": 46.183333,
      "lng": -0.466667
    },
    {
      "cityName": "Corme-Royal",
      "lat": 45.75,
      "lng": -0.816667
    },
    {
      "cityName": "Cornac",
      "lat": 46.1,
      "lng": 0.283333
    },
    {
      "cityName": "Couché",
      "lat": 46.3,
      "lng": 0.183333
    },
    {
      "cityName": "Coudavid",
      "lat": 46.583333,
      "lng": 0.516667
    },
    {
      "cityName": "Coulgens",
      "lat": 45.816667,
      "lng": 0.283333
    },
    {
      "cityName": "Coulombiers",
      "lat": 46.483333,
      "lng": 0.183333
    },
    {
      "cityName": "Coulon",
      "lat": 46.316667,
      "lng": -0.583333
    },
    {
      "cityName": "Coulonges",
      "lat": 45.616667,
      "lng": -0.416667
    },
    {
      "cityName": "Coulonges-sur-l'Autise",
      "lat": 46.483333,
      "lng": -0.6
    },
    {
      "cityName": "Coulonges-Thouarsais",
      "lat": 46.933333,
      "lng": -0.316667
    },
    {
      "cityName": "Courant",
      "lat": 46.033333,
      "lng": -0.566667
    },
    {
      "cityName": "Courbillac",
      "lat": 45.766667,
      "lng": -0.166667
    },
    {
      "cityName": "Courcerac",
      "lat": 45.833333,
      "lng": -0.366667
    },
    {
      "cityName": "Courcôme",
      "lat": 45.983333,
      "lng": 0.133333
    },
    {
      "cityName": "Courçon",
      "lat": 46.25,
      "lng": -0.816667
    },
    {
      "cityName": "Courcoury",
      "lat": 45.716667,
      "lng": -0.583333
    },
    {
      "cityName": "Courgeac",
      "lat": 45.4,
      "lng": 0.083333
    },
    {
      "cityName": "Courlac",
      "lat": 45.3,
      "lng": 0.083333
    },
    {
      "cityName": "Courlay",
      "lat": 46.783333,
      "lng": -0.566667
    },
    {
      "cityName": "Courpignac",
      "lat": 45.333333,
      "lng": -0.483333
    },
    {
      "cityName": "Cours",
      "lat": 46.5,
      "lng": -0.416667
    },
    {
      "cityName": "Coussay",
      "lat": 46.833333,
      "lng": 0.2
    },
    {
      "cityName": "Coussay-les-Bois",
      "lat": 46.8,
      "lng": 0.75
    },
    {
      "cityName": "Coutières",
      "lat": 46.5,
      "lng": -0.116667
    },
    {
      "cityName": "Couture",
      "lat": 45.933333,
      "lng": 0.283333
    },
    {
      "cityName": "Couture-d'Argenson",
      "lat": 46,
      "lng": -0.083333
    },
    {
      "cityName": "Coux",
      "lat": 45.316667,
      "lng": -0.416667
    },
    {
      "cityName": "Cozes",
      "lat": 45.583333,
      "lng": -0.833333
    },
    {
      "cityName": "Cramchaban",
      "lat": 46.216667,
      "lng": -0.716667
    },
    {
      "cityName": "Craon",
      "lat": 46.783333,
      "lng": 0.033333
    },
    {
      "cityName": "Cravans",
      "lat": 45.6,
      "lng": -0.7
    },
    {
      "cityName": "Crazannes",
      "lat": 45.85,
      "lng": -0.7
    },
    {
      "cityName": "Crémille",
      "lat": 46.733333,
      "lng": 0.8
    },
    {
      "cityName": "Cressac",
      "lat": 45.45,
      "lng": 0.016667
    },
    {
      "cityName": "Cressé",
      "lat": 45.916667,
      "lng": -0.216667
    },
    {
      "cityName": "Crézières",
      "lat": 46.083333,
      "lng": -0.133333
    },
    {
      "cityName": "Criteuil",
      "lat": 45.533333,
      "lng": -0.216667
    },
    {
      "cityName": "Croix-Chapeau",
      "lat": 46.1,
      "lng": -1
    },
    {
      "cityName": "Croutelle",
      "lat": 46.533333,
      "lng": 0.283333
    },
    {
      "cityName": "Cubord",
      "lat": 46.483333,
      "lng": 0.65
    },
    {
      "cityName": "Cuhon",
      "lat": 46.766667,
      "lng": 0.1
    },
    {
      "cityName": "Curac",
      "lat": 45.3,
      "lng": 0.033333
    },
    {
      "cityName": "Curçay",
      "lat": 47.016667,
      "lng": -0.05
    },
    {
      "cityName": "Curzay",
      "lat": 46.483333,
      "lng": 0.05
    },
    {
      "cityName": "Dampierre",
      "lat": 46.066667,
      "lng": -0.4
    },
    {
      "cityName": "Dangé",
      "lat": 46.933333,
      "lng": 0.6
    },
    {
      "cityName": "Déramée",
      "lat": 46.225,
      "lng": -1.433333
    },
    {
      "cityName": "Deviat",
      "lat": 45.416667,
      "lng": 0.016667
    },
    {
      "cityName": "Dienné",
      "lat": 46.45,
      "lng": 0.55
    },
    {
      "cityName": "Dignac",
      "lat": 45.55,
      "lng": 0.283333
    },
    {
      "cityName": "Dirac",
      "lat": 45.6,
      "lng": 0.25
    },
    {
      "cityName": "Disac",
      "lat": 46.533333,
      "lng": 0.766667
    },
    {
      "cityName": "Dissais",
      "lat": 46.7,
      "lng": 0.433333
    },
    {
      "cityName": "Doeuil",
      "lat": 46.116667,
      "lng": -0.533333
    },
    {
      "cityName": "Dognon",
      "lat": 46.383333,
      "lng": 0.466667
    },
    {
      "cityName": "Dolus",
      "lat": 45.916667,
      "lng": -1.266667
    },
    {
      "cityName": "Domine",
      "lat": 46.75,
      "lng": 0.5
    },
    {
      "cityName": "Dompierre",
      "lat": 45.7,
      "lng": -0.483333
    },
    {
      "cityName": "Dompierre-sur-Mer",
      "lat": 46.183333,
      "lng": -1.066667
    },
    {
      "cityName": "Doumérac",
      "lat": 45.566667,
      "lng": 0.416667
    },
    {
      "cityName": "Douron",
      "lat": 46.85,
      "lng": -0.083333
    },
    {
      "cityName": "Doussac",
      "lat": 46.516667,
      "lng": 1
    },
    {
      "cityName": "Doussay",
      "lat": 46.833333,
      "lng": 0.266667
    },
    {
      "cityName": "Doux",
      "lat": 46.75,
      "lng": 0.016667
    },
    {
      "cityName": "Douzat",
      "lat": 45.716667,
      "lng": 0
    },
    {
      "cityName": "Ébéon",
      "lat": 45.866667,
      "lng": -0.433333
    },
    {
      "cityName": "Ébréon",
      "lat": 45.933333,
      "lng": 0.033333
    },
    {
      "cityName": "Échallat",
      "lat": 45.716667,
      "lng": -0.033333
    },
    {
      "cityName": "Échebrune",
      "lat": 45.583333,
      "lng": -0.45
    },
    {
      "cityName": "Échillais",
      "lat": 45.9,
      "lng": -0.95
    },
    {
      "cityName": "Échiré",
      "lat": 46.383333,
      "lng": -0.4
    },
    {
      "cityName": "Écossas",
      "lat": 45.883333,
      "lng": 0.766667
    },
    {
      "cityName": "Écoyeux",
      "lat": 45.816667,
      "lng": -0.5
    },
    {
      "cityName": "Ecuias",
      "lat": 45.683333,
      "lng": 0.566667
    },
    {
      "cityName": "Écurat",
      "lat": 45.783333,
      "lng": -0.666667
    },
    {
      "cityName": "Édon",
      "lat": 45.483333,
      "lng": 0.35
    },
    {
      "cityName": "Embourie",
      "lat": 46.033333,
      "lng": 0.033333
    },
    {
      "cityName": "Empuré",
      "lat": 46.016667,
      "lng": 0.05
    },
    {
      "cityName": "Ensigné",
      "lat": 46.083333,
      "lng": -0.233333
    },
    {
      "cityName": "Ensoulesse",
      "lat": 46.616667,
      "lng": 0.4
    },
    {
      "cityName": "Épannes",
      "lat": 46.233333,
      "lng": -0.583333
    },
    {
      "cityName": "Épargnes",
      "lat": 45.55,
      "lng": -0.8
    },
    {
      "cityName": "Épenède",
      "lat": 46.066667,
      "lng": 0.533333
    },
    {
      "cityName": "Éport",
      "lat": 46.483333,
      "lng": 0.966667
    },
    {
      "cityName": "Éports",
      "lat": 46.366667,
      "lng": 1.116667
    },
    {
      "cityName": "Éraville",
      "lat": 45.583333,
      "lng": -0.083333
    },
    {
      "cityName": "Esnandes",
      "lat": 46.25,
      "lng": -1.083333
    },
    {
      "cityName": "Esse",
      "lat": 46.033333,
      "lng": 0.716667
    },
    {
      "cityName": "Étagnac",
      "lat": 45.9,
      "lng": 0.783333
    },
    {
      "cityName": "Étambé",
      "lat": 47.05,
      "lng": -0.2
    },
    {
      "cityName": "Étaules",
      "lat": 45.733333,
      "lng": -1.1
    },
    {
      "cityName": "Étivault",
      "lat": 46.283333,
      "lng": 0.283333
    },
    {
      "cityName": "Étriac",
      "lat": 45.533333,
      "lng": -0.016667
    },
    {
      "cityName": "Étusson",
      "lat": 47.016667,
      "lng": -0.516667
    },
    {
      "cityName": "Excideuil",
      "lat": 45.883333,
      "lng": 0.683333
    },
    {
      "cityName": "Exireuil",
      "lat": 46.433333,
      "lng": -0.183333
    },
    {
      "cityName": "Exoudun",
      "lat": 46.333333,
      "lng": -0.066667
    },
    {
      "cityName": "Expiremont",
      "lat": 45.316667,
      "lng": -0.366667
    },
    {
      "cityName": "Eymouthiers",
      "lat": 45.65,
      "lng": 0.55
    },
    {
      "cityName": "Faye",
      "lat": 46.45,
      "lng": -0.516667
    },
    {
      "cityName": "Faye-l'Abbesse",
      "lat": 46.833333,
      "lng": -0.35
    },
    {
      "cityName": "Fénery",
      "lat": 46.683333,
      "lng": -0.366667
    },
    {
      "cityName": "Fenioux",
      "lat": 45.9,
      "lng": -0.6
    },
    {
      "cityName": "Féraboeuf",
      "lat": 46.366667,
      "lng": 0.35
    },
    {
      "cityName": "Ferdinas",
      "lat": 45.55,
      "lng": 0.5
    },
    {
      "cityName": "Ferrières",
      "lat": 46.233333,
      "lng": -0.85
    },
    {
      "cityName": "Fétilly",
      "lat": 46.175,
      "lng": -1.155556
    },
    {
      "cityName": "Feuillade",
      "lat": 45.6,
      "lng": 0.466667
    },
    {
      "cityName": "Fléac",
      "lat": 45.533333,
      "lng": -0.533333
    },
    {
      "cityName": "Flée",
      "lat": 46.55,
      "lng": 0.366667
    },
    {
      "cityName": "Fleix",
      "lat": 46.4,
      "lng": 1.1
    },
    {
      "cityName": "Fleurac",
      "lat": 45.716667,
      "lng": -0.083333
    },
    {
      "cityName": "Fleuransan",
      "lat": 46.25,
      "lng": 0.55
    },
    {
      "cityName": "Fleuré",
      "lat": 46.483333,
      "lng": 0.516667
    },
    {
      "cityName": "Fleurignac",
      "lat": 45.766667,
      "lng": 0.433333
    },
    {
      "cityName": "Floirac",
      "lat": 45.483333,
      "lng": -0.75
    },
    {
      "cityName": "Fomperron",
      "lat": 46.483333,
      "lng": -0.1
    },
    {
      "cityName": "Fontaine-Chalandray",
      "lat": 45.95,
      "lng": -0.183333
    },
    {
      "cityName": "Fontaine",
      "lat": 46.533333,
      "lng": 0.25
    },
    {
      "cityName": "Fontaine-le-Comte",
      "lat": 46.533333,
      "lng": 0.266667
    },
    {
      "cityName": "Fontaines-d'Ozillac",
      "lat": 45.383333,
      "lng": -0.383333
    },
    {
      "cityName": "Fontclaireau",
      "lat": 45.883333,
      "lng": 0.2
    },
    {
      "cityName": "Fontcouverte",
      "lat": 45.766667,
      "lng": -0.583333
    },
    {
      "cityName": "Fontcreuse",
      "lat": 46.983333,
      "lng": 0.466667
    },
    {
      "cityName": "Fontemille",
      "lat": 45.916667,
      "lng": 0.166667
    },
    {
      "cityName": "Fontenet",
      "lat": 45.916667,
      "lng": -0.45
    },
    {
      "cityName": "Forges",
      "lat": 46.1,
      "lng": -0.9
    },
    {
      "cityName": "Fors",
      "lat": 46.233333,
      "lng": -0.4
    },
    {
      "cityName": "Fougères",
      "lat": 45.833333,
      "lng": 0.283333
    },
    {
      "cityName": "Foulerot",
      "lat": 45.983333,
      "lng": -1.308333
    },
    {
      "cityName": "Fouquebrune",
      "lat": 45.533333,
      "lng": 0.2
    },
    {
      "cityName": "Fouqueure",
      "lat": 45.883333,
      "lng": 0.066667
    },
    {
      "cityName": "Fouras",
      "lat": 45.983333,
      "lng": -1.1
    },
    {
      "cityName": "Fourlière",
      "lat": 45.816667,
      "lng": 0.3
    },
    {
      "cityName": "Foussignac",
      "lat": 45.716667,
      "lng": -0.116667
    },
    {
      "cityName": "François",
      "lat": 46.366667,
      "lng": -0.35
    },
    {
      "cityName": "Fressines",
      "lat": 46.316667,
      "lng": 0.3
    },
    {
      "cityName": "Frontenay",
      "lat": 46.25,
      "lng": -0.533333
    },
    {
      "cityName": "Frontenay-sur-Dive",
      "lat": 46.85,
      "lng": 0.05
    },
    {
      "cityName": "Frozes",
      "lat": 46.666667,
      "lng": 0.15
    },
    {
      "cityName": "Garat",
      "lat": 45.633333,
      "lng": 0.266667
    },
    {
      "cityName": "Gardes",
      "lat": 45.5,
      "lng": 0.333333
    },
    {
      "cityName": "Geay",
      "lat": 45.866667,
      "lng": -0.766667
    },
    {
      "cityName": "Gémozac",
      "lat": 45.566667,
      "lng": -0.666667
    },
    {
      "cityName": "Genac",
      "lat": 45.8,
      "lng": 0.033333
    },
    {
      "cityName": "Gençay",
      "lat": 46.383333,
      "lng": 0.4
    },
    {
      "cityName": "Genneton",
      "lat": 47.05,
      "lng": -0.416667
    },
    {
      "cityName": "Genouillac",
      "lat": 45.85,
      "lng": 0.566667
    },
    {
      "cityName": "Genouillé",
      "lat": 46.016667,
      "lng": -0.783333
    },
    {
      "cityName": "Gensac",
      "lat": 45.65,
      "lng": -0.25
    },
    {
      "cityName": "Genté",
      "lat": 45.616667,
      "lng": -0.316667
    },
    {
      "cityName": "Germignac",
      "lat": 45.566667,
      "lng": -0.333333
    },
    {
      "cityName": "Germond",
      "lat": 46.45,
      "lng": -0.416667
    },
    {
      "cityName": "Gibourne",
      "lat": 45.933333,
      "lng": -0.3
    },
    {
      "cityName": "Gimeux",
      "lat": 45.633333,
      "lng": -0.366667
    },
    {
      "cityName": "Givrezac",
      "lat": 45.55,
      "lng": -0.633333
    },
    {
      "cityName": "Gizay",
      "lat": 46.433333,
      "lng": 0.416667
    },
    {
      "cityName": "Glandes",
      "lat": 47.1,
      "lng": -0.25
    },
    {
      "cityName": "Glénay",
      "lat": 46.866667,
      "lng": -0.25
    },
    {
      "cityName": "Glénouze",
      "lat": 47,
      "lng": -0.016667
    },
    {
      "cityName": "Gondeville",
      "lat": 45.666667,
      "lng": -0.15
    },
    {
      "cityName": "Gouex",
      "lat": 46.366667,
      "lng": 0.683333
    },
    {
      "cityName": "Gourgé",
      "lat": 46.733333,
      "lng": -0.166667
    },
    {
      "cityName": "Gournay",
      "lat": 46.15,
      "lng": -0.05
    },
    {
      "cityName": "Gourville",
      "lat": 45.833333,
      "lng": -0.016667
    },
    {
      "cityName": "Gourvillette",
      "lat": 45.883333,
      "lng": -0.216667
    },
    {
      "cityName": "Grandjean",
      "lat": 45.866667,
      "lng": -0.6
    },
    {
      "cityName": "Grand-Pont",
      "lat": 46.633333,
      "lng": 0.35
    },
    {
      "cityName": "Grand Village",
      "lat": 45.866667,
      "lng": -1.233333
    },
    {
      "cityName": "Granzay",
      "lat": 46.216667,
      "lng": -0.483333
    },
    {
      "cityName": "Grassac",
      "lat": 45.583333,
      "lng": 0.4
    },
    {
      "cityName": "Graves",
      "lat": 45.65,
      "lng": -0.1
    },
    {
      "cityName": "Grénord",
      "lat": 45.866667,
      "lng": 0.7
    },
    {
      "cityName": "Grézac",
      "lat": 45.6,
      "lng": -0.85
    },
    {
      "cityName": "Grignol",
      "lat": 45.666667,
      "lng": 0.483333
    },
    {
      "cityName": "Gript",
      "lat": 46.216667,
      "lng": -0.466667
    },
    {
      "cityName": "Gros Bout",
      "lat": 46.616667,
      "lng": 0.583333
    },
    {
      "cityName": "Guesnes",
      "lat": 46.916667,
      "lng": 0.166667
    },
    {
      "cityName": "Guimps",
      "lat": 45.466667,
      "lng": -0.25
    },
    {
      "cityName": "Guitinières",
      "lat": 45.433333,
      "lng": -0.516667
    },
    {
      "cityName": "Guizengeard",
      "lat": 45.3,
      "lng": -0.1
    },
    {
      "cityName": "Gurat",
      "lat": 45.433333,
      "lng": 0.266667
    },
    {
      "cityName": "Haimps",
      "lat": 45.866667,
      "lng": -0.25
    },
    {
      "cityName": "Haims",
      "lat": 46.5,
      "lng": 0.916667
    },
    {
      "cityName": "Hiersac",
      "lat": 45.666667,
      "lng": 0
    },
    {
      "cityName": "Hiers-Brouage",
      "lat": 45.85,
      "lng": -1.066667
    },
    {
      "cityName": "Hiesse",
      "lat": 46.05,
      "lng": 0.583333
    },
    {
      "cityName": "Houlette",
      "lat": 45.766667,
      "lng": -0.2
    },
    {
      "cityName": "Ile d'Aix",
      "lat": 46.0125,
      "lng": -1.175
    },
    {
      "cityName": "Ingrandes",
      "lat": 46.866667,
      "lng": 0.566667
    },
    {
      "cityName": "Irais",
      "lat": 46.883333,
      "lng": -0.083333
    },
    {
      "cityName": "Iteuil",
      "lat": 46.483333,
      "lng": 0.316667
    },
    {
      "cityName": "Jabrezac",
      "lat": 45.7,
      "lng": -0.35
    },
    {
      "cityName": "Jardres",
      "lat": 46.566667,
      "lng": 0.566667
    },
    {
      "cityName": "Jarnac-Champagne",
      "lat": 45.566667,
      "lng": -0.4
    },
    {
      "cityName": "Jauldes",
      "lat": 45.783333,
      "lng": 0.266667
    },
    {
      "cityName": "Jaunay-Clan",
      "lat": 46.683333,
      "lng": 0.366667
    },
    {
      "cityName": "Jazeneuil",
      "lat": 46.466667,
      "lng": 0.066667
    },
    {
      "cityName": "Jazennes",
      "lat": 45.583333,
      "lng": -0.616667
    },
    {
      "cityName": "Jemelle",
      "lat": 46.516667,
      "lng": 1.05
    },
    {
      "cityName": "Jonoux",
      "lat": 46.5,
      "lng": 0.566667
    },
    {
      "cityName": "Jonzac",
      "lat": 45.45,
      "lng": -0.433333
    },
    {
      "cityName": "Jorigny",
      "lat": 46.416667,
      "lng": 0.266667
    },
    {
      "cityName": "Jouhet",
      "lat": 46.483333,
      "lng": 0.833333
    },
    {
      "cityName": "Joumé",
      "lat": 46.533333,
      "lng": 0.783333
    },
    {
      "cityName": "Journet",
      "lat": 46.466667,
      "lng": 0.966667
    },
    {
      "cityName": "Joussé",
      "lat": 46.233333,
      "lng": 0.466667
    },
    {
      "cityName": "Juicq",
      "lat": 45.85,
      "lng": -0.566667
    },
    {
      "cityName": "Juignac",
      "lat": 45.383333,
      "lng": 0.166667
    },
    {
      "cityName": "Juillac",
      "lat": 45.583333,
      "lng": -0.266667
    },
    {
      "cityName": "Juillaguet",
      "lat": 45.483333,
      "lng": 0.216667
    },
    {
      "cityName": "Juillé",
      "lat": 45.916667,
      "lng": 0.15
    },
    {
      "cityName": "Julienne",
      "lat": 45.7,
      "lng": -0.233333
    },
    {
      "cityName": "Jurignac",
      "lat": 45.533333,
      "lng": -0.033333
    },
    {
      "cityName": "Juscorps",
      "lat": 46.216667,
      "lng": -0.383333
    },
    {
      "cityName": "Jussas",
      "lat": 45.283333,
      "lng": -0.35
    },
    {
      "cityName": "La Barde",
      "lat": 45.133333,
      "lng": -0.033333
    },
    {
      "cityName": "La Barre",
      "lat": 46.316667,
      "lng": 0.783333
    },
    {
      "cityName": "La Barrie",
      "lat": 46.333333,
      "lng": 0.416667
    },
    {
      "cityName": "La Bataille",
      "lat": 46.083333,
      "lng": -0.1
    },
    {
      "cityName": "La Benâte",
      "lat": 46,
      "lng": -0.566667
    },
    {
      "cityName": "La Bergerie",
      "lat": 46.716667,
      "lng": 0.883333
    },
    {
      "cityName": "La Bernardrie",
      "lat": 46.166667,
      "lng": 0.383333
    },
    {
      "cityName": "La Bétaudière",
      "lat": 46.022222,
      "lng": -1.372222
    },
    {
      "cityName": "La Boissière-en-Gâtine",
      "lat": 46.566667,
      "lng": -0.366667
    },
    {
      "cityName": "La Bourelière",
      "lat": 46.7,
      "lng": 0.783333
    },
    {
      "cityName": "La Brée",
      "lat": 46.016667,
      "lng": -1.35
    },
    {
      "cityName": "La Brise",
      "lat": 46.966667,
      "lng": 0.25
    },
    {
      "cityName": "La Brousse",
      "lat": 45.883333,
      "lng": -0.366667
    },
    {
      "cityName": "La Brunetière",
      "lat": 46.183333,
      "lng": 0.55
    },
    {
      "cityName": "L'Absie",
      "lat": 46.633333,
      "lng": -0.583333
    },
    {
      "cityName": "La Bussière",
      "lat": 46.616667,
      "lng": 0.816667
    },
    {
      "cityName": "La Cadrie",
      "lat": 46.483333,
      "lng": 0.85
    },
    {
      "cityName": "La Caillerie",
      "lat": 46.866667,
      "lng": 0.35
    },
    {
      "cityName": "La Caronnière",
      "lat": 46.55,
      "lng": 0.666667
    },
    {
      "cityName": "La Cayenne de Seudre",
      "lat": 45.783333,
      "lng": -1.116667
    },
    {
      "cityName": "Lachaise",
      "lat": 45.533333,
      "lng": -0.233333
    },
    {
      "cityName": "La Chaise",
      "lat": 46.45,
      "lng": 0.9
    },
    {
      "cityName": "La Chapelle-Bâton",
      "lat": 46.466667,
      "lng": -0.316667
    },
    {
      "cityName": "La Chapelle-Bertrand",
      "lat": 46.616667,
      "lng": -0.183333
    },
    {
      "cityName": "La Chapelle-des-Pots",
      "lat": 45.766667,
      "lng": -0.533333
    },
    {
      "cityName": "La Chapelle-Gaudin",
      "lat": 46.933333,
      "lng": -0.383333
    },
    {
      "cityName": "La Chapelle-Largeau",
      "lat": 46.95,
      "lng": -0.833333
    },
    {
      "cityName": "La Chapelle-Moulière",
      "lat": 46.65,
      "lng": 0.566667
    },
    {
      "cityName": "La Chapelle-Pouilloux",
      "lat": 46.133333,
      "lng": 0.033333
    },
    {
      "cityName": "La Chapelle-Saint-Étienne",
      "lat": 46.683333,
      "lng": -0.566667
    },
    {
      "cityName": "La Chapelle-Saint-Laurent",
      "lat": 46.75,
      "lng": -0.483333
    },
    {
      "cityName": "La Chapelle-Thireuil",
      "lat": 46.566667,
      "lng": -0.55
    },
    {
      "cityName": "La Charrière",
      "lat": 46.15,
      "lng": -0.483333
    },
    {
      "cityName": "La Châtaigneraie",
      "lat": 46.733333,
      "lng": 0.833333
    },
    {
      "cityName": "La Chaussée",
      "lat": 46.883333,
      "lng": 0.116667
    },
    {
      "cityName": "La Chèvrerie",
      "lat": 46.033333,
      "lng": 0.133333
    },
    {
      "cityName": "La Clisse",
      "lat": 45.733333,
      "lng": -0.766667
    },
    {
      "cityName": "La Clotte",
      "lat": 45.116667,
      "lng": -0.15
    },
    {
      "cityName": "La Clozure",
      "lat": 46.816667,
      "lng": 0.3
    },
    {
      "cityName": "La Corbière",
      "lat": 46.616667,
      "lng": 0.85
    },
    {
      "cityName": "La Cotinière",
      "lat": 45.916667,
      "lng": -1.366667
    },
    {
      "cityName": "La Cotterie",
      "lat": 46.216667,
      "lng": 0.266667
    },
    {
      "cityName": "La Couarde",
      "lat": 46.2,
      "lng": -1.4
    },
    {
      "cityName": "La Coudre",
      "lat": 46.95,
      "lng": -0.466667
    },
    {
      "cityName": "La Courbe",
      "lat": 46.141667,
      "lng": -1.133333
    },
    {
      "cityName": "La Couronne",
      "lat": 45.616667,
      "lng": 0.1
    },
    {
      "cityName": "La Couture",
      "lat": 46.05,
      "lng": 0.35
    },
    {
      "cityName": "La Croix-Comtesse",
      "lat": 46.083333,
      "lng": -0.483333
    },
    {
      "cityName": "La Croix d'Yon",
      "lat": 46.154167,
      "lng": -1.291667
    },
    {
      "cityName": "Ladiville",
      "lat": 45.516667,
      "lng": -0.066667
    },
    {
      "cityName": "La Donalière",
      "lat": 46.466667,
      "lng": 0.566667
    },
    {
      "cityName": "Lafachie",
      "lat": 45.883333,
      "lng": 0.666667
    },
    {
      "cityName": "La Faye",
      "lat": 46.016667,
      "lng": 0.15
    },
    {
      "cityName": "La Ferrière-Airoux",
      "lat": 46.316667,
      "lng": 0.4
    },
    {
      "cityName": "La Ferrière-en-Parthenay",
      "lat": 46.666667,
      "lng": -0.083333
    },
    {
      "cityName": "La Flotte",
      "lat": 46.183333,
      "lng": -1.333333
    },
    {
      "cityName": "Lafond",
      "lat": 45.666667,
      "lng": -1.083333
    },
    {
      "cityName": "La Forêt-de-Tessé",
      "lat": 46.083333,
      "lng": 0.083333
    },
    {
      "cityName": "La Forêt-sur-Sèvre",
      "lat": 46.766667,
      "lng": -0.65
    },
    {
      "cityName": "La Fougereuse",
      "lat": 47.033333,
      "lng": -0.5
    },
    {
      "cityName": "La Fove-Montjault",
      "lat": 46.183333,
      "lng": -0.533333
    },
    {
      "cityName": "La Fredière",
      "lat": 45.866667,
      "lng": -0.583333
    },
    {
      "cityName": "La Garde",
      "lat": 45.25,
      "lng": -0.266667
    },
    {
      "cityName": "Lagarde",
      "lat": 45.516667,
      "lng": -0.2
    },
    {
      "cityName": "La Gautrie",
      "lat": 46.0375,
      "lng": -1.4
    },
    {
      "cityName": "Lage-Boutauld",
      "lat": 46.416667,
      "lng": 1.2
    },
    {
      "cityName": "L'Age",
      "lat": 46.466667,
      "lng": 1
    },
    {
      "cityName": "La Gélizant",
      "lat": 45.766667,
      "lng": 0.716667
    },
    {
      "cityName": "L'Age Martin",
      "lat": 45.633333,
      "lng": 0.383333
    },
    {
      "cityName": "La Genétouze",
      "lat": 45.216667,
      "lng": -0.016667
    },
    {
      "cityName": "La Genette",
      "lat": 46.1625,
      "lng": -1.166667
    },
    {
      "cityName": "La Genilliere",
      "lat": 46.195833,
      "lng": -1.170833
    },
    {
      "cityName": "Lageon",
      "lat": 46.733333,
      "lng": -0.25
    },
    {
      "cityName": "La Gerbaudière",
      "lat": 46.85,
      "lng": 0.483333
    },
    {
      "cityName": "Lagord",
      "lat": 46.183333,
      "lng": -1.133333
    },
    {
      "cityName": "La Grainetière",
      "lat": 46.191667,
      "lng": -1.358333
    },
    {
      "cityName": "La Grève",
      "lat": 46.25,
      "lng": -0.766667
    },
    {
      "cityName": "La Grimaudière",
      "lat": 46.8,
      "lng": 0.016667
    },
    {
      "cityName": "La-Gripperie-Saint-Symphorien",
      "lat": 45.8,
      "lng": -0.933333
    },
    {
      "cityName": "La Gruzalière",
      "lat": 46.466667,
      "lng": 0.3
    },
    {
      "cityName": "La Guédonnière",
      "lat": 46.783333,
      "lng": 0.45
    },
    {
      "cityName": "La Guerlie",
      "lat": 45.816667,
      "lng": 0.716667
    },
    {
      "cityName": "La Guignotrie",
      "lat": 46.65,
      "lng": 0.9
    },
    {
      "cityName": "Lairière",
      "lat": 45.866667,
      "lng": 0.316667
    },
    {
      "cityName": "La Jard",
      "lat": 45.65,
      "lng": -0.583333
    },
    {
      "cityName": "La Jarne",
      "lat": 46.116667,
      "lng": -1.066667
    },
    {
      "cityName": "La Jarrie-Audouin",
      "lat": 46.033333,
      "lng": -0.483333
    },
    {
      "cityName": "La Laigne",
      "lat": 46.216667,
      "lng": -0.75
    },
    {
      "cityName": "La Laimière",
      "lat": 46.8,
      "lng": -0.583333
    },
    {
      "cityName": "Laleu",
      "lat": 46.15,
      "lng": -1.166667
    },
    {
      "cityName": "La Liardière",
      "lat": 46.366667,
      "lng": 0.433333
    },
    {
      "cityName": "La Ligne",
      "lat": 46.65,
      "lng": 0.716667
    },
    {
      "cityName": "Laloeuf",
      "lat": 46.433333,
      "lng": 0.766667
    },
    {
      "cityName": "La Macherie",
      "lat": 46.366667,
      "lng": 0.883333
    },
    {
      "cityName": "La Magdeleine",
      "lat": 46.05,
      "lng": 0.083333
    },
    {
      "cityName": "La Maine Gué",
      "lat": 45.616667,
      "lng": 0.483333
    },
    {
      "cityName": "Lamaire",
      "lat": 46.75,
      "lng": -0.133333
    },
    {
      "cityName": "La Manon",
      "lat": 46.104167,
      "lng": -1.115278
    },
    {
      "cityName": "La Maucarrière",
      "lat": 46.833333,
      "lng": -0.216667
    },
    {
      "cityName": "La Ménardie",
      "lat": 45.75,
      "lng": 0.483333
    },
    {
      "cityName": "Lamérac",
      "lat": 45.433333,
      "lng": -0.216667
    },
    {
      "cityName": "La Merci-Dieu",
      "lat": 46.766667,
      "lng": 0.833333
    },
    {
      "cityName": "La Michelière",
      "lat": 46.019444,
      "lng": -1.375
    },
    {
      "cityName": "La Morelière",
      "lat": 46.045833,
      "lng": -1.4
    },
    {
      "cityName": "La Morendie",
      "lat": 45.766667,
      "lng": 0.6
    },
    {
      "cityName": "La Mothe",
      "lat": 46.366667,
      "lng": -0.1
    },
    {
      "cityName": "La Motte-de-Ganne",
      "lat": 46.383333,
      "lng": 0.283333
    },
    {
      "cityName": "La Motte",
      "lat": 45.6,
      "lng": 0.483333
    },
    {
      "cityName": "La Moulinatte",
      "lat": 46.204167,
      "lng": -1.4
    },
    {
      "cityName": "Landes",
      "lat": 45.983333,
      "lng": -0.6
    },
    {
      "cityName": "Landrais",
      "lat": 46.066667,
      "lng": -0.866667
    },
    {
      "cityName": "La Noue",
      "lat": 46.154167,
      "lng": -1.330556
    },
    {
      "cityName": "La Nouette",
      "lat": 45.979167,
      "lng": -1.275
    },
    {
      "cityName": "La Palle",
      "lat": 46.233333,
      "lng": -1.15
    },
    {
      "cityName": "La Pallice",
      "lat": 46.166667,
      "lng": -1.216667
    },
    {
      "cityName": "La Pallisse",
      "lat": 46.169444,
      "lng": -1.283333
    },
    {
      "cityName": "La Palmyre",
      "lat": 45.691111,
      "lng": -1.176944
    },
    {
      "cityName": "La Palud",
      "lat": 45.65,
      "lng": -1.1
    },
    {
      "cityName": "La Partinière",
      "lat": 46.466667,
      "lng": 0.65
    },
    {
      "cityName": "La Passe",
      "lat": 46.205556,
      "lng": -1.450833
    },
    {
      "cityName": "La Péruse",
      "lat": 45.883333,
      "lng": 0.616667
    },
    {
      "cityName": "La Petite Age",
      "lat": 46.216667,
      "lng": 0.65
    },
    {
      "cityName": "La Petite-Boissière",
      "lat": 46.883333,
      "lng": -0.75
    },
    {
      "cityName": "La Petite Ville",
      "lat": 46.516667,
      "lng": 0.95
    },
    {
      "cityName": "La Petitie",
      "lat": 45.633333,
      "lng": 0.35
    },
    {
      "cityName": "La Peyratte",
      "lat": 46.666667,
      "lng": -0.15
    },
    {
      "cityName": "La Plante",
      "lat": 46.833333,
      "lng": 0.466667
    },
    {
      "cityName": "Laplaud",
      "lat": 45.9,
      "lng": 0.6
    },
    {
      "cityName": "La Polka",
      "lat": 47,
      "lng": 0.233333
    },
    {
      "cityName": "La Pommeraye",
      "lat": 47,
      "lng": -0.583333
    },
    {
      "cityName": "La Porcherie",
      "lat": 46.933333,
      "lng": 0.683333
    },
    {
      "cityName": "La Poterie",
      "lat": 45.866667,
      "lng": 0.3
    },
    {
      "cityName": "La Potière",
      "lat": 46.316667,
      "lng": 0.766667
    },
    {
      "cityName": "La Pouge",
      "lat": 46.4,
      "lng": 0.583333
    },
    {
      "cityName": "Laprade",
      "lat": 45.283333,
      "lng": 0.183333
    },
    {
      "cityName": "La Prunerie",
      "lat": 46.533333,
      "lng": 0.633333
    },
    {
      "cityName": "La Puye",
      "lat": 46.65,
      "lng": 0.75
    },
    {
      "cityName": "La Rallerie",
      "lat": 46.35,
      "lng": 0.683333
    },
    {
      "cityName": "L'Arbre",
      "lat": 45.733333,
      "lng": 0.533333
    },
    {
      "cityName": "La Reau",
      "lat": 46.2,
      "lng": 0.55
    },
    {
      "cityName": "La Ressière",
      "lat": 46.233333,
      "lng": 0.583333
    },
    {
      "cityName": "Largeasse",
      "lat": 46.683333,
      "lng": -0.5
    },
    {
      "cityName": "La Rivière",
      "lat": 46.25,
      "lng": -1.516667
    },
    {
      "cityName": "L'Arnaye",
      "lat": 46.6,
      "lng": 0.3
    },
    {
      "cityName": "La Rochefoucauld",
      "lat": 45.733333,
      "lng": 0.383333
    },
    {
      "cityName": "La Roche",
      "lat": 46.4,
      "lng": 1.066667
    },
    {
      "cityName": "La Rochelle",
      "lat": 46.166667,
      "lng": -1.15
    },
    {
      "cityName": "La Rochénard",
      "lat": 46.2,
      "lng": -0.583333
    },
    {
      "cityName": "La Roche-Posay",
      "lat": 46.783333,
      "lng": 0.816667
    },
    {
      "cityName": "La Rochette",
      "lat": 45.816667,
      "lng": 0.316667
    },
    {
      "cityName": "La Ronde",
      "lat": 46.3,
      "lng": -0.8
    },
    {
      "cityName": "La Sablière",
      "lat": 45.997222,
      "lng": -1.366667
    },
    {
      "cityName": "La Sauvagère",
      "lat": 46.141667,
      "lng": -1.1625
    },
    {
      "cityName": "La Séguinie",
      "lat": 45.716667,
      "lng": 0.566667
    },
    {
      "cityName": "La Tâche",
      "lat": 45.883333,
      "lng": 0.35
    },
    {
      "cityName": "Lathus",
      "lat": 46.333333,
      "lng": 0.966667
    },
    {
      "cityName": "Latillé",
      "lat": 46.616667,
      "lng": 0.066667
    },
    {
      "cityName": "La Tisonnière",
      "lat": 46.9,
      "lng": -0.383333
    },
    {
      "cityName": "La Touche",
      "lat": 46.233333,
      "lng": 0.483333
    },
    {
      "cityName": "La Tour-au-Cognium",
      "lat": 46.45,
      "lng": 0.683333
    },
    {
      "cityName": "La Tremblade",
      "lat": 45.766667,
      "lng": -1.133333
    },
    {
      "cityName": "La Tricherie",
      "lat": 45.633333,
      "lng": 0.533333
    },
    {
      "cityName": "La Trimouille",
      "lat": 46.466667,
      "lng": 1.05
    },
    {
      "cityName": "Launay",
      "lat": 47,
      "lng": -0.183333
    },
    {
      "cityName": "Laurière",
      "lat": 45.833333,
      "lng": 0.766667
    },
    {
      "cityName": "Lauthiers",
      "lat": 46.6,
      "lng": 0.733333
    },
    {
      "cityName": "La Vallade",
      "lat": 45.716667,
      "lng": 0.45
    },
    {
      "cityName": "La Vallée",
      "lat": 45.883333,
      "lng": -0.85
    },
    {
      "cityName": "La Vanne",
      "lat": 47,
      "lng": -0.783333
    },
    {
      "cityName": "Lavaud",
      "lat": 45.75,
      "lng": 0.366667
    },
    {
      "cityName": "Lavausseau",
      "lat": 46.55,
      "lng": 0.083333
    },
    {
      "cityName": "La Vergne",
      "lat": 45.966667,
      "lng": -0.566667
    },
    {
      "cityName": "La Vieille Perrotine",
      "lat": 45.95,
      "lng": -1.25
    },
    {
      "cityName": "La Villedieu-du-Clain",
      "lat": 46.45,
      "lng": 0.366667
    },
    {
      "cityName": "La Villedieu",
      "lat": 46.066667,
      "lng": -0.316667
    },
    {
      "cityName": "La Ville en Bois",
      "lat": 46.152778,
      "lng": -1.154167
    },
    {
      "cityName": "Lavoux",
      "lat": 46.6,
      "lng": 0.533333
    },
    {
      "cityName": "La Voyette",
      "lat": 47.05,
      "lng": 0.233333
    },
    {
      "cityName": "Le Badeuil",
      "lat": 46.166667,
      "lng": 0.6
    },
    {
      "cityName": "Le Banchereau",
      "lat": 46.333333,
      "lng": 0.883333
    },
    {
      "cityName": "Le Bergaut",
      "lat": 46.4,
      "lng": 0.666667
    },
    {
      "cityName": "Le Beugnon",
      "lat": 46.583333,
      "lng": -0.5
    },
    {
      "cityName": "Le Bois",
      "lat": 46.183333,
      "lng": -1.383333
    },
    {
      "cityName": "Le Bouchage",
      "lat": 46.05,
      "lng": 0.383333
    },
    {
      "cityName": "Le Bouchaux",
      "lat": 46.433333,
      "lng": 1.1
    },
    {
      "cityName": "Le Bouchet",
      "lat": 46.783333,
      "lng": 0.316667
    },
    {
      "cityName": "Le Bourdet",
      "lat": 46.233333,
      "lng": -0.616667
    },
    {
      "cityName": "Le Breuil l'Abbesse",
      "lat": 46.566667,
      "lng": 0.416667
    },
    {
      "cityName": "Le Breuil",
      "lat": 45.566667,
      "lng": 0.283333
    },
    {
      "cityName": "Le Breuil-sous-Argenton",
      "lat": 46.983333,
      "lng": -0.416667
    },
    {
      "cityName": "Le Busseau",
      "lat": 46.583333,
      "lng": -0.6
    },
    {
      "cityName": "Le Caiflaud",
      "lat": 45.533611,
      "lng": -0.899167
    },
    {
      "cityName": "Le Cailleau",
      "lat": 45.533333,
      "lng": -0.9
    },
    {
      "cityName": "Le Chaffaud",
      "lat": 46.200278,
      "lng": -1.388889
    },
    {
      "cityName": "Le Chapus",
      "lat": 45.866667,
      "lng": -1.166667
    },
    {
      "cityName": "Le Chateau-d'Oleron",
      "lat": 45.9,
      "lng": -1.2
    },
    {
      "cityName": "Le Chaume",
      "lat": 46.103333,
      "lng": -1.109722
    },
    {
      "cityName": "Le Chay",
      "lat": 45.633333,
      "lng": -0.9
    },
    {
      "cityName": "Le Cledou",
      "lat": 45.533333,
      "lng": 0.383333
    },
    {
      "cityName": "Le Cluzeau",
      "lat": 45.95,
      "lng": 0.55
    },
    {
      "cityName": "Le Douhet",
      "lat": 45.816667,
      "lng": -0.566667
    },
    {
      "cityName": "Le Fouilloux",
      "lat": 45.183333,
      "lng": -0.116667
    },
    {
      "cityName": "Le Four",
      "lat": 45.716667,
      "lng": 0.55
    },
    {
      "cityName": "Le Gastineau",
      "lat": 46.616667,
      "lng": 0.716667
    },
    {
      "cityName": "Le Gicq",
      "lat": 45.933333,
      "lng": -0.25
    },
    {
      "cityName": "Le Gillieux",
      "lat": 46.2375,
      "lng": -1.55
    },
    {
      "cityName": "Le Gond",
      "lat": 45.666667,
      "lng": 0.166667
    },
    {
      "cityName": "Le Gond-Pontouvre",
      "lat": 45.683333,
      "lng": 0.166667
    },
    {
      "cityName": "Le Grand Breuil",
      "lat": 46.166667,
      "lng": 0.283333
    },
    {
      "cityName": "Le Grand-Madieu",
      "lat": 45.933333,
      "lng": 0.433333
    },
    {
      "cityName": "Le Grand Maine",
      "lat": 45.633333,
      "lng": 0.366667
    },
    {
      "cityName": "Le Grand-Moulin",
      "lat": 45.616667,
      "lng": 0.3
    },
    {
      "cityName": "Le Gua",
      "lat": 45.733333,
      "lng": -0.95
    },
    {
      "cityName": "Le Gue-d'Allere",
      "lat": 46.183333,
      "lng": -0.866667
    },
    {
      "cityName": "L'Eguille",
      "lat": 45.7,
      "lng": -0.983333
    },
    {
      "cityName": "Leigne",
      "lat": 46.216667,
      "lng": 0.316667
    },
    {
      "cityName": "Leigné-les-Bois",
      "lat": 46.75,
      "lng": 0.7
    },
    {
      "cityName": "Leignes",
      "lat": 46.5,
      "lng": 0.783333
    },
    {
      "cityName": "Leigné-sur-Usseau",
      "lat": 46.916667,
      "lng": 0.466667
    },
    {
      "cityName": "Le Lignon",
      "lat": 46.186111,
      "lng": -1.138889
    },
    {
      "cityName": "Le Lindois",
      "lat": 45.75,
      "lng": 0.583333
    },
    {
      "cityName": "Le Madinteau",
      "lat": 45.9,
      "lng": 0.35
    },
    {
      "cityName": "Le Maime",
      "lat": 45.85,
      "lng": 0.433333
    },
    {
      "cityName": "Le Martray",
      "lat": 46.202778,
      "lng": -1.4875
    },
    {
      "cityName": "Le Mas de Baud",
      "lat": 45.65,
      "lng": 0.416667
    },
    {
      "cityName": "Le Mas Foubert",
      "lat": 45.833333,
      "lng": 0.516667
    },
    {
      "cityName": "Le Mas",
      "lat": 45.683333,
      "lng": 0.466667
    },
    {
      "cityName": "Le Morinant",
      "lat": 46.191667,
      "lng": -1.370833
    },
    {
      "cityName": "Le Mung",
      "lat": 45.866667,
      "lng": -0.7
    },
    {
      "cityName": "L'Enclave-de-la-Martiniere",
      "lat": 46.25,
      "lng": -0.1
    },
    {
      "cityName": "Lencloître",
      "lat": 46.816667,
      "lng": 0.333333
    },
    {
      "cityName": "Léoville",
      "lat": 45.383333,
      "lng": -0.333333
    },
    {
      "cityName": "Le Passage",
      "lat": 45.95,
      "lng": -1.033333
    },
    {
      "cityName": "Le Pavé",
      "lat": 46.102778,
      "lng": -1.108333
    },
    {
      "cityName": "Le Péage",
      "lat": 45.8,
      "lng": 0.416667
    },
    {
      "cityName": "Le Pétureau",
      "lat": 45.633333,
      "lng": 0.183333
    },
    {
      "cityName": "Le Peu",
      "lat": 46.65,
      "lng": 0.433333
    },
    {
      "cityName": "Le Peux",
      "lat": 46.227778,
      "lng": -1.433333
    },
    {
      "cityName": "Le Peyrat",
      "lat": 45.5,
      "lng": 0.3
    },
    {
      "cityName": "L'Epine",
      "lat": 46.816667,
      "lng": 0.6
    },
    {
      "cityName": "Le Pinier",
      "lat": 46.5,
      "lng": 0.45
    },
    {
      "cityName": "Le Pin",
      "lat": 45.316667,
      "lng": -0.283333
    },
    {
      "cityName": "Le Pin-Saint-Denis",
      "lat": 45.983333,
      "lng": -0.516667
    },
    {
      "cityName": "Le Plomb",
      "lat": 46.2,
      "lng": -1.2
    },
    {
      "cityName": "Le Poiron",
      "lat": 46.516667,
      "lng": 1.066667
    },
    {
      "cityName": "Le Pontaroux",
      "lat": 45.516667,
      "lng": 0.3
    },
    {
      "cityName": "Le Pont-d'Agris",
      "lat": 45.8,
      "lng": 0.333333
    },
    {
      "cityName": "Le Port-des-Barques",
      "lat": 45.95,
      "lng": -1.083333
    },
    {
      "cityName": "Le Port",
      "lat": 45.483333,
      "lng": -0.8
    },
    {
      "cityName": "Le Puy-Saint-Bonnet",
      "lat": 47,
      "lng": -0.9
    },
    {
      "cityName": "Le Querrois",
      "lat": 45.833333,
      "lng": 0.466667
    },
    {
      "cityName": "Le Retail",
      "lat": 46.566667,
      "lng": -0.433333
    },
    {
      "cityName": "Le Rigny",
      "lat": 46.766667,
      "lng": 0.316667
    },
    {
      "cityName": "L'Ermite",
      "lat": 45.55,
      "lng": 0.366667
    },
    {
      "cityName": "Le Rochereau",
      "lat": 46.716667,
      "lng": 0.166667
    },
    {
      "cityName": "Le Roulant",
      "lat": 46.191667,
      "lng": -1.375
    },
    {
      "cityName": "Les Ages",
      "lat": 46.366667,
      "lng": 0.583333
    },
    {
      "cityName": "Les Alleuds",
      "lat": 46.15,
      "lng": 0
    },
    {
      "cityName": "Les Aubiers",
      "lat": 46.95,
      "lng": -0.583333
    },
    {
      "cityName": "Les Augers",
      "lat": 45.95,
      "lng": 0.3
    },
    {
      "cityName": "Les Bâchées",
      "lat": 46.45,
      "lng": 0.3
    },
    {
      "cityName": "Les Bacheliers",
      "lat": 46.9,
      "lng": 0.616667
    },
    {
      "cityName": "Les Barres",
      "lat": 46.766667,
      "lng": 0.5
    },
    {
      "cityName": "Les Blanchards",
      "lat": 46.833333,
      "lng": 0.5
    },
    {
      "cityName": "Les Bordes",
      "lat": 46.516667,
      "lng": 0.4
    },
    {
      "cityName": "Les Bouchaux",
      "lat": 46.7,
      "lng": 0.716667
    },
    {
      "cityName": "Les Boucholeurs",
      "lat": 46.05,
      "lng": -1.083333
    },
    {
      "cityName": "Les Bouilassiers",
      "lat": 46.008333,
      "lng": -1.333333
    },
    {
      "cityName": "Les Bouneaux",
      "lat": 46.616667,
      "lng": 1.6
    },
    {
      "cityName": "Les Boutaires",
      "lat": 46.75,
      "lng": 0.8
    },
    {
      "cityName": "Les Brosses",
      "lat": 46.833333,
      "lng": -0.316667
    },
    {
      "cityName": "Les Brousses",
      "lat": 45.65,
      "lng": 0.5
    },
    {
      "cityName": "Les Caillaux",
      "lat": 46.158333,
      "lng": -1.275
    },
    {
      "cityName": "Les Chaises",
      "lat": 45.7,
      "lng": 0.516667
    },
    {
      "cityName": "Les Charbonneries",
      "lat": 46.833333,
      "lng": 0.6
    },
    {
      "cityName": "Les Chaumes",
      "lat": 45.716667,
      "lng": 0.433333
    },
    {
      "cityName": "Les Conches",
      "lat": 46.133333,
      "lng": -1.266667
    },
    {
      "cityName": "Les Coudrans",
      "lat": 46.105556,
      "lng": -1.115833
    },
    {
      "cityName": "Les Doutardes",
      "lat": 46.766667,
      "lng": 0.516667
    },
    {
      "cityName": "Les Éduts",
      "lat": 45.983333,
      "lng": -0.216667
    },
    {
      "cityName": "Les Eglises-d'Argenteuil",
      "lat": 45.966667,
      "lng": -0.433333
    },
    {
      "cityName": "Les Essards",
      "lat": 45.233333,
      "lng": 0.116667
    },
    {
      "cityName": "Le Seure",
      "lat": 45.783333,
      "lng": -0.366667
    },
    {
      "cityName": "Les Forges",
      "lat": 46.55,
      "lng": -0.033333
    },
    {
      "cityName": "Les Fosses",
      "lat": 46.166667,
      "lng": -0.366667
    },
    {
      "cityName": "Les Frauds",
      "lat": 45.716667,
      "lng": 0.283333
    },
    {
      "cityName": "Les Fravalières",
      "lat": 46.866667,
      "lng": 0.7
    },
    {
      "cityName": "Les Froux",
      "lat": 46.833333,
      "lng": 0.8
    },
    {
      "cityName": "Les Gonds",
      "lat": 45.716667,
      "lng": -0.616667
    },
    {
      "cityName": "Les Gours",
      "lat": 45.966667,
      "lng": -0.066667
    },
    {
      "cityName": "Les Grands Marsilly",
      "lat": 46.633333,
      "lng": 0.883333
    },
    {
      "cityName": "Les Grenettes",
      "lat": 46.161111,
      "lng": -1.358333
    },
    {
      "cityName": "Les Groseillers",
      "lat": 46.533333,
      "lng": -0.4
    },
    {
      "cityName": "Les Guiardes",
      "lat": 46.170833,
      "lng": -1.183333
    },
    {
      "cityName": "Les Hermitières",
      "lat": 46.65,
      "lng": 0.8
    },
    {
      "cityName": "Lésigny",
      "lat": 46.85,
      "lng": 0.766667
    },
    {
      "cityName": "Les Jouteaux",
      "lat": 46.9,
      "lng": -0.416667
    },
    {
      "cityName": "Les Jumeaux",
      "lat": 46.816667,
      "lng": -0.083333
    },
    {
      "cityName": "Les Landes",
      "lat": 45.816667,
      "lng": 0.666667
    },
    {
      "cityName": "Les Maillets",
      "lat": 46.616667,
      "lng": 0.55
    },
    {
      "cityName": "Les Malpierres",
      "lat": 46.15,
      "lng": 0.366667
    },
    {
      "cityName": "Les Mas",
      "lat": 45.783333,
      "lng": 0.466667
    },
    {
      "cityName": "Les Mathes",
      "lat": 45.716667,
      "lng": -1.15
    },
    {
      "cityName": "Les Mâts",
      "lat": 46.4,
      "lng": 0.883333
    },
    {
      "cityName": "Les Métairies",
      "lat": 45.7,
      "lng": -0.166667
    },
    {
      "cityName": "Les Mias",
      "lat": 45.883333,
      "lng": 0.55
    },
    {
      "cityName": "Les Minimes",
      "lat": 46.143056,
      "lng": -1.161111
    },
    {
      "cityName": "Les Monards",
      "lat": 45.516667,
      "lng": -0.866667
    },
    {
      "cityName": "Les Moraux",
      "lat": 46.8,
      "lng": 0.816667
    },
    {
      "cityName": "Les Moulins de la Boire",
      "lat": 46.204167,
      "lng": -1.516667
    },
    {
      "cityName": "Les Moutiers",
      "lat": 46.7,
      "lng": -0.616667
    },
    {
      "cityName": "Les Naux",
      "lat": 46.8,
      "lng": 0.666667
    },
    {
      "cityName": "Les Nouillers",
      "lat": 45.933333,
      "lng": -0.666667
    },
    {
      "cityName": "Les Ormes",
      "lat": 46.966667,
      "lng": 0.6
    },
    {
      "cityName": "Les Ouillères",
      "lat": 45.783333,
      "lng": 0.366667
    },
    {
      "cityName": "Les Pinganauds",
      "lat": 46.05,
      "lng": 0.433333
    },
    {
      "cityName": "Les Pins",
      "lat": 45.833333,
      "lng": 0.366667
    },
    {
      "cityName": "Les Piqueteries",
      "lat": 46.683333,
      "lng": 0.533333
    },
    {
      "cityName": "Les Portes",
      "lat": 46.25,
      "lng": -1.5
    },
    {
      "cityName": "Les Pras",
      "lat": 45.983333,
      "lng": 0.633333
    },
    {
      "cityName": "Les Prises",
      "lat": 46.205556,
      "lng": -1.444444
    },
    {
      "cityName": "Les Ripaudières",
      "lat": 47.033333,
      "lng": -0.45
    },
    {
      "cityName": "Les Rivauds",
      "lat": 46.175,
      "lng": -1.205556
    },
    {
      "cityName": "Les Roches-Prémarie",
      "lat": 46.466667,
      "lng": 0.366667
    },
    {
      "cityName": "Les Sables",
      "lat": 46.333333,
      "lng": 0.433333
    },
    {
      "cityName": "Les Sablons",
      "lat": 46.166667,
      "lng": -1.208333
    },
    {
      "cityName": "Lessac",
      "lat": 46.066667,
      "lng": 0.666667
    },
    {
      "cityName": "Lesterps",
      "lat": 46.016667,
      "lng": 0.783333
    },
    {
      "cityName": "Les Touches-de-Périgny",
      "lat": 45.916667,
      "lng": -0.266667
    },
    {
      "cityName": "Les Trois Mouthiers",
      "lat": 47.066667,
      "lng": 0.016667
    },
    {
      "cityName": "Le Taffeters",
      "lat": 46.15,
      "lng": -1.283333
    },
    {
      "cityName": "Le Tallud",
      "lat": 46.633333,
      "lng": -0.3
    },
    {
      "cityName": "Le Tâtre",
      "lat": 45.4,
      "lng": -0.2
    },
    {
      "cityName": "Le Temple",
      "lat": 45.9,
      "lng": 0.4
    },
    {
      "cityName": "Le Thou",
      "lat": 46.083333,
      "lng": -0.916667
    },
    {
      "cityName": "Le Trait d'Union",
      "lat": 45.979167,
      "lng": -1.341667
    },
    {
      "cityName": "Le Treuil Bâton",
      "lat": 46.2,
      "lng": -1.158333
    },
    {
      "cityName": "Leugny",
      "lat": 46.916667,
      "lng": 0.7
    },
    {
      "cityName": "Le Vanneau",
      "lat": 46.3,
      "lng": -0.633333
    },
    {
      "cityName": "Le Vert",
      "lat": 46.083333,
      "lng": -0.383333
    },
    {
      "cityName": "Le-Vieux-Cérier",
      "lat": 45.966667,
      "lng": 0.433333
    },
    {
      "cityName": "Le Vigeant",
      "lat": 46.233333,
      "lng": 0.65
    },
    {
      "cityName": "Le Vivier",
      "lat": 45.8,
      "lng": 0.433333
    },
    {
      "cityName": "Lezay",
      "lat": 46.266667,
      "lng": -0.016667
    },
    {
      "cityName": "Lézignac-Durand",
      "lat": 45.816667,
      "lng": 0.633333
    },
    {
      "cityName": "Lhommaizé",
      "lat": 46.433333,
      "lng": 0.583333
    },
    {
      "cityName": "Lhopiteau",
      "lat": 46.816667,
      "lng": -0.266667
    },
    {
      "cityName": "L'Houmeau",
      "lat": 46.183333,
      "lng": -1.166667
    },
    {
      "cityName": "Lhoumois",
      "lat": 46.7,
      "lng": -0.133333
    },
    {
      "cityName": "Lichères",
      "lat": 45.9,
      "lng": 0.216667
    },
    {
      "cityName": "Liglet",
      "lat": 46.516667,
      "lng": 1.083333
    },
    {
      "cityName": "Ligné",
      "lat": 45.916667,
      "lng": 0.116667
    },
    {
      "cityName": "Lignières",
      "lat": 45.566667,
      "lng": -0.183333
    },
    {
      "cityName": "Ligron",
      "lat": 47,
      "lng": -0.25
    },
    {
      "cityName": "Ligugé",
      "lat": 46.516667,
      "lng": 0.333333
    },
    {
      "cityName": "Lillette",
      "lat": 46.966667,
      "lng": 0.65
    },
    {
      "cityName": "Limalonges",
      "lat": 46.133333,
      "lng": 0.166667
    },
    {
      "cityName": "Limbre",
      "lat": 46.616667,
      "lng": 0.283333
    },
    {
      "cityName": "Linars",
      "lat": 45.65,
      "lng": 0.083333
    },
    {
      "cityName": "Linazay",
      "lat": 46.166667,
      "lng": 0.183333
    },
    {
      "cityName": "L'Isle-d'Espagnac",
      "lat": 45.666667,
      "lng": 0.2
    },
    {
      "cityName": "L'Isle-Jourdain",
      "lat": 46.233333,
      "lng": 0.683333
    },
    {
      "cityName": "Lizant",
      "lat": 46.083333,
      "lng": 0.283333
    },
    {
      "cityName": "Loire-les-Marais",
      "lat": 45.983333,
      "lng": -0.916667
    },
    {
      "cityName": "Loiré",
      "lat": 45.95,
      "lng": -0.283333
    },
    {
      "cityName": "Loix",
      "lat": 46.233333,
      "lng": -1.416667
    },
    {
      "cityName": "Loizé",
      "lat": 46.133333,
      "lng": -0.033333
    },
    {
      "cityName": "Londigny",
      "lat": 46.083333,
      "lng": 0.133333
    },
    {
      "cityName": "Longèves",
      "lat": 46.233333,
      "lng": -0.983333
    },
    {
      "cityName": "Longré",
      "lat": 46,
      "lng": -0.016667
    },
    {
      "cityName": "Lonnes",
      "lat": 45.933333,
      "lng": 0.166667
    },
    {
      "cityName": "Lonzac",
      "lat": 45.6,
      "lng": 0.4
    },
    {
      "cityName": "Lorignac",
      "lat": 45.45,
      "lng": -0.683333
    },
    {
      "cityName": "Lorigné",
      "lat": 46.1,
      "lng": 0.066667
    },
    {
      "cityName": "Loubert",
      "lat": 45.916667,
      "lng": 0.583333
    },
    {
      "cityName": "Loubigné",
      "lat": 46.066667,
      "lng": -0.083333
    },
    {
      "cityName": "Loubillé",
      "lat": 46.05,
      "lng": -0.066667
    },
    {
      "cityName": "Loublande",
      "lat": 46.983333,
      "lng": -0.833333
    },
    {
      "cityName": "Loudun",
      "lat": 47,
      "lng": 0.066667
    },
    {
      "cityName": "Louin",
      "lat": 46.8,
      "lng": -0.166667
    },
    {
      "cityName": "Loulay",
      "lat": 46.05,
      "lng": -0.5
    },
    {
      "cityName": "Loume",
      "lat": 46.033333,
      "lng": 0.466667
    },
    {
      "cityName": "Loumeuil",
      "lat": 46.683333,
      "lng": 0.316667
    },
    {
      "cityName": "Louzac",
      "lat": 45.716667,
      "lng": 0.416667
    },
    {
      "cityName": "Louzignac",
      "lat": 45.833333,
      "lng": 0.233333
    },
    {
      "cityName": "Louzy",
      "lat": 47.016667,
      "lng": -0.183333
    },
    {
      "cityName": "Lozay",
      "lat": 46.05,
      "lng": -0.533333
    },
    {
      "cityName": "Luchat",
      "lat": 45.716667,
      "lng": -0.766667
    },
    {
      "cityName": "Luché",
      "lat": 46.133333,
      "lng": -0.15
    },
    {
      "cityName": "Luché-Thouarsais",
      "lat": 46.9,
      "lng": -0.333333
    },
    {
      "cityName": "Lupsault",
      "lat": 45.933333,
      "lng": -0.066667
    },
    {
      "cityName": "Lusignan",
      "lat": 46.433333,
      "lng": 0.116667
    },
    {
      "cityName": "Lussac-les-Châteaux",
      "lat": 46.4,
      "lng": 0.716667
    },
    {
      "cityName": "Lussac",
      "lat": 45.466667,
      "lng": -0.483333
    },
    {
      "cityName": "Lussais",
      "lat": 46.683333,
      "lng": 0.85
    },
    {
      "cityName": "Lussant",
      "lat": 45.966667,
      "lng": -0.816667
    },
    {
      "cityName": "Lusseray",
      "lat": 46.15,
      "lng": -0.166667
    },
    {
      "cityName": "Luxé",
      "lat": 45.883333,
      "lng": 0.116667
    },
    {
      "cityName": "Luzay",
      "lat": 46.933333,
      "lng": -0.2
    },
    {
      "cityName": "Macqueville",
      "lat": 45.8,
      "lng": -0.216667
    },
    {
      "cityName": "Magé",
      "lat": 47.033333,
      "lng": -0.2
    },
    {
      "cityName": "Magnac-Lavalette",
      "lat": 45.5,
      "lng": 0.25
    },
    {
      "cityName": "Magnac-sur-Touvre",
      "lat": 45.666667,
      "lng": 0.233333
    },
    {
      "cityName": "Magné",
      "lat": 46.316667,
      "lng": -0.55
    },
    {
      "cityName": "Maillé",
      "lat": 46.7,
      "lng": 0.1
    },
    {
      "cityName": "Maine-de-Boixe",
      "lat": 45.85,
      "lng": 0.166667
    },
    {
      "cityName": "Mainfonds",
      "lat": 45.516667,
      "lng": 0.016667
    },
    {
      "cityName": "Mainxe",
      "lat": 45.633333,
      "lng": -0.183333
    },
    {
      "cityName": "Mainzac",
      "lat": 45.55,
      "lng": 0.483333
    },
    {
      "cityName": "Mairé-Escault",
      "lat": 46.15,
      "lng": 0.083333
    },
    {
      "cityName": "Maisonnay",
      "lat": 46.183333,
      "lng": -0.066667
    },
    {
      "cityName": "Maisonneuve",
      "lat": 46.733333,
      "lng": 0.083333
    },
    {
      "cityName": "Maisontiers",
      "lat": 46.783333,
      "lng": -0.25
    },
    {
      "cityName": "Mallaville",
      "lat": 45.55,
      "lng": -0.1
    },
    {
      "cityName": "Malleyrand",
      "lat": 45.733333,
      "lng": 0.466667
    },
    {
      "cityName": "Manot",
      "lat": 45.95,
      "lng": 0.633333
    },
    {
      "cityName": "Mansle",
      "lat": 45.866667,
      "lng": 0.183333
    },
    {
      "cityName": "Marans",
      "lat": 46.3,
      "lng": -1
    },
    {
      "cityName": "Marçay",
      "lat": 46.466667,
      "lng": 0.216667
    },
    {
      "cityName": "Marcillac-Lanville",
      "lat": 45.85,
      "lng": 0.016667
    },
    {
      "cityName": "Marennes",
      "lat": 45.816667,
      "lng": -1.116667
    },
    {
      "cityName": "Mareuil",
      "lat": 45.766667,
      "lng": -0.133333
    },
    {
      "cityName": "Marignac",
      "lat": 45.516667,
      "lng": -0.483333
    },
    {
      "cityName": "Marigny-Brizay",
      "lat": 46.733333,
      "lng": 0.383333
    },
    {
      "cityName": "Marigny-Chemereau",
      "lat": 46.433333,
      "lng": 0.233333
    },
    {
      "cityName": "Marigny",
      "lat": 46.2,
      "lng": -0.416667
    },
    {
      "cityName": "Marillac",
      "lat": 45.733333,
      "lng": 0.433333
    },
    {
      "cityName": "Marnay",
      "lat": 46.4,
      "lng": 0.35
    },
    {
      "cityName": "Marnes",
      "lat": 46.85,
      "lng": -0.016667
    },
    {
      "cityName": "Marsac",
      "lat": 45.733333,
      "lng": 0.083333
    },
    {
      "cityName": "Marsais",
      "lat": 46.116667,
      "lng": -0.6
    },
    {
      "cityName": "Marsilly",
      "lat": 46.233333,
      "lng": -1.116667
    },
    {
      "cityName": "Martaizé",
      "lat": 46.916667,
      "lng": 0.066667
    },
    {
      "cityName": "Marthon",
      "lat": 45.616667,
      "lng": 0.45
    },
    {
      "cityName": "Martigny",
      "lat": 46.666667,
      "lng": 0.333333
    },
    {
      "cityName": "Martin-Chapon",
      "lat": 46.8,
      "lng": 0.583333
    },
    {
      "cityName": "Martreuil",
      "lat": 46.45,
      "lng": 1.066667
    },
    {
      "cityName": "Martrou",
      "lat": 45.916667,
      "lng": -0.966667
    },
    {
      "cityName": "Massac",
      "lat": 45.866667,
      "lng": -0.216667
    },
    {
      "cityName": "Massais",
      "lat": 47.016667,
      "lng": -0.35
    },
    {
      "cityName": "Massignac",
      "lat": 45.783333,
      "lng": 0.65
    },
    {
      "cityName": "Massognes",
      "lat": 46.75,
      "lng": 0.083333
    },
    {
      "cityName": "Matha",
      "lat": 45.866667,
      "lng": -0.316667
    },
    {
      "cityName": "Maubugé",
      "lat": 46.3,
      "lng": 0.316667
    },
    {
      "cityName": "Maulais",
      "lat": 46.933333,
      "lng": -0.166667
    },
    {
      "cityName": "Maulay",
      "lat": 46.983333,
      "lng": 0.216667
    },
    {
      "cityName": "Mauprévoir",
      "lat": 46.166667,
      "lng": 0.516667
    },
    {
      "cityName": "Mauzé",
      "lat": 46.2,
      "lng": -0.666667
    },
    {
      "cityName": "Mauzé-Thouarsais",
      "lat": 46.983333,
      "lng": -0.266667
    },
    {
      "cityName": "Mazeray",
      "lat": 45.916667,
      "lng": -0.566667
    },
    {
      "cityName": "Mazerolles",
      "lat": 45.55,
      "lng": -0.583333
    },
    {
      "cityName": "Mazeuil",
      "lat": 46.783333,
      "lng": 0.1
    },
    {
      "cityName": "Mazières-en-Gâtine",
      "lat": 46.533333,
      "lng": -0.316667
    },
    {
      "cityName": "Mazières",
      "lat": 45.833333,
      "lng": 0.566667
    },
    {
      "cityName": "Mazières-sur-Béronne",
      "lat": 46.2,
      "lng": -0.183333
    },
    {
      "cityName": "Médillac",
      "lat": 45.233333,
      "lng": 0.033333
    },
    {
      "cityName": "Médis",
      "lat": 45.65,
      "lng": -0.966667
    },
    {
      "cityName": "Melle",
      "lat": 46.216667,
      "lng": -0.133333
    },
    {
      "cityName": "Melleran",
      "lat": 46.133333,
      "lng": 0
    },
    {
      "cityName": "Ménigoute",
      "lat": 46.5,
      "lng": -0.05
    },
    {
      "cityName": "Mérignac",
      "lat": 45.333333,
      "lng": -0.283333
    },
    {
      "cityName": "Merpins",
      "lat": 45.683333,
      "lng": -0.4
    },
    {
      "cityName": "Meschers",
      "lat": 45.566667,
      "lng": -0.95
    },
    {
      "cityName": "Mesnac",
      "lat": 45.783333,
      "lng": -0.35
    },
    {
      "cityName": "Messac",
      "lat": 45.35,
      "lng": -0.316667
    },
    {
      "cityName": "Messais",
      "lat": 46.866667,
      "lng": 0.016667
    },
    {
      "cityName": "Messemé",
      "lat": 47.016667,
      "lng": 0.166667
    },
    {
      "cityName": "Messé",
      "lat": 46.266667,
      "lng": 0.116667
    },
    {
      "cityName": "Messeux",
      "lat": 46.016667,
      "lng": 0.35
    },
    {
      "cityName": "Mesura",
      "lat": 46,
      "lng": 0.833333
    },
    {
      "cityName": "Meursac",
      "lat": 45.65,
      "lng": -0.816667
    },
    {
      "cityName": "Meux",
      "lat": 45.45,
      "lng": -0.35
    },
    {
      "cityName": "Miaulant",
      "lat": 45.716667,
      "lng": 0.466667
    },
    {
      "cityName": "Migaudon",
      "lat": 46.966667,
      "lng": -0.383333
    },
    {
      "cityName": "Mignaloux-Beauvoir",
      "lat": 46.55,
      "lng": 0.416667
    },
    {
      "cityName": "Migné-Auxances",
      "lat": 46.633333,
      "lng": 0.316667
    },
    {
      "cityName": "Migré",
      "lat": 46.066667,
      "lng": -0.55
    },
    {
      "cityName": "Migron",
      "lat": 45.8,
      "lng": -0.4
    },
    {
      "cityName": "Millac",
      "lat": 46.183333,
      "lng": 0.683333
    },
    {
      "cityName": "Mirambeau",
      "lat": 45.366667,
      "lng": -0.566667
    },
    {
      "cityName": "Mirebeau-en-Poitou",
      "lat": 46.783333,
      "lng": 0.183333
    },
    {
      "cityName": "Missé",
      "lat": 46.95,
      "lng": -0.2
    },
    {
      "cityName": "Moëze",
      "lat": 45.9,
      "lng": -1.033333
    },
    {
      "cityName": "Moings",
      "lat": 45.483333,
      "lng": -0.35
    },
    {
      "cityName": "Moncontour-de-Poitou",
      "lat": 46.883333,
      "lng": -0.016667
    },
    {
      "cityName": "Moncoutant",
      "lat": 46.716667,
      "lng": -0.583333
    },
    {
      "cityName": "Mondion",
      "lat": 46.933333,
      "lng": 0.483333
    },