{
  "name": "Haute-Normandie",
  "cities": [
    {
      "cityName": "Abancourt",
      "lat": 49.583333,
      "lng": 1.633333
    },
    {
      "cityName": "Ablemont",
      "lat": 49.816667,
      "lng": 1
    },
    {
      "cityName": "Aclou",
      "lat": 49.166667,
      "lng": 0.7
    },
    {
      "cityName": "Acon",
      "lat": 48.766667,
      "lng": 1.1
    },
    {
      "cityName": "Acquigny",
      "lat": 49.166667,
      "lng": 1.183333
    },
    {
      "cityName": "Aigleville",
      "lat": 49,
      "lng": 1.416667
    },
    {
      "cityName": "Aincourt",
      "lat": 49.066667,
      "lng": 1.783333
    },
    {
      "cityName": "Aizier",
      "lat": 49.433333,
      "lng": 0.633333
    },
    {
      "cityName": "Ajou",
      "lat": 48.983333,
      "lng": 0.783333
    },
    {
      "cityName": "Alizay",
      "lat": 49.316667,
      "lng": 1.183333
    },
    {
      "cityName": "Alliquerville",
      "lat": 49.6,
      "lng": 0.6
    },
    {
      "cityName": "Allouville",
      "lat": 49.6,
      "lng": 0.683333
    },
    {
      "cityName": "Alvantot",
      "lat": 49.766667,
      "lng": 0.466667
    },
    {
      "cityName": "Alvimare",
      "lat": 49.6,
      "lng": 0.633333
    },
    {
      "cityName": "Alvimbuc",
      "lat": 49.65,
      "lng": 0.75
    },
    {
      "cityName": "Ambenay",
      "lat": 48.833333,
      "lng": 0.733333
    },
    {
      "cityName": "Ambleville",
      "lat": 49.15,
      "lng": 1.7
    },
    {
      "cityName": "Ambourville",
      "lat": 49.466667,
      "lng": 0.933333
    },
    {
      "cityName": "Ambrumesnil",
      "lat": 49.866667,
      "lng": 1
    },
    {
      "cityName": "Amécourt",
      "lat": 49.383333,
      "lng": 1.733333
    },
    {
      "cityName": "Amenucourt",
      "lat": 49.1,
      "lng": 1.65
    },
    {
      "cityName": "Amfreville",
      "lat": 49.15,
      "lng": 1.15
    },
    {
      "cityName": "Amfreville-la-Campagne",
      "lat": 49.216667,
      "lng": 0.95
    },
    {
      "cityName": "Amfreville-la-Mi-Voie",
      "lat": 49.4,
      "lng": 1.116667
    },
    {
      "cityName": "Amfreville-les-Champs",
      "lat": 49.316667,
      "lng": 1.316667
    },
    {
      "cityName": "Amfreville-sous-les-Monts",
      "lat": 49.3,
      "lng": 1.266667
    },
    {
      "cityName": "Anceaumeville",
      "lat": 49.583333,
      "lng": 1.05
    },
    {
      "cityName": "Ancourt",
      "lat": 49.9,
      "lng": 1.183333
    },
    {
      "cityName": "Ancourteville",
      "lat": 49.7,
      "lng": 0.666667
    },
    {
      "cityName": "Ancretieville",
      "lat": 49.65,
      "lng": 0.966667
    },
    {
      "cityName": "Ancretteville",
      "lat": 49.783333,
      "lng": 0.516667
    },
    {
      "cityName": "Andé",
      "lat": 49.233333,
      "lng": 1.233333
    },
    {
      "cityName": "Angerville",
      "lat": 49.583333,
      "lng": 0.283333
    },
    {
      "cityName": "Angerville-Bailleul",
      "lat": 49.666667,
      "lng": 0.45
    },
    {
      "cityName": "Angerville-la-Campagne",
      "lat": 49.983333,
      "lng": 1.166667
    },
    {
      "cityName": "Angerville-la-Martel",
      "lat": 49.766667,
      "lng": 0.5
    },
    {
      "cityName": "Angiens",
      "lat": 49.833333,
      "lng": 0.783333
    },
    {
      "cityName": "Anglesqueville",
      "lat": 49.633333,
      "lng": 0.233333
    },
    {
      "cityName": "Anglesqueville-la-Bras-Long",
      "lat": 49.783333,
      "lng": 0.783333
    },
    {
      "cityName": "Anglesqueville-sur-Saâne",
      "lat": 49.7,
      "lng": 0.966667
    },
    {
      "cityName": "Anneville-Ambourville",
      "lat": 49.466667,
      "lng": 0.883333
    },
    {
      "cityName": "Anneville-sur-Scie",
      "lat": 49.833333,
      "lng": 1.083333
    },
    {
      "cityName": "Annouville",
      "lat": 49.683333,
      "lng": 0.433333
    },
    {
      "cityName": "Anquetierville",
      "lat": 49.533333,
      "lng": 0.633333
    },
    {
      "cityName": "Ansicourt",
      "lat": 49.183333,
      "lng": 1.683333
    },
    {
      "cityName": "Anvéville",
      "lat": 49.7,
      "lng": 0.733333
    },
    {
      "cityName": "Anxtot",
      "lat": 49.6,
      "lng": 0.383333
    },
    {
      "cityName": "Appeville-Annebault",
      "lat": 49.316667,
      "lng": 0.65
    },
    {
      "cityName": "Apremont",
      "lat": 48.983333,
      "lng": 1.616667
    },
    {
      "cityName": "Arantot",
      "lat": 49.733333,
      "lng": 0.583333
    },
    {
      "cityName": "Archelles",
      "lat": 49.883333,
      "lng": 1.15
    },
    {
      "cityName": "Ardouval",
      "lat": 49.75,
      "lng": 1.266667
    },
    {
      "cityName": "Argueil",
      "lat": 49.533333,
      "lng": 1.516667
    },
    {
      "cityName": "Armentières",
      "lat": 48.683333,
      "lng": 0.816667
    },
    {
      "cityName": "Armères",
      "lat": 48.983333,
      "lng": 1.116667
    },
    {
      "cityName": "Arques",
      "lat": 49.883333,
      "lng": 1.133333
    },
    {
      "cityName": "Asnières",
      "lat": 49.2,
      "lng": 0.383333
    },
    {
      "cityName": "Assigny",
      "lat": 49.983333,
      "lng": 1.3
    },
    {
      "cityName": "Attevillette",
      "lat": 49.65,
      "lng": 1.433333
    },
    {
      "cityName": "Aubéguimont",
      "lat": 49.8,
      "lng": 1.666667
    },
    {
      "cityName": "Auberbosc",
      "lat": 49.633333,
      "lng": 0.583333
    },
    {
      "cityName": "Aubergenville",
      "lat": 48.966667,
      "lng": 1.85
    },
    {
      "cityName": "Aubermesnil",
      "lat": 49.833333,
      "lng": 1.566667
    },
    {
      "cityName": "Aubermesnil-Beaumais",
      "lat": 49.85,
      "lng": 1.116667
    },
    {
      "cityName": "Auberville",
      "lat": 49.533333,
      "lng": 0.6
    },
    {
      "cityName": "Auberville-la-Manuel",
      "lat": 49.833333,
      "lng": 0.583333
    },
    {
      "cityName": "Auberville-la-Renault",
      "lat": 49.683333,
      "lng": 0.366667
    },
    {
      "cityName": "Aubevoie",
      "lat": 49.15,
      "lng": 1.333333
    },
    {
      "cityName": "Aubigny",
      "lat": 49.183333,
      "lng": 1.583333
    },
    {
      "cityName": "Auffay",
      "lat": 49.716667,
      "lng": 1.1
    },
    {
      "cityName": "Augeville",
      "lat": 49.633333,
      "lng": 1.2
    },
    {
      "cityName": "Aulages",
      "lat": 49.75,
      "lng": 1.416667
    },
    {
      "cityName": "Aulnay",
      "lat": 48.933333,
      "lng": 1.85
    },
    {
      "cityName": "Aulnay-sur-Iton",
      "lat": 49,
      "lng": 1.05
    },
    {
      "cityName": "Aumale",
      "lat": 49.766667,
      "lng": 1.75
    },
    {
      "cityName": "Aumare",
      "lat": 49.283333,
      "lng": 1.316667
    },
    {
      "cityName": "Auppegard",
      "lat": 49.833333,
      "lng": 1.033333
    },
    {
      "cityName": "Auquemesnil",
      "lat": 49.95,
      "lng": 1.333333
    },
    {
      "cityName": "Authenay",
      "lat": 48.85,
      "lng": 1.05
    },
    {
      "cityName": "Autheuil",
      "lat": 49.1,
      "lng": 1.283333
    },
    {
      "cityName": "Authevernes",
      "lat": 49.216667,
      "lng": 1.633333
    },
    {
      "cityName": "Authieux",
      "lat": 49.6,
      "lng": 1.15
    },
    {
      "cityName": "Authou",
      "lat": 49.233333,
      "lng": 0.7
    },
    {
      "cityName": "Autigny",
      "lat": 49.8,
      "lng": 0.866667
    },
    {
      "cityName": "Autrecourt",
      "lat": 49.75,
      "lng": 1.383333
    },
    {
      "cityName": "Autretot",
      "lat": 49.65,
      "lng": 0.733333
    },
    {
      "cityName": "Auvergne",
      "lat": 48.883333,
      "lng": 0.733333
    },
    {
      "cityName": "Auvilliers",
      "lat": 49.766667,
      "lng": 1.583333
    },
    {
      "cityName": "Auzebosc",
      "lat": 49.6,
      "lng": 0.733333
    },
    {
      "cityName": "Auzouville-Auberbosc",
      "lat": 49.633333,
      "lng": 0.566667
    },
    {
      "cityName": "Auzouville",
      "lat": 49.433333,
      "lng": 1.316667
    },
    {
      "cityName": "Auzouville-l'Esneval",
      "lat": 49.633333,
      "lng": 0.883333
    },
    {
      "cityName": "Auzouville-sur-Saâne",
      "lat": 49.75,
      "lng": 0.933333
    },
    {
      "cityName": "Aveny",
      "lat": 49.166667,
      "lng": 1.65
    },
    {
      "cityName": "Avesnes",
      "lat": 49.466667,
      "lng": 1.666667
    },
    {
      "cityName": "Avesnes-en-Val",
      "lat": 49.916667,
      "lng": 1.4
    },
    {
      "cityName": "Aviron",
      "lat": 49.05,
      "lng": 1.116667
    },
    {
      "cityName": "Avremesnil",
      "lat": 49.85,
      "lng": 0.933333
    },
    {
      "cityName": "Avrilly",
      "lat": 48.933333,
      "lng": 1.15
    },
    {
      "cityName": "Bacquepuis",
      "lat": 49.083333,
      "lng": 1.05
    },
    {
      "cityName": "Bacqueville",
      "lat": 49.316667,
      "lng": 1.366667
    },
    {
      "cityName": "Bacqueville-en-Caux",
      "lat": 49.783333,
      "lng": 1
    },
    {
      "cityName": "Bailleul",
      "lat": 49.2,
      "lng": 0.433333
    },
    {
      "cityName": "Bailleul-Neuville",
      "lat": 49.8,
      "lng": 1.416667
    },
    {
      "cityName": "Baillolet",
      "lat": 49.8,
      "lng": 1.433333
    },
    {
      "cityName": "Bailly",
      "lat": 49.916667,
      "lng": 1.35
    },
    {
      "cityName": "Bailly-en-Campagne",
      "lat": 49.866667,
      "lng": 1.416667
    },
    {
      "cityName": "Baons",
      "lat": 49.65,
      "lng": 0.783333
    },
    {
      "cityName": "Bapeaume",
      "lat": 49.45,
      "lng": 1.033333
    },
    {
      "cityName": "Barc",
      "lat": 49.066667,
      "lng": 0.816667
    },
    {
      "cityName": "Bardouville",
      "lat": 49.433333,
      "lng": 0.933333
    },
    {
      "cityName": "Barentin",
      "lat": 49.55,
      "lng": 0.95
    },
    {
      "cityName": "Barnabos",
      "lat": 49.65,
      "lng": 0.983333
    },
    {
      "cityName": "Barneville",
      "lat": 49.383333,
      "lng": 0.85
    },
    {
      "cityName": "Baromesnil",
      "lat": 49.983333,
      "lng": 1.416667
    },
    {
      "cityName": "Barquet",
      "lat": 49.05,
      "lng": 0.866667
    },
    {
      "cityName": "Barre-en-Ouche",
      "lat": 48.95,
      "lng": 0.666667
    },
    {
      "cityName": "Barville",
      "lat": 49.15,
      "lng": 0.483333
    },
    {
      "cityName": "Baudribosc",
      "lat": 49.716667,
      "lng": 0.866667
    },
    {
      "cityName": "Bazemont",
      "lat": 48.933333,
      "lng": 1.866667
    },
    {
      "cityName": "Bazincourt",
      "lat": 49.316667,
      "lng": 1.766667
    },
    {
      "cityName": "Bazinval",
      "lat": 49.966667,
      "lng": 1.55
    },
    {
      "cityName": "Bazoques",
      "lat": 49.166667,
      "lng": 0.55
    },
    {
      "cityName": "Beaubec",
      "lat": 49.65,
      "lng": 1.533333
    },
    {
      "cityName": "Beaubray",
      "lat": 48.916667,
      "lng": 0.916667
    },
    {
      "cityName": "Beauchêne",
      "lat": 49.566667,
      "lng": 0.516667
    },
    {
      "cityName": "Beaudouville",
      "lat": 49.633333,
      "lng": 0.916667
    },
    {
      "cityName": "Beaudrouard",
      "lat": 49.733333,
      "lng": 0.683333
    },
    {
      "cityName": "Beauficel",
      "lat": 49.4,
      "lng": 1.533333
    },
    {
      "cityName": "Beaufresne",
      "lat": 49.716667,
      "lng": 1.683333
    },
    {
      "cityName": "Beaulieu",
      "lat": 49.416667,
      "lng": 0.916667
    },
    {
      "cityName": "Beaumais",
      "lat": 49.85,
      "lng": 1.133333
    },
    {
      "cityName": "Beaumesnil",
      "lat": 49.016667,
      "lng": 0.716667
    },
    {
      "cityName": "Beaumont",
      "lat": 49.083333,
      "lng": 0.783333
    },
    {
      "cityName": "Beaumontel",
      "lat": 49.083333,
      "lng": 0.766667
    },
    {
      "cityName": "Beaumont-le-Hareng",
      "lat": 49.666667,
      "lng": 1.216667
    },
    {
      "cityName": "Beaunay",
      "lat": 49.75,
      "lng": 1.016667
    },
    {
      "cityName": "Beauraux",
      "lat": 49.7,
      "lng": 0.75
    },
    {
      "cityName": "Beaurepaire",
      "lat": 49.666667,
      "lng": 0.216667
    },
    {
      "cityName": "Beaussault",
      "lat": 49.683333,
      "lng": 1.566667
    },
    {
      "cityName": "Beautot",
      "lat": 49.65,
      "lng": 1.033333
    },
    {
      "cityName": "Beauvais",
      "lat": 48.716667,
      "lng": 0.9
    },
    {
      "cityName": "Beauval",
      "lat": 49.816667,
      "lng": 1.35
    },
    {
      "cityName": "Beauvoir",
      "lat": 49.5,
      "lng": 1.583333
    },
    {
      "cityName": "Bec-de-Mortagne",
      "lat": 49.7,
      "lng": 0.45
    },
    {
      "cityName": "Becquigny",
      "lat": 49.6,
      "lng": 0.933333
    },
    {
      "cityName": "Bédanne",
      "lat": 49.316667,
      "lng": 1.066667
    },
    {
      "cityName": "Belaitre",
      "lat": 49.433333,
      "lng": 0.95
    },
    {
      "cityName": "Belbeuf",
      "lat": 49.4,
      "lng": 1.15
    },
    {
      "cityName": "Belencombre",
      "lat": 49.7,
      "lng": 1.233333
    },
    {
      "cityName": "Bellaunay",
      "lat": 49.7,
      "lng": 1.516667
    },
    {
      "cityName": "Belle-Côte",
      "lat": 48.983333,
      "lng": 1.6
    },
    {
      "cityName": "Bellengreville",
      "lat": 49.9,
      "lng": 1.216667
    },
    {
      "cityName": "Belleville",
      "lat": 49.7,
      "lng": 0.983333
    },
    {
      "cityName": "Belleville-sur-Mer",
      "lat": 49.95,
      "lng": 1.166667
    },
    {
      "cityName": "Bellière",
      "lat": 49.6,
      "lng": 1.6
    },
    {
      "cityName": "Bellintot",
      "lat": 49.55,
      "lng": 0.9
    },
    {
      "cityName": "Bellosane",
      "lat": 49.683333,
      "lng": 1.383333
    },
    {
      "cityName": "Belmesnil",
      "lat": 49.766667,
      "lng": 1.05
    },
    {
      "cityName": "Bémécourt",
      "lat": 48.85,
      "lng": 0.883333
    },
    {
      "cityName": "Bénarville",
      "lat": 49.666667,
      "lng": 0.5
    },
    {
      "cityName": "Bénesville",
      "lat": 49.75,
      "lng": 0.833333
    },
    {
      "cityName": "Bennetot",
      "lat": 49.666667,
      "lng": 0.55
    },
    {
      "cityName": "Bénouville",
      "lat": 49.716667,
      "lng": 0.25
    },
    {
      "cityName": "Bérangeville-la Campagne",
      "lat": 49.1,
      "lng": 1.066667
    },
    {
      "cityName": "Bereult",
      "lat": 49.495,
      "lng": 0.155556
    },
    {
      "cityName": "Bermonville",
      "lat": 49.633333,
      "lng": 0.633333
    },
    {
      "cityName": "Bernay",
      "lat": 49.1,
      "lng": 0.6
    },
    {
      "cityName": "Berneval",
      "lat": 49.966667,
      "lng": 1.183333
    },
    {
      "cityName": "Berneval-sur-Mer",
      "lat": 49.95,
      "lng": 1.2
    },
    {
      "cityName": "Bernienville",
      "lat": 49.083333,
      "lng": 1.033333
    },
    {
      "cityName": "Bernières",
      "lat": 49.233333,
      "lng": 1.35
    },
    {
      "cityName": "Bernompré",
      "lat": 49.783333,
      "lng": 1.65
    },
    {
      "cityName": "Bernouville",
      "lat": 49.3,
      "lng": 1.7
    },
    {
      "cityName": "Bertheauville",
      "lat": 49.75,
      "lng": 0.583333
    },
    {
      "cityName": "Berthenonville",
      "lat": 49.183333,
      "lng": 1.666667
    },
    {
      "cityName": "Berthouville",
      "lat": 49.183333,
      "lng": 0.466667
    },
    {
      "cityName": "Bertramesnil",
      "lat": 49.633333,
      "lng": 1.216667
    },
    {
      "cityName": "Bertrand",
      "lat": 49.583333,
      "lng": 0.2
    },
    {
      "cityName": "Bertreville",
      "lat": 49.766667,
      "lng": 0.583333
    },
    {
      "cityName": "Bertreville-Saint-Ouen",
      "lat": 49.8,
      "lng": 1.05
    },
    {
      "cityName": "Bertrimont",
      "lat": 49.666667,
      "lng": 1
    },
    {
      "cityName": "Berville",
      "lat": 49.033333,
      "lng": 0.9
    },
    {
      "cityName": "Berville-en-Caux",
      "lat": 49.716667,
      "lng": 0.833333
    },
    {
      "cityName": "Berville-en-Roumois",
      "lat": 49.3,
      "lng": 0.833333
    },
    {
      "cityName": "Berville-en Roumois",
      "lat": 49.466667,
      "lng": 0.9
    },
    {
      "cityName": "Berville-sur-Mer",
      "lat": 49.433333,
      "lng": 0.366667
    },
    {
      "cityName": "Béthencourt",
      "lat": 49.55,
      "lng": 1.483333
    },
    {
      "cityName": "Betteville",
      "lat": 49.55,
      "lng": 0.8
    },
    {
      "cityName": "Beuville",
      "lat": 49.7,
      "lng": 1.066667
    },
    {
      "cityName": "Beuvreil",
      "lat": 49.533333,
      "lng": 1.683333
    },
    {
      "cityName": "Beuzeville",
      "lat": 49.333333,
      "lng": 0.35
    },
    {
      "cityName": "Beuzeville-la-Grenier",
      "lat": 49.6,
      "lng": 0.433333
    },
    {
      "cityName": "Beuzeville-la-Guérard",
      "lat": 49.716667,
      "lng": 0.616667
    },
    {
      "cityName": "Beuzevillette",
      "lat": 49.566667,
      "lng": 0.533333
    },
    {
      "cityName": "Bézancourt",
      "lat": 49.45,
      "lng": 1.633333
    },
    {
      "cityName": "Bézu-la-Forêt",
      "lat": 49.416667,
      "lng": 1.633333
    },
    {
      "cityName": "Bielleville",
      "lat": 49.65,
      "lng": 0.5
    },
    {
      "cityName": "Biennais",
      "lat": 49.65,
      "lng": 1.166667
    },
    {
      "cityName": "Bierville",
      "lat": 49.533333,
      "lng": 1.266667
    },
    {
      "cityName": "Biessard",
      "lat": 49.406111,
      "lng": 1.010556
    },
    {
      "cityName": "Bifauvel",
      "lat": 49.35,
      "lng": 1.633333
    },
    {
      "cityName": "Bihorel",
      "lat": 49.466667,
      "lng": 1.116667
    },
    {
      "cityName": "Bisrue",
      "lat": 49.483333,
      "lng": 0.35
    },
    {
      "cityName": "Biville",
      "lat": 49.716667,
      "lng": 1.05
    },
    {
      "cityName": "Biville-la-Rivière",
      "lat": 49.783333,
      "lng": 0.933333
    },
    {
      "cityName": "Biville-sur-Mer",
      "lat": 49.983333,
      "lng": 1.266667
    },
    {
      "cityName": "Bizy",
      "lat": 49.083333,
      "lng": 1.45
    },
    {
      "cityName": "Blacqueville",
      "lat": 49.566667,
      "lng": 0.866667
    },
    {
      "cityName": "Blainville",
      "lat": 49.5,
      "lng": 1.3
    },
    {
      "cityName": "Blangy",
      "lat": 49.933333,
      "lng": 1.633333
    },
    {
      "cityName": "Bléry",
      "lat": 48.966667,
      "lng": 1.6
    },
    {
      "cityName": "Bléville",
      "lat": 49.516667,
      "lng": 0.1
    },
    {
      "cityName": "Blosseville",
      "lat": 49.433333,
      "lng": 1.133333
    },
    {
      "cityName": "Blosseville-sur-Mer",
      "lat": 49.85,
      "lng": 0.8
    },
    {
      "cityName": "Bocasse",
      "lat": 49.6,
      "lng": 1.083333
    },
    {
      "cityName": "Bois-Anzeray",
      "lat": 48.916667,
      "lng": 0.7
    },
    {
      "cityName": "Bois-Arnault",
      "lat": 48.816667,
      "lng": 0.733333
    },
    {
      "cityName": "Bois-Bance",
      "lat": 49.533333,
      "lng": 0.8
    },
    {
      "cityName": "Bois",
      "lat": 48.866667,
      "lng": 1.35
    },
    {
      "cityName": "Bois-d'Ennebourg",
      "lat": 49.433333,
      "lng": 1.25
    },
    {
      "cityName": "Bois des Puits",
      "lat": 49.683333,
      "lng": 1.683333
    },
    {
      "cityName": "Boisemont",
      "lat": 49.283333,
      "lng": 1.5
    },
    {
      "cityName": "Bois-Gautier",
      "lat": 49.533333,
      "lng": 1.416667
    },
    {
      "cityName": "Bois-Guilbert",
      "lat": 49.55,
      "lng": 1.416667
    },
    {
      "cityName": "Bois-Guillaume",
      "lat": 49.466667,
      "lng": 1.133333
    },
    {
      "cityName": "Bois-Hatrel",
      "lat": 49.716667,
      "lng": 1.433333
    },
    {
      "cityName": "Bois-Héroult",
      "lat": 49.566667,
      "lng": 1.4
    },
    {
      "cityName": "Bois-Himont",
      "lat": 49.583333,
      "lng": 0.7
    },
    {
      "cityName": "Bois Hulin",
      "lat": 49.816667,
      "lng": 1.133333
    },
    {
      "cityName": "Bois-Jérôme-Saint-Ouen",
      "lat": 49.116667,
      "lng": 1.533333
    },
    {
      "cityName": "Bois-l'Eveque",
      "lat": 49.45,
      "lng": 1.266667
    },
    {
      "cityName": "Boismare",
      "lat": 49.733333,
      "lng": 0.533333
    },
    {
      "cityName": "Boisney",
      "lat": 49.15,
      "lng": 0.65
    },
    {
      "cityName": "Bois-Normand",
      "lat": 48.9,
      "lng": 0.7
    },
    {
      "cityName": "Boissay",
      "lat": 49.516667,
      "lng": 1.35
    },
    {
      "cityName": "Boisselet",
      "lat": 49.833333,
      "lng": 1.383333
    },
    {
      "cityName": "Boissey",
      "lat": 49.266667,
      "lng": 0.783333
    },
    {
      "cityName": "Boissy",
      "lat": 48.833333,
      "lng": 1.116667
    },
    {
      "cityName": "Boissy-Lamberville",
      "lat": 49.166667,
      "lng": 0.583333
    },
    {
      "cityName": "Boissy-Mauvoisin",
      "lat": 48.966667,
      "lng": 1.583333
    },
    {
      "cityName": "Bois Tillan",
      "lat": 49.666667,
      "lng": 0.85
    },
    {
      "cityName": "Boiteaumesnil",
      "lat": 49.916667,
      "lng": 1.616667
    },
    {
      "cityName": "Bolbec",
      "lat": 49.566667,
      "lng": 0.483333
    },
    {
      "cityName": "Bolleville",
      "lat": 49.6,
      "lng": 0.566667
    },
    {
      "cityName": "Boncourt",
      "lat": 49.033333,
      "lng": 1.3
    },
    {
      "cityName": "Bondeville",
      "lat": 49.766667,
      "lng": 0.45
    },
    {
      "cityName": "Bonnerue",
      "lat": 49.8,
      "lng": 1.466667
    },
    {
      "cityName": "Bonneville-Aptot",
      "lat": 49.25,
      "lng": 0.766667
    },
    {
      "cityName": "Boos",
      "lat": 49.383333,
      "lng": 1.2
    },
    {
      "cityName": "Bordeaux-Saint-Clair",
      "lat": 49.7,
      "lng": 0.25
    },
    {
      "cityName": "Bornambusc",
      "lat": 49.633333,
      "lng": 0.35
    },
    {
      "cityName": "Bosbenard",
      "lat": 49.316667,
      "lng": 0.833333
    },
    {
      "cityName": "Boscaboc",
      "lat": 49.583333,
      "lng": 0.683333
    },
    {
      "cityName": "Bosc-Asselin",
      "lat": 49.55,
      "lng": 1.45
    },
    {
      "cityName": "Bosc-Bénard-Crescy",
      "lat": 49.316667,
      "lng": 0.8
    },
    {
      "cityName": "Bosc-Bérenger",
      "lat": 49.633333,
      "lng": 1.25
    },
    {
      "cityName": "Bosc-Bordel",
      "lat": 49.6,
      "lng": 1.416667
    },
    {
      "cityName": "Bosc",
      "lat": 49.633333,
      "lng": 1.183333
    },
    {
      "cityName": "Bosc-Édeline",
      "lat": 49.566667,
      "lng": 1.433333
    },
    {
      "cityName": "Bosc-Geffroy",
      "lat": 49.833333,
      "lng": 1.516667
    },
    {
      "cityName": "Bosc Guerard",
      "lat": 49.55,
      "lng": 1.116667
    },
    {
      "cityName": "Boscherville",
      "lat": 49.283333,
      "lng": 0.883333
    },
    {
      "cityName": "Bosc-Hyons",
      "lat": 49.45,
      "lng": 1.666667
    },
    {
      "cityName": "Bosc-le-Comte",
      "lat": 49.833333,
      "lng": 0.9
    },
    {
      "cityName": "Bosc-Mesnil",
      "lat": 49.666667,
      "lng": 1.35
    },
    {
      "cityName": "Bosc-Morand",
      "lat": 49.75,
      "lng": 0.95
    },
    {
      "cityName": "Bosc-Morel",
      "lat": 49,
      "lng": 0.566667
    },
    {
      "cityName": "Boscregnoult",
      "lat": 49.3,
      "lng": 0.766667
    },
    {
      "cityName": "Bosc-Renault",
      "lat": 49.633333,
      "lng": 0.716667
    },
    {
      "cityName": "Bosc Renoult",
      "lat": 48.95,
      "lng": 0.7
    },
    {
      "cityName": "Boscrocourt",
      "lat": 50.016667,
      "lng": 1.416667
    },
    {
      "cityName": "Boscroger",
      "lat": 49.283333,
      "lng": 0.933333
    },
    {
      "cityName": "Bosc-Roger",
      "lat": 49.583333,
      "lng": 1.366667
    },
    {
      "cityName": "Bosgouet",
      "lat": 49.35,
      "lng": 0.85
    },
    {
      "cityName": "Bosguérard",
      "lat": 49.266667,
      "lng": 0.833333
    },
    {
      "cityName": "Bosnormand",
      "lat": 49.283333,
      "lng": 0.9
    },
    {
      "cityName": "Bosquentin",
      "lat": 49.416667,
      "lng": 1.583333
    },
    {
      "cityName": "Bosrobert",
      "lat": 49.233333,
      "lng": 0.75
    },
    {
      "cityName": "Bosville",
      "lat": 49.75,
      "lng": 0.683333
    },
    {
      "cityName": "Bouafle",
      "lat": 48.966667,
      "lng": 1.9
    },
    {
      "cityName": "Bouafles",
      "lat": 49.216667,
      "lng": 1.383333
    },
    {
      "cityName": "Bouchevilliers",
      "lat": 49.4,
      "lng": 1.7
    },
    {
      "cityName": "Boudeville",
      "lat": 49.716667,
      "lng": 0.883333
    },
    {
      "cityName": "Bouelles",
      "lat": 49.716667,
      "lng": 1.5
    },
    {
      "cityName": "Bouhours",
      "lat": 48.733333,
      "lng": 0.8
    },
    {
      "cityName": "Boulay",
      "lat": 49.483333,
      "lng": 1.466667
    },
    {
      "cityName": "Boulleville",
      "lat": 49.366667,
      "lng": 0.383333
    },
    {
      "cityName": "Bouquelon",
      "lat": 49.4,
      "lng": 0.483333
    },
    {
      "cityName": "Bouquetot",
      "lat": 49.366667,
      "lng": 0.783333
    },
    {
      "cityName": "Bourdainville",
      "lat": 49.666667,
      "lng": 0.95
    },
    {
      "cityName": "Bourdon",
      "lat": 49.366667,
      "lng": 0.516667
    },
    {
      "cityName": "Bourg-Achard",
      "lat": 49.35,
      "lng": 0.816667
    },
    {
      "cityName": "Bourg-Beaudouin",
      "lat": 49.383333,
      "lng": 1.3
    },
    {
      "cityName": "Bourg-Dun",
      "lat": 49.866667,
      "lng": 0.9
    },
    {
      "cityName": "Bourg-l'Abbe",
      "lat": 48.766667,
      "lng": 1.333333
    },
    {
      "cityName": "Bourgnaudin",
      "lat": 49.583333,
      "lng": 0.75
    },
    {
      "cityName": "Bourgthéroulde",
      "lat": 49.3,
      "lng": 0.883333
    },
    {
      "cityName": "Bouricourt",
      "lat": 49.533333,
      "lng": 1.716667
    },
    {
      "cityName": "Bournainville",
      "lat": 49.133333,
      "lng": 0.483333
    },
    {
      "cityName": "Bourneville",
      "lat": 49.383333,
      "lng": 0.616667
    },
    {
      "cityName": "Bourth",
      "lat": 48.766667,
      "lng": 0.816667
    },
    {
      "cityName": "Bourville",
      "lat": 49.8,
      "lng": 0.816667
    },
    {
      "cityName": "Bout d'Amont",
      "lat": 49.85,
      "lng": 1.3
    },
    {
      "cityName": "Bout d'Aval",
      "lat": 49.866667,
      "lng": 1.283333
    },
    {
      "cityName": "Bouville",
      "lat": 49.566667,
      "lng": 0.9
    },
    {
      "cityName": "Brachy",
      "lat": 49.816667,
      "lng": 0.95
    },
    {
      "cityName": "Bracquemont",
      "lat": 49.95,
      "lng": 1.15
    },
    {
      "cityName": "Bracquetuit",
      "lat": 49.666667,
      "lng": 1.166667
    },
    {
      "cityName": "Bradiancourt",
      "lat": 49.666667,
      "lng": 1.383333
    },
    {
      "cityName": "Brais",
      "lat": 49.916667,
      "lng": 1.283333
    },
    {
      "cityName": "Brametot",
      "lat": 49.783333,
      "lng": 0.866667
    },
    {
      "cityName": "Bray",
      "lat": 49.133333,
      "lng": 1.65
    },
    {
      "cityName": "Bréauté",
      "lat": 49.633333,
      "lng": 0.4
    },
    {
      "cityName": "Brémont",
      "lat": 49.8,
      "lng": 1.516667
    },
    {
      "cityName": "Brémontier",
      "lat": 49.5,
      "lng": 1.616667
    },
    {
      "cityName": "Bréquigny",
      "lat": 49.65,
      "lng": 1.316667
    },
    {
      "cityName": "Brestot",
      "lat": 49.35,
      "lng": 0.683333
    },
    {
      "cityName": "Breteuil",
      "lat": 48.833333,
      "lng": 0.916667
    },
    {
      "cityName": "Brétigny",
      "lat": 49.216667,
      "lng": 0.683333
    },
    {
      "cityName": "Bretteville",
      "lat": 49.666667,
      "lng": 1.033333
    },
    {
      "cityName": "Bretteville-du-Grand Caux",
      "lat": 49.666667,
      "lng": 0.4
    },
    {
      "cityName": "Bretteville-Saint-Laurent",
      "lat": 49.766667,
      "lng": 0.883333
    },
    {
      "cityName": "Breuil",
      "lat": 49.216667,
      "lng": 1.716667
    },
    {
      "cityName": "Breuil-en-Vexin",
      "lat": 49.033333,
      "lng": 1.816667
    },
    {
      "cityName": "Breuilly",
      "lat": 49.916667,
      "lng": 1.233333
    },
    {
      "cityName": "Breuilpont",
      "lat": 48.966667,
      "lng": 1.433333
    },
    {
      "cityName": "Breux",
      "lat": 48.766667,
      "lng": 1.083333
    },
    {
      "cityName": "Bréval",
      "lat": 48.95,
      "lng": 1.533333
    },
    {
      "cityName": "Brière",
      "lat": 49.566667,
      "lng": 0.1
    },
    {
      "cityName": "Brionne",
      "lat": 49.2,
      "lng": 0.716667
    },
    {
      "cityName": "Broglie",
      "lat": 49.016667,
      "lng": 0.533333
    },
    {
      "cityName": "Brosville",
      "lat": 49.1,
      "lng": 1.116667
    },
    {
      "cityName": "Brunville",
      "lat": 49.966667,
      "lng": 1.266667
    },
    {
      "cityName": "Bruquedalle",
      "lat": 49.516667,
      "lng": 1.433333
    },
    {
      "cityName": "Bueil",
      "lat": 48.933333,
      "lng": 1.45
    },
    {
      "cityName": "Buglise",
      "lat": 49.6,
      "lng": 0.166667
    },
    {
      "cityName": "Buhy",
      "lat": 49.2,
      "lng": 1.683333
    },
    {
      "cityName": "Bully",
      "lat": 49.733333,
      "lng": 1.366667
    },
    {
      "cityName": "Bures",
      "lat": 49.783333,
      "lng": 1.333333
    },
    {
      "cityName": "Burey",
      "lat": 48.983333,
      "lng": 0.95
    },
    {
      "cityName": "Bus",
      "lat": 49.15,
      "lng": 1.616667
    },
    {
      "cityName": "Butot",
      "lat": 49.616667,
      "lng": 1.033333
    },
    {
      "cityName": "Butot-en-Caux",
      "lat": 49.816667,
      "lng": 0.6
    },
    {
      "cityName": "Caër",
      "lat": 49.066667,
      "lng": 1.183333
    },
    {
      "cityName": "Cahaignes",
      "lat": 49.2,
      "lng": 1.6
    },
    {
      "cityName": "Cailleville",
      "lat": 49.833333,
      "lng": 0.733333
    },
    {
      "cityName": "Caillouet",
      "lat": 49,
      "lng": 1.316667
    },
    {
      "cityName": "Cailly",
      "lat": 49.116667,
      "lng": 1.216667
    },
    {
      "cityName": "Calibours",
      "lat": 49.516667,
      "lng": 0.816667
    },
    {
      "cityName": "Calleville",
      "lat": 49.2,
      "lng": 0.766667
    },
    {
      "cityName": "Calleville-les-Deux-Églises",
      "lat": 49.7,
      "lng": 1.016667
    },
    {
      "cityName": "Calmont",
      "lat": 49.883333,
      "lng": 1.1
    },
    {
      "cityName": "Camp Caillot",
      "lat": 49.483333,
      "lng": 1.633333
    },
    {
      "cityName": "Campigny",
      "lat": 49.316667,
      "lng": 0.55
    },
    {
      "cityName": "Campneuseville",
      "lat": 49.866667,
      "lng": 1.666667
    },
    {
      "cityName": "Canappeville",
      "lat": 49.15,
      "lng": 1.1
    },
    {
      "cityName": "Canchy",
      "lat": 49.666667,
      "lng": 1.433333
    },
    {
      "cityName": "Candos",
      "lat": 49.516667,
      "lng": 0.95
    },
    {
      "cityName": "Canehan",
      "lat": 49.983333,
      "lng": 1.35
    },
    {
      "cityName": "Canouville",
      "lat": 49.8,
      "lng": 0.6
    },
    {
      "cityName": "Canteloup",
      "lat": 49.25,
      "lng": 1.516667
    },
    {
      "cityName": "Cantepy",
      "lat": 49.483333,
      "lng": 0.65
    },
    {
      "cityName": "Cantiers",
      "lat": 49.233333,
      "lng": 1.583333
    },
    {
      "cityName": "Canville",
      "lat": 49.766667,
      "lng": 0.833333
    },
    {
      "cityName": "Cany-Barville",
      "lat": 49.783333,
      "lng": 0.633333
    },
    {
      "cityName": "Caorches",
      "lat": 49.083333,
      "lng": 0.55
    },
    {
      "cityName": "Capelle",
      "lat": 49.05,
      "lng": 0.483333
    },
    {
      "cityName": "Capval",
      "lat": 49.866667,
      "lng": 1.383333
    },
    {
      "cityName": "Carbec-Grestain",
      "lat": 49.416667,
      "lng": 0.35
    },
    {
      "cityName": "Carcuit",
      "lat": 49.75,
      "lng": 1.1
    },
    {
      "cityName": "Carouge",
      "lat": 49.416667,
      "lng": 0.833333
    },
    {
      "cityName": "Carsix",
      "lat": 49.133333,
      "lng": 0.666667
    },
    {
      "cityName": "Carville",
      "lat": 49.566667,
      "lng": 0.816667
    },
    {
      "cityName": "Carville-Pot-de-Fer",
      "lat": 49.716667,
      "lng": 0.716667
    },
    {
      "cityName": "Catelon",
      "lat": 49.316667,
      "lng": 0.75
    },
    {
      "cityName": "Catenay",
      "lat": 49.516667,
      "lng": 1.333333
    },
    {
      "cityName": "Catteville",
      "lat": 49.833333,
      "lng": 1.066667
    },
    {
      "cityName": "Caudebec",
      "lat": 49.283333,
      "lng": 1.033333
    },
    {
      "cityName": "Caudebec-en-Caux",
      "lat": 49.533333,
      "lng": 0.733333
    },
    {
      "cityName": "Caudebecquet",
      "lat": 49.516667,
      "lng": 0.766667
    },
    {
      "cityName": "Caugé",
      "lat": 49.016667,
      "lng": 1.033333
    },
    {
      "cityName": "Caumont",
      "lat": 49.366667,
      "lng": 0.9
    },
    {
      "cityName": "Cauverville",
      "lat": 49.35,
      "lng": 0.65
    },
    {
      "cityName": "Cauville",
      "lat": 49.6,
      "lng": 0.133333
    },
    {
      "cityName": "Cavaumont",
      "lat": 49.466667,
      "lng": 0.783333
    },
    {
      "cityName": "Cayenne",
      "lat": 49.566667,
      "lng": 1.633333
    },
    {
      "cityName": "Celloville",
      "lat": 49.383333,
      "lng": 1.15
    },
    {
      "cityName": "Cesseville",
      "lat": 49.183333,
      "lng": 0.983333
    },
    {
      "cityName": "Chaignes",
      "lat": 49.016667,
      "lng": 1.45
    },
    {
      "cityName": "Chaise-Dieu",
      "lat": 48.766667,
      "lng": 0.766667
    },
    {
      "cityName": "Chamblac",
      "lat": 48.983333,
      "lng": 0.55
    },
    {
      "cityName": "Chambord",
      "lat": 48.9,
      "lng": 0.616667
    },
    {
      "cityName": "Chambray",
      "lat": 49.083333,
      "lng": 1.316667
    },
    {
      "cityName": "Champ-Dolent",
      "lat": 48.966667,
      "lng": 1.016667
    },
    {
      "cityName": "Champenard",
      "lat": 49.1,
      "lng": 1.333333
    },
    {
      "cityName": "Champignolles",
      "lat": 48.966667,
      "lng": 0.766667
    },
    {
      "cityName": "Champigny-la-Futelaye",
      "lat": 48.866667,
      "lng": 1.3
    },
    {
      "cityName": "Chanteloup",
      "lat": 48.883333,
      "lng": 1.016667
    },
    {
      "cityName": "Chantemesle",
      "lat": 49.083333,
      "lng": 1.666667
    },
    {
      "cityName": "Chantereine",
      "lat": 50.016667,
      "lng": 1.316667
    },
    {
      "cityName": "Chanu",
      "lat": 48.95,
      "lng": 1.466667
    },
    {
      "cityName": "Chapelle Sainte-Honorine",
      "lat": 49.533333,
      "lng": 0.45
    },
    {
      "cityName": "Charleval",
      "lat": 49.366667,
      "lng": 1.383333
    },
    {
      "cityName": "Château",
      "lat": 49.2,
      "lng": 1.666667
    },
    {
      "cityName": "Chaufour",
      "lat": 49.016667,
      "lng": 1.483333
    },
    {
      "cityName": "Chaumont",
      "lat": 49.65,
      "lng": 0.4
    },
    {
      "cityName": "Chaussy",
      "lat": 49.116667,
      "lng": 1.683333
    },
    {
      "cityName": "Chauvincourt",
      "lat": 49.283333,
      "lng": 1.633333
    },
    {
      "cityName": "Chavigny-Bailleul",
      "lat": 48.883333,
      "lng": 1.2
    },
    {
      "cityName": "Chêne-Godon",
      "lat": 49.05,
      "lng": 1.5
    },
    {
      "cityName": "Chennebrun",
      "lat": 48.683333,
      "lng": 0.783333
    },
    {
      "cityName": "Chérance",
      "lat": 49.083333,
      "lng": 1.683333
    },
    {
      "cityName": "Chéronvilliers",
      "lat": 48.783333,
      "lng": 0.733333
    },
    {
      "cityName": "Chèvremont",
      "lat": 48.75,
      "lng": 1.033333
    },
    {
      "cityName": "Cideville",
      "lat": 49.616667,
      "lng": 0.9
    },
    {
      "cityName": "Cierrey",
      "lat": 49,
      "lng": 1.266667
    },
    {
      "cityName": "Cintray",
      "lat": 48.8,
      "lng": 0.883333
    },
    {
      "cityName": "Cité Chauvin",
      "lat": 49.494167,
      "lng": 0.169444
    },
    {
      "cityName": "Cité des Champs Barets",
      "lat": 49.498056,
      "lng": 0.166111
    },
    {
      "cityName": "Civières",
      "lat": 49.166667,
      "lng": 1.583333
    },
    {
      "cityName": "Clachalôze",
      "lat": 49.066667,
      "lng": 1.6
    },
    {
      "cityName": "Clainville",
      "lat": 49.783333,
      "lng": 0.466667
    },
    {
      "cityName": "Clairefontaine",
      "lat": 49.616667,
      "lng": 1.333333
    },
    {
      "cityName": "Clais",
      "lat": 49.8,
      "lng": 1.45
    },
    {
      "cityName": "Clasville",
      "lat": 49.8,
      "lng": 0.616667
    },
    {
      "cityName": "Claville",
      "lat": 49.05,
      "lng": 1.016667
    },
    {
      "cityName": "Claville-Motteville",
      "lat": 49.6,
      "lng": 1.2
    },
    {
      "cityName": "Cléon",
      "lat": 49.316667,
      "lng": 1.033333
    },
    {
      "cityName": "Cléres",
      "lat": 49.6,
      "lng": 1.116667
    },
    {
      "cityName": "Cléry",
      "lat": 49.216667,
      "lng": 1.416667
    },
    {
      "cityName": "Cleuville",
      "lat": 49.716667,
      "lng": 0.633333
    },
    {
      "cityName": "Cléville",
      "lat": 49.616667,
      "lng": 0.616667
    },
    {
      "cityName": "Cliponville",
      "lat": 49.683333,
      "lng": 0.666667
    },
    {
      "cityName": "Cocusseville",
      "lat": 49.55,
      "lng": 0.266667
    },
    {
      "cityName": "Collandres",
      "lat": 49,
      "lng": 0.85
    },
    {
      "cityName": "Colleville",
      "lat": 49.75,
      "lng": 0.466667
    },
    {
      "cityName": "Colmare",
      "lat": 49.583333,
      "lng": 1.266667
    },
    {
      "cityName": "Colmesnil",
      "lat": 49.85,
      "lng": 1.033333
    },
    {
      "cityName": "Colmont",
      "lat": 49.733333,
      "lng": 0.8
    },
    {
      "cityName": "Combon",
      "lat": 49.1,
      "lng": 0.883333
    },
    {
      "cityName": "Compainville",
      "lat": 49.666667,
      "lng": 1.566667
    },
    {
      "cityName": "Conches",
      "lat": 48.966667,
      "lng": 0.933333
    },
    {
      "cityName": "Condé",
      "lat": 48.833333,
      "lng": 0.966667
    },
    {
      "cityName": "Condé-sur-Risle",
      "lat": 49.316667,
      "lng": 0.616667
    },
    {
      "cityName": "Conihaut",
      "lat": 49.4,
      "lng": 0.85
    },
    {
      "cityName": "Connelles",
      "lat": 49.25,
      "lng": 1.266667
    },
    {
      "cityName": "Conteville",
      "lat": 49.416667,
      "lng": 0.4
    },
    {
      "cityName": "Contremoulins",
      "lat": 49.733333,
      "lng": 0.433333
    },
    {
      "cityName": "Copière",
      "lat": 49.166667,
      "lng": 1.683333
    },
    {
      "cityName": "Coppegueule",
      "lat": 49.766667,
      "lng": 1.733333
    },
    {
      "cityName": "Coqueréaumont",
      "lat": 49.883333,
      "lng": 1.5
    },
    {
      "cityName": "Coquereaux",
      "lat": 49.816667,
      "lng": 1.666667
    },
    {
      "cityName": "Corbie",
      "lat": 49.166667,
      "lng": 1.55
    },
    {
      "cityName": "Cormeilles",
      "lat": 49.25,
      "lng": 0.383333
    },
    {
      "cityName": "Corneville",
      "lat": 49.066667,
      "lng": 0.7
    },
    {
      "cityName": "Corneville-sur-Risle",
      "lat": 49.333333,
      "lng": 0.616667
    },
    {
      "cityName": "Cornihout-de-Jumièges",
      "lat": 49.4,
      "lng": 0.816667
    },
    {
      "cityName": "Corny",
      "lat": 49.283333,
      "lng": 1.466667
    },
    {
      "cityName": "Corville",
      "lat": 49.15,
      "lng": 1.483333
    },
    {
      "cityName": "Côte Côte",
      "lat": 49.6,
      "lng": 1.066667
    },
    {
      "cityName": "Coudray",
      "lat": 49.333333,
      "lng": 1.5
    },
    {
      "cityName": "Coudres",
      "lat": 48.866667,
      "lng": 1.25
    },
    {
      "cityName": "Coulonges-Ardennes",
      "lat": 48.883333,
      "lng": 1.1
    },
    {
      "cityName": "Coupigny",
      "lat": 49.15,
      "lng": 1.583333
    },
    {
      "cityName": "Courbépine",
      "lat": 49.133333,
      "lng": 0.566667
    },
    {
      "cityName": "Courcelles",
      "lat": 49.183333,
      "lng": 1.366667
    },
    {
      "cityName": "Courdemanche",
      "lat": 48.816667,
      "lng": 1.283333
    },
    {
      "cityName": "Courteilles",
      "lat": 48.733333,
      "lng": 1.016667
    },
    {
      "cityName": "Couvicourt",
      "lat": 49.15,
      "lng": 1.366667
    },
    {
      "cityName": "Crasville",
      "lat": 49.216667,
      "lng": 1.083333
    },
    {
      "cityName": "Crasville-la-Mallet",
      "lat": 49.8,
      "lng": 0.716667
    },
    {
      "cityName": "Cravent",
      "lat": 49,
      "lng": 1.483333
    },
    {
      "cityName": "Cressy",
      "lat": 49.716667,
      "lng": 1.166667
    },
    {
      "cityName": "Crestot",
      "lat": 49.2,
      "lng": 0.966667
    },
    {
      "cityName": "Créton",
      "lat": 48.85,
      "lng": 1.15
    },
    {
      "cityName": "Cretot",
      "lat": 49.65,
      "lng": 0.35
    },
    {
      "cityName": "Criel-Plage",
      "lat": 50.033333,
      "lng": 1.316667
    },
    {
      "cityName": "Criquebeuf",
      "lat": 49.2,
      "lng": 1.016667
    },
    {
      "cityName": "Criquebeuf-en-Caux",
      "lat": 49.733333,
      "lng": 0.333333
    },
    {
      "cityName": "Criquebeuf-sur-Seine",
      "lat": 49.3,
      "lng": 1.1
    },
    {
      "cityName": "Criquetot",
      "lat": 49.65,
      "lng": 0.266667
    },
    {
      "cityName": "Criquetot-le-Mauconduit",
      "lat": 49.8,
      "lng": 0.566667
    },
    {
      "cityName": "Criquetot-sur-Longueville",
      "lat": 49.783333,
      "lng": 1.083333
    },
    {
      "cityName": "Criquetot-sur-Ouville",
      "lat": 49.683333,
      "lng": 0.85
    },
    {
      "cityName": "Criquiers",
      "lat": 49.683333,
      "lng": 1.7
    },
    {
      "cityName": "Critot",
      "lat": 49.616667,
      "lng": 1.25
    },
    {
      "cityName": "Croisset",
      "lat": 49.438889,
      "lng": 1.036667
    },
    {
      "cityName": "Croisy",
      "lat": 49.033333,
      "lng": 1.35
    },
    {
      "cityName": "Croix Bigot",
      "lat": 49.733333,
      "lng": 0.35
    },
    {
      "cityName": "Croixdalle",
      "lat": 49.816667,
      "lng": 1.366667
    },
    {
      "cityName": "Croix-Mare",
      "lat": 49.6,
      "lng": 0.85
    },
    {
      "cityName": "Cropus",
      "lat": 49.733333,
      "lng": 1.15
    },
    {
      "cityName": "Crosville",
      "lat": 49.166667,
      "lng": 0.933333
    },
    {
      "cityName": "Crosville-sur-Scie",
      "lat": 49.816667,
      "lng": 1.083333
    },
    {
      "cityName": "Croth",
      "lat": 48.833333,
      "lng": 1.366667
    },
    {
      "cityName": "Cuignet",
      "lat": 49.75,
      "lng": 1.65
    },
    {
      "cityName": "Cuivreuse",
      "lat": 49.766667,
      "lng": 1.666667
    },
    {
      "cityName": "Cuverville",
      "lat": 49.283333,
      "lng": 1.366667
    },
    {
      "cityName": "Cuverville-sur-Yères",
      "lat": 49.8,
      "lng": 1.4
    },
    {
      "cityName": "Cuy",
      "lat": 49.516667,
      "lng": 1.7
    },
    {
      "cityName": "Dambec",
      "lat": 49.683333,
      "lng": 1.466667
    },
    {
      "cityName": "Dame-Marie",
      "lat": 48.8,
      "lng": 1
    },
    {
      "cityName": "Dampierre",
      "lat": 49.533333,
      "lng": 1.666667
    },
    {
      "cityName": "Dampierre-Saint-Nicolas",
      "lat": 49.866667,
      "lng": 1.2
    },
    {
      "cityName": "Dampont",
      "lat": 49.533333,
      "lng": 0.816667
    },
    {
      "cityName": "Damps",
      "lat": 49.3,
      "lng": 1.183333
    },
    {
      "cityName": "Dampsmesnil",
      "lat": 49.166667,
      "lng": 1.633333
    },
    {
      "cityName": "Damville",
      "lat": 48.866667,
      "lng": 1.066667
    },
    {
      "cityName": "Dancourt",
      "lat": 49.9,
      "lng": 1.55
    },
    {
      "cityName": "Dangu",
      "lat": 49.25,
      "lng": 1.7
    },
    {
      "cityName": "Dardez",
      "lat": 49.083333,
      "lng": 1.2
    },
    {
      "cityName": "Darnétal",
      "lat": 49.45,
      "lng": 1.15
    },
    {
      "cityName": "Daubeuf",
      "lat": 49.183333,
      "lng": 1.033333
    },
    {
      "cityName": "Daubeuf-près-Vatteville",
      "lat": 49.266667,
      "lng": 1.3
    },
    {
      "cityName": "Daubeuf-Serville",
      "lat": 49.7,
      "lng": 0.483333
    },
    {
      "cityName": "Derchigny",
      "lat": 49.933333,
      "lng": 1.216667
    },
    {
      "cityName": "Déville",
      "lat": 49.466667,
      "lng": 1.033333
    },
    {
      "cityName": "Dieppedalle",
      "lat": 49.433333,
      "lng": 1.016667
    },
    {
      "cityName": "Dieppe",
      "lat": 49.933333,
      "lng": 1.083333
    },
    {
      "cityName": "Dollemard",
      "lat": 49.516667,
      "lng": 0.066667
    },
    {
      "cityName": "Douains",
      "lat": 49.033333,
      "lng": 1.433333
    },
    {
      "cityName": "Doudeauville",
      "lat": 49.333333,
      "lng": 1.583333
    },
    {
      "cityName": "Doudeville",
      "lat": 49.716667,
      "lng": 0.8
    },
    {
      "cityName": "Douville",
      "lat": 49.333333,
      "lng": 1.3
    },
    {
      "cityName": "Douvrend",
      "lat": 49.866667,
      "lng": 1.316667
    },
    {
      "cityName": "Dracqueville",
      "lat": 49.733333,
      "lng": 0.983333
    },
    {
      "cityName": "Dranville",
      "lat": 49.716667,
      "lng": 1.583333
    },
    {
      "cityName": "Dreule",
      "lat": 49.633333,
      "lng": 1.233333
    },
    {
      "cityName": "Drocourt",
      "lat": 49.05,
      "lng": 1.766667
    },
    {
      "cityName": "Droisy",
      "lat": 48.8,
      "lng": 1.15
    },
    {
      "cityName": "Drosay",
      "lat": 49.8,
      "lng": 0.733333
    },
    {
      "cityName": "Drucourt",
      "lat": 49.116667,
      "lng": 0.466667
    },
    {
      "cityName": "Drumare",
      "lat": 49.5,
      "lng": 0.45
    },
    {
      "cityName": "Duclair",
      "lat": 49.483333,
      "lng": 0.883333
    },
    {
      "cityName": "Eauplet",
      "lat": 49.416667,
      "lng": 1.116667
    },
    {
      "cityName": "Écalles-Alix",
      "lat": 49.616667,
      "lng": 0.833333
    },
    {
      "cityName": "Écalles",
      "lat": 49.583333,
      "lng": 1.3
    },
    {
      "cityName": "Écaquelon",
      "lat": 49.283333,
      "lng": 0.716667
    },
    {
      "cityName": "Ecardenville",
      "lat": 49.1,
      "lng": 1.266667
    },
    {
      "cityName": "Écardenville-la-Campagne",
      "lat": 49.116667,
      "lng": 0.85
    },
    {
      "cityName": "Écauville",
      "lat": 49.116667,
      "lng": 1
    },
    {
      "cityName": "Écorcheval",
      "lat": 49.433333,
      "lng": 1.566667
    },
    {
      "cityName": "Écosse",
      "lat": 49.6,
      "lng": 0.333333
    },
    {
      "cityName": "Écouis",
      "lat": 49.316667,
      "lng": 1.433333
    },
    {
      "cityName": "Ecquetot",
      "lat": 49.166667,
      "lng": 1.016667
    },
    {
      "cityName": "Ecqueville",
      "lat": 49.583333,
      "lng": 0.116667
    },
    {
      "cityName": "Ecquevilly",
      "lat": 48.95,
      "lng": 1.916667
    },
    {
      "cityName": "Écrainville",
      "lat": 49.65,
      "lng": 0.333333
    },
    {
      "cityName": "Ecrépigny",
      "lat": 49.683333,
      "lng": 1.066667
    },
    {
      "cityName": "Ecrepintot",
      "lat": 49.616667,
      "lng": 0.2
    },
    {
      "cityName": "Écretteville",
      "lat": 49.633333,
      "lng": 0.666667
    },
    {
      "cityName": "Écretteville-sur-Mer",
      "lat": 49.8,
      "lng": 0.483333
    },
    {
      "cityName": "Ectot",
      "lat": 49.65,
      "lng": 0.8
    },
    {
      "cityName": "Ectot-l'Auber",
      "lat": 49.65,
      "lng": 0.933333
    },
    {
      "cityName": "Écuquetot",
      "lat": 49.6,
      "lng": 0.25
    },
    {
      "cityName": "Édruchon",
      "lat": 49.833333,
      "lng": 1.683333
    },
    {
      "cityName": "Elbeuf",
      "lat": 49.283333,
      "lng": 1
    },
    {
      "cityName": "Elbeuf-en-Bray",
      "lat": 49.483333,
      "lng": 1.65
    },
    {
      "cityName": "Elbeuf-sur-Andelle",
      "lat": 49.466667,
      "lng": 1.4
    },
    {
      "cityName": "Életot",
      "lat": 49.783333,
      "lng": 0.45
    },
    {
      "cityName": "Élihus",
      "lat": 49.783333,
      "lng": 1.25
    },
    {
      "cityName": "Ellecourt",
      "lat": 49.8,
      "lng": 1.716667
    },
    {
      "cityName": "Émalleville",
      "lat": 49.1,
      "lng": 1.166667
    },
    {
      "cityName": "Émanville",
      "lat": 49.066667,
      "lng": 0.916667
    },
    {
      "cityName": "Emfrayette",
      "lat": 49.55,
      "lng": 0.15
    },
    {
      "cityName": "Énanville",
      "lat": 49.516667,
      "lng": 0.283333
    },
    {
      "cityName": "Englesqueville",
      "lat": 49.883333,
      "lng": 0.883333
    },
    {
      "cityName": "Entre 2-Landes",
      "lat": 49.466667,
      "lng": 1.5
    },
    {
      "cityName": "Envermeu",
      "lat": 49.9,
      "lng": 1.266667
    },
    {
      "cityName": "Envronville",
      "lat": 49.666667,
      "lng": 0.666667
    },
    {
      "cityName": "Épaignes",
      "lat": 49.283333,
      "lng": 0.45
    },
    {
      "cityName": "Épaville",
      "lat": 49.616667,
      "lng": 0.166667
    },
    {
      "cityName": "Épégard",
      "lat": 49.183333,
      "lng": 0.883333
    },
    {
      "cityName": "Épieds",
      "lat": 48.933333,
      "lng": 1.4
    },
    {
      "cityName": "Épinay",
      "lat": 48.983333,
      "lng": 0.65
    },
    {
      "cityName": "Épinay-sur-Duclair",
      "lat": 49.533333,
      "lng": 0.85
    },
    {
      "cityName": "Épiven",
      "lat": 49.683333,
      "lng": 0.233333
    },
    {
      "cityName": "Épluques",
      "lat": 49.633333,
      "lng": 0.933333
    },
    {
      "cityName": "Épône",
      "lat": 48.95,
      "lng": 1.816667
    },
    {
      "cityName": "Épouville",
      "lat": 49.566667,
      "lng": 0.216667
    },
    {
      "cityName": "Épretot",
      "lat": 49.533333,
      "lng": 0.316667
    },
    {
      "cityName": "Épreville-en-Lieuvin",
      "lat": 49.2,
      "lng": 0.533333
    },
    {
      "cityName": "Épreville-en-Roumois",
      "lat": 49.316667,
      "lng": 0.766667
    },
    {
      "cityName": "Épreville",
      "lat": 49.133333,
      "lng": 0.883333
    },
    {
      "cityName": "Equinemare",
      "lat": 49.616667,
      "lng": 1.416667
    },
    {
      "cityName": "Équiqueville",
      "lat": 49.816667,
      "lng": 1.25
    },
    {
      "cityName": "Ermenouville",
      "lat": 49.8,
      "lng": 0.783333
    },
    {
      "cityName": "Ernemont",
      "lat": 49.533333,
      "lng": 1.366667
    },
    {
      "cityName": "Esclavelles",
      "lat": 49.7,
      "lng": 1.383333
    },
    {
      "cityName": "Eslettes",
      "lat": 49.55,
      "lng": 1.05
    },
    {
      "cityName": "Esteville",
      "lat": 49.6,
      "lng": 1.233333
    },
    {
      "cityName": "Estouteville-Écalles",
      "lat": 49.583333,
      "lng": 1.316667
    },
    {
      "cityName": "Étaimpuis",
      "lat": 49.65,
      "lng": 1.133333
    },
    {
      "cityName": "Étainemare",
      "lat": 49.666667,
      "lng": 0.783333
    },
    {
      "cityName": "Étainhus",
      "lat": 49.566667,
      "lng": 0.316667
    },
    {
      "cityName": "Étalleville",
      "lat": 49.733333,
      "lng": 0.833333
    },
    {
      "cityName": "Étalondes",
      "lat": 50.033333,
      "lng": 1.383333
    },
    {
      "cityName": "Étauhague",
      "lat": 49.716667,
      "lng": 0.916667
    },
    {
      "cityName": "Etheintot",
      "lat": 49.75,
      "lng": 0.6
    },
    {
      "cityName": "Étocquigny",
      "lat": 49.983333,
      "lng": 1.383333
    },
    {
      "cityName": "Étrépagny",
      "lat": 49.3,
      "lng": 1.616667
    },
    {
      "cityName": "Étretat",
      "lat": 49.7,
      "lng": 0.2
    },
    {
      "cityName": "Étréville",
      "lat": 49.366667,
      "lng": 0.65
    },
    {
      "cityName": "Etrimont",
      "lat": 49.916667,
      "lng": 1.366667
    },
    {
      "cityName": "Éturqueraye",
      "lat": 49.366667,
      "lng": 0.7
    },
    {
      "cityName": "Eu",
      "lat": 50.05,
      "lng": 1.416667
    },
    {
      "cityName": "Eurville",
      "lat": 49.716667,
      "lng": 0.966667
    },
    {
      "cityName": "Evreaux",
      "lat": 49.016667,
      "lng": 1.15
    },
    {
      "cityName": "Ézy",
      "lat": 48.866667,
      "lng": 1.416667
    },
    {
      "cityName": "Fains",
      "lat": 49,
      "lng": 1.383333
    },
    {
      "cityName": "Fallencourt",
      "lat": 49.866667,
      "lng": 1.566667
    },
    {
      "cityName": "Farceaux",
      "lat": 49.283333,
      "lng": 1.533333
    },
    {
      "cityName": "Fatouville",
      "lat": 49.4,
      "lng": 0.333333
    },
    {
      "cityName": "Fauque",
      "lat": 49.65,
      "lng": 0.633333
    },
    {
      "cityName": "Faute-d'Argent",
      "lat": 49.433333,
      "lng": 1.616667
    },
    {
      "cityName": "Fauville-en-Caux",
      "lat": 49.65,
      "lng": 0.583333
    },
    {
      "cityName": "Fauville",
      "lat": 49.033333,
      "lng": 1.2
    },
    {
      "cityName": "Faverolles",
      "lat": 49.016667,
      "lng": 0.933333
    },
    {
      "cityName": "Faverolles-les-Mares",
      "lat": 49.116667,
      "lng": 0.5
    },
    {
      "cityName": "Favrieux",
      "lat": 48.95,
      "lng": 1.65
    },
    {
      "cityName": "Fécamp",
      "lat": 49.75,
      "lng": 0.366667
    },
    {
      "cityName": "Ferriére",
      "lat": 49.016667,
      "lng": 0.983333
    },
    {
      "cityName": "Ferrières-en-Bray",
      "lat": 49.483333,
      "lng": 1.75
    },
    {
      "cityName": "Ferrières-Saint-Hilaire",
      "lat": 49.033333,
      "lng": 0.566667
    },
    {
      "cityName": "Fesques",
      "lat": 49.783333,
      "lng": 1.483333
    },
    {
      "cityName": "Feuguerolles",
      "lat": 49.133333,
      "lng": 1.033333
    },
    {
      "cityName": "Feuilloy",
      "lat": 49.9,
      "lng": 1.416667
    },
    {
      "cityName": "Feuquerolles",
      "lat": 49.266667,
      "lng": 1.466667
    },
    {
      "cityName": "Fiquainville",
      "lat": 49.733333,
      "lng": 0.483333
    },
    {
      "cityName": "Fiquefleur-Équainville",
      "lat": 49.416667,
      "lng": 0.316667
    },
    {
      "cityName": "Flacourt",
      "lat": 48.933333,
      "lng": 1.65
    },
    {
      "cityName": "Flainville",
      "lat": 49.883333,
      "lng": 0.9
    },
    {
      "cityName": "Flamanville",
      "lat": 49.633333,
      "lng": 0.833333
    },
    {
      "cityName": "Flamanvillette",
      "lat": 49.783333,
      "lng": 0.716667
    },
    {
      "cityName": "Flamare",
      "lat": 49.583333,
      "lng": 0.716667
    },
    {
      "cityName": "Flamets",
      "lat": 49.733333,
      "lng": 1.6
    },
    {
      "cityName": "Flancourt-Catelon",
      "lat": 49.333333,
      "lng": 0.766667
    },
    {
      "cityName": "Fleury",
      "lat": 49.366667,
      "lng": 1.35
    },
    {
      "cityName": "Fleury-la-Forêt",
      "lat": 49.416667,
      "lng": 1.55
    },
    {
      "cityName": "Fleuzy",
      "lat": 49.75,
      "lng": 1.75
    },
    {
      "cityName": "Flins",
      "lat": 48.966667,
      "lng": 1.866667
    },
    {
      "cityName": "Flipou",
      "lat": 49.316667,
      "lng": 1.283333
    },
    {
      "cityName": "Flocques",
      "lat": 50.033333,
      "lng": 1.366667
    },
    {
      "cityName": "Flumesnil",
      "lat": 49.266667,
      "lng": 1.55
    },
    {
      "cityName": "Follemprise",
      "lat": 49.766667,
      "lng": 1.316667
    },
    {
      "cityName": "Folleville",
      "lat": 49.15,
      "lng": 0.5
    },
    {
      "cityName": "Folny",
      "lat": 49.9,
      "lng": 1.45
    },
    {
      "cityName": "Fond-Duval",
      "lat": 49.516667,
      "lng": 1.083333
    },
    {
      "cityName": "Fongueusemare",
      "lat": 49.683333,
      "lng": 0.3
    },
    {
      "cityName": "Fontaine-Bellenger",
      "lat": 49.183333,
      "lng": 1.266667
    },
    {
      "cityName": "Fontaine-en-Bray",
      "lat": 49.683333,
      "lng": 1.416667
    },
    {
      "cityName": "Fontaine",
      "lat": 49.066667,
      "lng": 1.3
    },
    {
      "cityName": "Fontaine-Heudebourg",
      "lat": 49.133333,
      "lng": 1.216667
    },
    {
      "cityName": "Fontaine-l'Abbe",
      "lat": 49.083333,
      "lng": 0.7
    },
    {
      "cityName": "Fontaine-la-Louvet",
      "lat": 49.166667,
      "lng": 0.45
    },
    {
      "cityName": "Fontaine-la-Mallet",
      "lat": 49.533333,
      "lng": 0.15
    },
    {
      "cityName": "Fontaine-la-Soret",
      "lat": 49.15,
      "lng": 0.716667
    },
    {
      "cityName": "Fontaine-la-Verte",
      "lat": 49.183333,
      "lng": 1.3
    },
    {
      "cityName": "Fontaine-le-Bourg",
      "lat": 49.566667,
      "lng": 1.166667
    },
    {
      "cityName": "Fontaine-le-Dun",
      "lat": 49.816667,
      "lng": 0.85
    },
    {
      "cityName": "Fontaine-sous-Préaux",
      "lat": 49.483333,
      "lng": 1.183333
    },
    {
      "cityName": "Fontenay",
      "lat": 48.966667,
      "lng": 1.65
    },
    {
      "cityName": "Fontenay-Saint-Père",
      "lat": 49.033333,
      "lng": 1.75
    },
    {
      "cityName": "Forêt",
      "lat": 49.233333,
      "lng": 1.533333
    },
    {
      "cityName": "Forges",
      "lat": 49.616667,
      "lng": 1.55
    },
    {
      "cityName": "Forgettes",
      "lat": 49.6,
      "lng": 1.433333
    },
    {
      "cityName": "Fort-Moville",
      "lat": 49.333333,
      "lng": 0.416667
    },
    {
      "cityName": "Fotreux",
      "lat": 49.6,
      "lng": 0.35
    },
    {
      "cityName": "Foucarmont",
      "lat": 49.85,
      "lng": 1.566667
    },
    {
      "cityName": "Foucart",
      "lat": 49.616667,
      "lng": 0.6
    },
    {
      "cityName": "Foucrainville",
      "lat": 48.933333,
      "lng": 1.333333
    },
    {
      "cityName": "Foulbec",
      "lat": 49.4,
      "lng": 0.416667
    },
    {
      "cityName": "Fourges",
      "lat": 49.116667,
      "lng": 1.65
    },
    {
      "cityName": "Fourmetot",
      "lat": 49.383333,
      "lng": 0.566667
    },
    {
      "cityName": "Fours-en-Vexin",
      "lat": 49.183333,
      "lng": 1.6
    },
    {
      "cityName": "Francheville",
      "lat": 48.783333,
      "lng": 0.85
    },
    {
      "cityName": "Fréauville",
      "lat": 49.833333,
      "lng": 1.416667
    },
    {
      "cityName": "Freeles",
      "lat": 49.75,
      "lng": 1.35
    },
    {
      "cityName": "Fréneuse",
      "lat": 49.25,
      "lng": 0.666667
    },
    {
      "cityName": "Fresle",
      "lat": 49.516667,
      "lng": 1.383333
    },
    {
      "cityName": "Fresnay",
      "lat": 49.45,
      "lng": 1.45
    },
    {
      "cityName": "Fresnay-le-Long",
      "lat": 49.65,
      "lng": 1.1
    },
    {
      "cityName": "Fresne-Cauverville",
      "lat": 49.2,
      "lng": 0.466667
    },
    {
      "cityName": "Fresne-l'Archeveque",
      "lat": 49.3,
      "lng": 1.4
    },
    {
      "cityName": "Fresne-le-Plan",
      "lat": 49.416667,
      "lng": 1.3
    },
    {
      "cityName": "Fresney",
      "lat": 48.95,
      "lng": 1.316667
    },
    {
      "cityName": "Fresnoy-en-Val",
      "lat": 49.816667,
      "lng": 1.483333
    },
    {
      "cityName": "Fresnoy-Folny",
      "lat": 49.883333,
      "lng": 1.433333
    },
    {
      "cityName": "Fresquienne",
      "lat": 49.566667,
      "lng": 1.016667
    },
    {
      "cityName": "Freulleville",
      "lat": 49.833333,
      "lng": 1.233333
    },
    {
      "cityName": "Fréval",
      "lat": 49.733333,
      "lng": 1.166667
    },
    {
      "cityName": "Frévaux",
      "lat": 49.516667,
      "lng": 0.733333
    },
    {
      "cityName": "Frévent",
      "lat": 49.65,
      "lng": 1.683333
    },
    {
      "cityName": "Frichemesnil",
      "lat": 49.616667,
      "lng": 1.133333
    },
    {
      "cityName": "Fricourt",
      "lat": 49.583333,
      "lng": 1.666667
    },
    {
      "cityName": "Frileuse",
      "lat": 49.35,
      "lng": 1.566667
    },
    {
      "cityName": "Froberville",
      "lat": 49.716667,
      "lng": 0.333333
    },
    {
      "cityName": "Fry",
      "lat": 49.533333,
      "lng": 1.533333
    },
    {
      "cityName": "Fultot",
      "lat": 49.75,
      "lng": 0.8
    },
    {
      "cityName": "Fumechon",
      "lat": 49.883333,
      "lng": 1.366667
    },
    {
      "cityName": "Gaillardbois-Cressenville",
      "lat": 49.333333,
      "lng": 1.4
    },
    {
      "cityName": "Gaillefontaine",
      "lat": 49.65,
      "lng": 1.616667
    },
    {
      "cityName": "Gailloncel",
      "lat": 49.15,
      "lng": 1.35
    },
    {
      "cityName": "Gaillon",
      "lat": 49.166667,
      "lng": 1.333333
    },
    {
      "cityName": "Gainneville",
      "lat": 49.516667,
      "lng": 0.25
    },
    {
      "cityName": "Galleville",
      "lat": 49.733333,
      "lng": 0.783333
    },
    {
      "cityName": "Gamaches-en-Vexin",
      "lat": 49.266667,
      "lng": 1.616667
    },
    {
      "cityName": "Gamilly",
      "lat": 49.083333,
      "lng": 1.5
    },
    {
      "cityName": "Gancourt",
      "lat": 49.55,
      "lng": 1.716667
    },
    {
      "cityName": "Ganzeville",
      "lat": 49.733333,
      "lng": 0.416667
    },
    {
      "cityName": "Garencières",
      "lat": 48.95,
      "lng": 1.266667
    },
    {
      "cityName": "Garennes",
      "lat": 48.916667,
      "lng": 1.433333
    },
    {
      "cityName": "Gargenville",
      "lat": 49,
      "lng": 1.816667
    },
    {
      "cityName": "Gasny",
      "lat": 49.083333,
      "lng": 1.6
    },
    {
      "cityName": "Gauciel",
      "lat": 49.033333,
      "lng": 1.25
    },
    {
      "cityName": "Gaudreville",
      "lat": 48.983333,
      "lng": 1.016667
    },
    {
      "cityName": "Gauquetot",
      "lat": 49.733333,
      "lng": 0.566667
    },
    {
      "cityName": "Gauville",
      "lat": 48.75,
      "lng": 0.9
    },
    {
      "cityName": "Gauville-la-Campagne",
      "lat": 49.05,
      "lng": 1.083333
    },
    {
      "cityName": "Génainville",
      "lat": 49.133333,
      "lng": 1.75
    },
    {
      "cityName": "Génétel",
      "lat": 49.633333,
      "lng": 1.666667
    },
    {
      "cityName": "Gerponville",
      "lat": 49.75,
      "lng": 0.566667
    },
    {
      "cityName": "Gerville",
      "lat": 49.7,
      "lng": 0.333333
    },
    {
      "cityName": "Gisancourt",
      "lat": 49.233333,
      "lng": 1.7
    },
    {
      "cityName": "Gisay",
      "lat": 48.95,
      "lng": 0.633333
    },
    {
      "cityName": "Gisors",
      "lat": 49.283333,
      "lng": 1.783333
    },
    {
      "cityName": "Giverny",
      "lat": 49.066667,
      "lng": 1.533333
    },
    {
      "cityName": "Giverville",
      "lat": 49.2,
      "lng": 0.566667
    },
    {
      "cityName": "Glatigny",
      "lat": 49.566667,
      "lng": 1.566667
    },
    {
      "cityName": "Glicourt",
      "lat": 49.933333,
      "lng": 1.25
    },
    {
      "cityName": "Glos",
      "lat": 49.266667,
      "lng": 0.683333
    },
    {
      "cityName": "Goderville",
      "lat": 49.65,
      "lng": 0.366667
    },
    {
      "cityName": "Gommerville",
      "lat": 49.55,
      "lng": 0.366667
    },
    {
      "cityName": "Goneville",
      "lat": 49.716667,
      "lng": 0.466667
    },
    {
      "cityName": "Gonfreville-Caillot",
      "lat": 49.65,
      "lng": 0.433333
    },
    {
      "cityName": "Gonfreville",
      "lat": 49.5,
      "lng": 0.233333
    },
    {
      "cityName": "Gonnetot",
      "lat": 49.766667,
      "lng": 0.9
    },
    {
      "cityName": "Gonneville",
      "lat": 49.633333,
      "lng": 0.216667
    },
    {
      "cityName": "Gonneville-sur-Scie",
      "lat": 49.75,
      "lng": 1.083333
    },
    {
      "cityName": "Gonzeville",
      "lat": 49.766667,
      "lng": 0.816667
    },
    {
      "cityName": "Gouberville",
      "lat": 49.516667,
      "lng": 0.5
    },
    {
      "cityName": "Gouchaupré",
      "lat": 49.933333,
      "lng": 1.3
    },
    {
      "cityName": "Goupillère",
      "lat": 49.366667,
      "lng": 1.533333
    },
    {
      "cityName": "Goupillières",
      "lat": 49.133333,
      "lng": 0.766667
    },
    {
      "cityName": "Gourel",
      "lat": 49.833333,
      "lng": 0.95
    },
    {
      "cityName": "Gournay-en-Bray",
      "lat": 49.483333,
      "lng": 1.733333
    },
    {
      "cityName": "Gournay-en-Caux",
      "lat": 49.516667,
      "lng": 0.216667
    },
    {
      "cityName": "Gournay",
      "lat": 48.7,
      "lng": 0.783333
    },
    {
      "cityName": "Gousseauville",
      "lat": 50,
      "lng": 1.516667
    },
    {
      "cityName": "Gouttières",
      "lat": 49.016667,
      "lng": 0.75
    },
    {
      "cityName": "Gouville",
      "lat": 48.85,
      "lng": 1
    },
    {
      "cityName": "Gouy",
      "lat": 49.35,
      "lng": 1.15
    },
    {
      "cityName": "Graimbouville",
      "lat": 49.583333,
      "lng": 0.333333
    },
    {
      "cityName": "Graincourt",
      "lat": 49.933333,
      "lng": 1.183333
    },
    {
      "cityName": "Grainville",
      "lat": 49.35,
      "lng": 1.366667
    },
    {
      "cityName": "Grainville-la-Teinturière",
      "lat": 49.75,
      "lng": 0.65
    },
    {
      "cityName": "Grainville-sur-Ry",
      "lat": 49.483333,
      "lng": 1.3
    },
    {
      "cityName": "Grainville-Ymauville",
      "lat": 49.666667,
      "lng": 0.416667
    },
    {
      "cityName": "Grand Andely",
      "lat": 49.25,
      "lng": 1.416667
    },
    {
      "cityName": "Grand-Blanque",
      "lat": 49.616667,
      "lng": 0.65
    },
    {
      "cityName": "Grand-Brunville",
      "lat": 49.6,
      "lng": 0.916667
    },
    {
      "cityName": "Grand-Camp",
      "lat": 49.05,
      "lng": 0.533333
    },
    {
      "cityName": "Grand Camp",
      "lat": 49.55,
      "lng": 0.583333
    },
    {
      "cityName": "Grandchain",
      "lat": 49.033333,
      "lng": 0.666667
    },
    {
      "cityName": "Grand-Couronne",
      "lat": 49.35,
      "lng": 1
    },
    {
      "cityName": "Grandcourt",
      "lat": 49.916667,
      "lng": 1.5
    },
    {
      "cityName": "Grandes Dalles",
      "lat": 49.816667,
      "lng": 0.516667
    },
    {
      "cityName": "Grandes Nonnettes",
      "lat": 49.733333,
      "lng": 0.7
    },
    {
      "cityName": "Grand Essart",
      "lat": 49.35,
      "lng": 1.016667
    },
    {
      "cityName": "Grandes-Ventes",
      "lat": 49.783333,
      "lng": 1.233333
    },
    {
      "cityName": "Grande Vallée",
      "lat": 49.933333,
      "lng": 1.516667
    },
    {
      "cityName": "Grand Gomard",
      "lat": 49.966667,
      "lng": 1.45
    },
    {
      "cityName": "Grand-Jainville",
      "lat": 49.616667,
      "lng": 0.966667
    },
    {
      "cityName": "Grand-Laviers",
      "lat": 50.133333,
      "lng": 1.783333
    },
    {
      "cityName": "Grand Parc",
      "lat": 49.6,
      "lng": 1.316667
    },
    {
      "cityName": "Grand Pré",
      "lat": 49.583333,
      "lng": 1.333333
    },
    {
      "cityName": "Grand-Quevilly",
      "lat": 49.416667,
      "lng": 1.033333
    },
    {
      "cityName": "Grand Torcy",
      "lat": 49.716667,
      "lng": 0.6
    },
    {
      "cityName": "Grandvilliers",
      "lat": 48.816667,
      "lng": 1.05
    },
    {
      "cityName": "Grasquesne",
      "lat": 49.466667,
      "lng": 0.6
    },
    {
      "cityName": "Grattenoix",
      "lat": 49.7,
      "lng": 1.583333
    },
    {
      "cityName": "Graval",
      "lat": 49.733333,
      "lng": 1.55
    },
    {
      "cityName": "Graveron",
      "lat": 49.1,
      "lng": 0.983333
    },
    {
      "cityName": "Gravigny",
      "lat": 49.05,
      "lng": 1.166667
    },
    {
      "cityName": "Graville",
      "lat": 49.5,
      "lng": 0.166667
    },
    {
      "cityName": "Grèges",
      "lat": 49.916667,
      "lng": 1.15
    },
    {
      "cityName": "Grémonville",
      "lat": 49.666667,
      "lng": 0.833333
    },
    {
      "cityName": "Greny",
      "lat": 49.95,
      "lng": 1.316667
    },
    {
      "cityName": "Greuville",
      "lat": 49.816667,
      "lng": 0.916667
    },
    {
      "cityName": "Grigneuseville",
      "lat": 49.65,
      "lng": 1.183333
    },
    {
      "cityName": "Grosbois",
      "lat": 48.766667,
      "lng": 0.966667
    },
    {
      "cityName": "Grosley",
      "lat": 49.05,
      "lng": 0.816667
    },
    {
      "cityName": "Grosmesnil",
      "lat": 49.65,
      "lng": 1.216667
    },
    {
      "cityName": "Grossoeuvre",
      "lat": 49.933333,
      "lng": 1.2
    },
    {
      "cityName": "Gruchet",
      "lat": 49.316667,
      "lng": 1.716667
    },
    {
      "cityName": "Gruchet-le-Valasse",
      "lat": 49.55,
      "lng": 0.483333
    },
    {
      "cityName": "Gruchet-Saint-Siméon",
      "lat": 49.816667,
      "lng": 0.9
    },
    {
      "cityName": "Gruchy",
      "lat": 49.5,
      "lng": 1.266667
    },
    {
      "cityName": "Grugny",
      "lat": 49.616667,
      "lng": 1.116667
    },
    {
      "cityName": "Grumesnil",
      "lat": 49.616667,
      "lng": 1.683333
    },
    {
      "cityName": "Gruville",
      "lat": 49.716667,
      "lng": 0.45
    },
    {
      "cityName": "Guernanville",
      "lat": 48.883333,
      "lng": 0.85
    },
    {
      "cityName": "Guernes",
      "lat": 49.016667,
      "lng": 1.633333
    },
    {
      "cityName": "Guerny",
      "lat": 49.216667,
      "lng": 1.683333
    },
    {
      "cityName": "Guerville",
      "lat": 49.966667,
      "lng": 1.516667
    },
    {
      "cityName": "Gueures",
      "lat": 49.833333,
      "lng": 0.966667
    },
    {
      "cityName": "Gueutteville",
      "lat": 49.65,
      "lng": 1
    },
    {
      "cityName": "Gueutteville-les-Grès",
      "lat": 49.833333,
      "lng": 0.75
    },
    {
      "cityName": "Guichainville",
      "lat": 49.983333,
      "lng": 1.183333
    },
    {
      "cityName": "Guillerville",
      "lat": 49.616667,
      "lng": 0.55
    },
    {
      "cityName": "Guilmécourt",
      "lat": 49.966667,
      "lng": 1.3
    },
    {
      "cityName": "Guilmesnil",
      "lat": 49.566667,
      "lng": 1.483333
    },
    {
      "cityName": "Guimerville",
      "lat": 49.883333,
      "lng": 1.7
    },
    {
      "cityName": "Guiseniers",
      "lat": 49.216667,
      "lng": 1.466667
    },
    {
      "cityName": "Guitry",
      "lat": 49.216667,
      "lng": 1.55
    },
    {
      "cityName": "Hâbleville",
      "lat": 49.766667,
      "lng": 0.433333
    },
    {
      "cityName": "Hacqueville",
      "lat": 49.283333,
      "lng": 1.55
    },
    {
      "cityName": "Halescourt",
      "lat": 49.6,
      "lng": 1.65
    },
    {
      "cityName": "Hameau de la Route",
      "lat": 49.566667,
      "lng": 0.916667
    },
    {
      "cityName": "Harcourt",
      "lat": 49.166667,
      "lng": 0.8
    },
    {
      "cityName": "Hardencourt-Cocherel",
      "lat": 49.05,
      "lng": 1.316667
    },
    {
      "cityName": "Hardouville",
      "lat": 49.583333,
      "lng": 0.9
    },
    {
      "cityName": "Harfleur",
      "lat": 49.5,
      "lng": 0.2
    },
    {
      "cityName": "Haricourt",
      "lat": 49.116667,
      "lng": 1.566667
    },
    {
      "cityName": "Harquency",
      "lat": 49.25,
      "lng": 1.483333
    },
    {
      "cityName": "Hattenville",
      "lat": 49.65,
      "lng": 0.533333
    },
    {
      "cityName": "Haudelamare",
      "lat": 49.7,
      "lng": 0.933333
    },
    {
      "cityName": "Haudricourt",
      "lat": 49.733333,
      "lng": 1.7
    },
    {
      "cityName": "Hausseline",
      "lat": 49.583333,
      "lng": 1.683333
    },
    {
      "cityName": "Haut de l'Ouraille",
      "lat": 49.483333,
      "lng": 0.966667
    },
    {
      "cityName": "Haute Folie",
      "lat": 49.716667,
      "lng": 0.3
    },
    {
      "cityName": "Haute Rue",
      "lat": 49.766667,
      "lng": 1.466667
    },
    {
      "cityName": "Hautes Landes",
      "lat": 49.366667,
      "lng": 1.516667
    },
    {
      "cityName": "Haute-Souris",
      "lat": 49.1,
      "lng": 1.716667
    },
    {
      "cityName": "Hautot",
      "lat": 49.366667,
      "lng": 0.983333
    },
    {
      "cityName": "Hautot-l'Auvray",
      "lat": 49.766667,
      "lng": 0.75
    },
    {
      "cityName": "Hautot-le-Vatois",
      "lat": 49.65,
      "lng": 0.683333
    },
    {
      "cityName": "Hautot-Mesnil",
      "lat": 49.7,
      "lng": 1.166667
    },
    {
      "cityName": "Hautot-Saint-Sulpice",
      "lat": 49.683333,
      "lng": 0.75
    },
    {
      "cityName": "Hautot-sur-Mer",
      "lat": 49.9,
      "lng": 1.033333
    },
    {
      "cityName": "Hauts Champs",
      "lat": 49.783333,
      "lng": 1.216667
    },
    {
      "cityName": "Hauville",
      "lat": 49.4,
      "lng": 0.766667
    },
    {
      "cityName": "Hayen-en Lyons",
      "lat": 49.466667,
      "lng": 1.433333
    },
    {
      "cityName": "Hay",
      "lat": 49.6,
      "lng": 0.7
    },
    {
      "cityName": "Hayons",
      "lat": 49.7,
      "lng": 1.366667
    },
    {
      "cityName": "Heaumet",
      "lat": 49.55,
      "lng": 1.683333
    },
    {
      "cityName": "Hébécourt",
      "lat": 49.35,
      "lng": 1.716667
    },
    {
      "cityName": "Héberville",
      "lat": 49.766667,
      "lng": 0.8
    },
    {
      "cityName": "Hecmanville",
      "lat": 49.166667,
      "lng": 0.666667
    },
    {
      "cityName": "Hécourt",
      "lat": 48.983333,
      "lng": 1.416667
    },
    {
      "cityName": "Hectomare",
      "lat": 49.183333,
      "lng": 0.95
    },
    {
      "cityName": "Hectot",
      "lat": 49.5,
      "lng": 0.916667
    },
    {
      "cityName": "Hellenvilliers",
      "lat": 48.8,
      "lng": 1.1
    },
    {
      "cityName": "Hennezis",
      "lat": 49.183333,
      "lng": 1.466667
    },
    {
      "cityName": "Herbouville",
      "lat": 49.766667,
      "lng": 0.95
    },
    {
      "cityName": "Héricourt-en-Caux",
      "lat": 49.7,
      "lng": 0.7
    },
    {
      "cityName": "Hérigny",
      "lat": 49.6,
      "lng": 1.616667
    },
    {
      "cityName": "Hermanville",
      "lat": 49.816667,
      "lng": 0.983333
    },
    {
      "cityName": "Hermeville",
      "lat": 49.6,
      "lng": 0.266667
    },
    {
      "cityName": "Héronchelle",
      "lat": 49.533333,
      "lng": 1.383333
    },
    {
      "cityName": "Hesmy",
      "lat": 49.9,
      "lng": 1.483333
    },
    {
      "cityName": "Heubécourt",
      "lat": 49.133333,
      "lng": 1.566667
    },
    {
      "cityName": "Heudebouville",
      "lat": 49.2,
      "lng": 1.25
    },
    {
      "cityName": "Heudelimont",
      "lat": 50.016667,
      "lng": 1.383333
    },
    {
      "cityName": "Heudicourt",
      "lat": 49.333333,
      "lng": 1.666667
    },
    {
      "cityName": "Heudreville-en-Lieuvin",
      "lat": 49.2,
      "lng": 0.5
    },
    {
      "cityName": "Heudreville",
      "lat": 49.15,
      "lng": 1.183333
    },
    {
      "cityName": "Heugleville",
      "lat": 49.733333,
      "lng": 1.1
    },
    {
      "cityName": "Heunières",
      "lat": 49.783333,
      "lng": 0.766667
    },
    {
      "cityName": "Heuqueville",
      "lat": 49.283333,
      "lng": 1.333333
    },
    {
      "cityName": "Heurgeville",
      "lat": 48.966667,
      "lng": 1.483333
    },
    {
      "cityName": "Heurteauville",
      "lat": 49.45,
      "lng": 0.816667
    },
    {
      "cityName": "Heurtevent",
      "lat": 49.683333,
      "lng": 1.366667
    },
    {
      "cityName": "Hez",
      "lat": 49.516667,
      "lng": 1.4
    },
    {
      "cityName": "Hocqueville",
      "lat": 49.766667,
      "lng": 0.6
    },
    {
      "cityName": "Hodeng-au-Bosc",
      "lat": 49.866667,
      "lng": 1.716667
    },
    {
      "cityName": "Hodeng",
      "lat": 49.533333,
      "lng": 1.566667
    },
    {
      "cityName": "Hondouville",
      "lat": 49.133333,
      "lng": 1.116667
    },
    {
      "cityName": "Honguemare-Guenouville",
      "lat": 49.366667,
      "lng": 0.816667
    },
    {
      "cityName": "Houdetot",
      "lat": 49.816667,
      "lng": 0.8
    },
    {
      "cityName": "Houlbec-Cocherel",
      "lat": 49.066667,
      "lng": 1.366667
    },
    {
      "cityName": "Houlbec-Gros Thiel",
      "lat": 49.25,
      "lng": 0.833333
    },
    {
      "cityName": "Houllemare",
      "lat": 49.583333,
      "lng": 0.666667
    },
    {
      "cityName": "Houlmesnil",
      "lat": 49.5,
      "lng": 1.283333
    },
    {
      "cityName": "Houppelande",
      "lat": 49.85,
      "lng": 1.466667
    },
    {
      "cityName": "Houquetot",
      "lat": 49.533333,
      "lng": 0.683333
    },
    {
      "cityName": "Houssaye-Béranger",
      "lat": 49.633333,
      "lng": 1.083333
    },
    {
      "cityName": "Houville-en-Vexin",
      "lat": 49.3,
      "lng": 1.35
    },
    {
      "cityName": "Hucleu",
      "lat": 49.583333,
      "lng": 1.433333
    },
    {
      "cityName": "Huest",
      "lat": 49.033333,
      "lng": 1.216667
    },
    {
      "cityName": "Hugleville-en-Caux",
      "lat": 49.633333,
      "lng": 0.983333
    },
    {
      "cityName": "Hupiers",
      "lat": 49.6,
      "lng": 1.033333
    },
    {
      "cityName": "Iclon",
      "lat": 49.85,
      "lng": 0.816667
    },
    {
      "cityName": "Igoville",
      "lat": 49.316667,
      "lng": 1.15
    },
    {
      "cityName": "Illeville",
      "lat": 49.333333,
      "lng": 0.733333
    },
    {
      "cityName": "Illiers",
      "lat": 48.816667,
      "lng": 1.266667
    },
    {
      "cityName": "Imbleville",
      "lat": 49.716667,
      "lng": 0.95
    },
    {
      "cityName": "Incarville",
      "lat": 49.233333,
      "lng": 1.183333
    },
    {
      "cityName": "Incheville",
      "lat": 50.016667,
      "lng": 1.5
    },
    {
      "cityName": "Infer",
      "lat": 49.916667,
      "lng": 1.583333
    },
    {
      "cityName": "Infreville",
      "lat": 49.316667,
      "lng": 0.883333
    },
    {
      "cityName": "Ingouville",
      "lat": 49.833333,
      "lng": 0.683333
    },
    {
      "cityName": "Intraville",
      "lat": 49.933333,
      "lng": 1.283333
    },
    {
      "cityName": "Irreville",
      "lat": 49.083333,
      "lng": 1.216667
    },
    {
      "cityName": "Isembertheville",
      "lat": 49.766667,
      "lng": 1.35
    },
    {
      "cityName": "Isneauville",
      "lat": 49.5,
      "lng": 1.15
    },
    {
      "cityName": "Iville",
      "lat": 49.183333,
      "lng": 0.933333
    },
    {
      "cityName": "Ivry",
      "lat": 48.883333,
      "lng": 1.466667
    },
    {
      "cityName": "Jeufosse",
      "lat": 49.033333,
      "lng": 1.55
    },
    {
      "cityName": "Jonquerets-de-Livet",
      "lat": 49.016667,
      "lng": 0.616667
    },
    {
      "cityName": "Jouveaux",
      "lat": 49.216667,
      "lng": 0.483333
    },
    {
      "cityName": "Jouy",
      "lat": 48.983333,
      "lng": 1.65
    },
    {
      "cityName": "Jouy-sur-Eure",
      "lat": 49.05,
      "lng": 1.3
    },
    {
      "cityName": "Joyeux",
      "lat": 49.683333,
      "lng": 0.533333
    },
    {
      "cityName": "Juignettes",
      "lat": 48.85,
      "lng": 0.666667
    },
    {
      "cityName": "Jumel",
      "lat": 49.683333,
      "lng": 0.183333
    },
    {
      "cityName": "Jumelles",
      "lat": 48.916667,
      "lng": 1.216667
    },
    {
      "cityName": "Jumièges",
      "lat": 49.433333,
      "lng": 0.816667
    },
    {
      "cityName": "Juziers",
      "lat": 49,
      "lng": 1.85
    },
    {
      "cityName": "La Baguelande",
      "lat": 49.216667,
      "lng": 1.433333
    },
    {
      "cityName": "La Bergerie",
      "lat": 49.5,
      "lng": 0.433333
    },
    {
      "cityName": "La Berquerie",
      "lat": 49.983333,
      "lng": 1.45
    },
    {
      "cityName": "La Boissière",
      "lat": 48.95,
      "lng": 1.366667
    },
    {
      "cityName": "La Bonneville",
      "lat": 49,
      "lng": 1.033333
    },
    {
      "cityName": "La Boudinière",
      "lat": 49.516667,
      "lng": 0.8
    },
    {
      "cityName": "La Bouille",
      "lat": 49.35,
      "lng": 0.933333
    },
    {
      "cityName": "la Boulaie",
      "lat": 47.433333,
      "lng": 1.55
    },
    {
      "cityName": "La Bouteillerie",
      "lat": 49.65,
      "lng": 1.066667
    },
    {
      "cityName": "La Boutignière",
      "lat": 48.7,
      "lng": 0.75
    },
    {
      "cityName": "La Brehallerie",
      "lat": 49.366667,
      "lng": 0.5
    },
    {
      "cityName": "La Broche",
      "lat": 49.75,
      "lng": 1.483333
    },
    {
      "cityName": "La Bucaille",
      "lat": 49.15,
      "lng": 1.25
    },
    {
      "cityName": "La Butte",
      "lat": 48.95,
      "lng": 1.566667
    },
    {
      "cityName": "La Cabotterie",
      "lat": 49.4,
      "lng": 0.6
    },
    {
      "cityName": "La Campagne",
      "lat": 49.566667,
      "lng": 0.283333
    },
    {
      "cityName": "La Cavée",
      "lat": 49.633333,
      "lng": 1.466667
    },
    {
      "cityName": "La Cazerie",
      "lat": 49.516667,
      "lng": 1.233333
    },
    {
      "cityName": "La Cerlangue",
      "lat": 49.5,
      "lng": 0.416667
    },
    {
      "cityName": "La Chabotière",
      "lat": 48.716667,
      "lng": 0.883333
    },
    {
      "cityName": "La Chapelle-Bayvel",
      "lat": 49.266667,
      "lng": 0.4
    },
    {
      "cityName": "La Chapelle-du-Bois-des-Faulx",
      "lat": 49.116667,
      "lng": 1.166667
    },
    {
      "cityName": "La Chapelle-du-Bourgay",
      "lat": 49.816667,
      "lng": 1.15
    },
    {
      "cityName": "La Chapelle-Gauthier",
      "lat": 48.983333,
      "lng": 0.466667
    },
    {
      "cityName": "La Chapelle-Hareng",
      "lat": 49.116667,
      "lng": 0.416667
    },
    {
      "cityName": "La Chapelle-Réanville",
      "lat": 49.1,
      "lng": 1.383333
    },
    {
      "cityName": "La Chapelle-Saint-Ouen",
      "lat": 49.1,
      "lng": 1.566667
    },
    {
      "cityName": "La Chapelle-sur-Dun",
      "lat": 49.866667,
      "lng": 0.85
    },
    {
      "cityName": "La Chaule",
      "lat": 49.583333,
      "lng": 1.483333
    },
    {
      "cityName": "La Chaussée de Saint-Pierre",
      "lat": 49.666667,
      "lng": 0.633333
    },
    {
      "cityName": "La Cité",
      "lat": 49.5,
      "lng": 0.566667
    },
    {
      "cityName": "La Clairière",
      "lat": 49.633333,
      "lng": 0.866667
    },
    {
      "cityName": "La Clinarderie",
      "lat": 49.55,
      "lng": 0.2
    },
    {
      "cityName": "La Comté",
      "lat": 49.116667,
      "lng": 1.716667
    },
    {
      "cityName": "La Coquinèrie",
      "lat": 49.366667,
      "lng": 0.866667
    },
    {
      "cityName": "La Corbière",
      "lat": 49.7,
      "lng": 1.55
    },
    {
      "cityName": "La Côte",
      "lat": 49.416667,
      "lng": 0.333333
    },
    {
      "cityName": "La Couarde",
      "lat": 49.683333,
      "lng": 0.35
    },
    {
      "cityName": "La Coutrue",
      "lat": 49.716667,
      "lng": 1.6
    },
    {
      "cityName": "La Couture-Boussey",
      "lat": 48.9,
      "lng": 1.4
    },
    {
      "cityName": "La Crique",
      "lat": 49.683333,
      "lng": 1.2
    },
    {
      "cityName": "La Croisille",
      "lat": 48.966667,
      "lng": 0.983333
    },
    {
      "cityName": "La Croix",
      "lat": 49.116667,
      "lng": 1.25
    },
    {
      "cityName": "La Curie",
      "lat": 49.383333,
      "lng": 1.566667
    },
    {
      "cityName": "La Douillère",
      "lat": 49.466667,
      "lng": 0.8
    },
    {
      "cityName": "La Falaise",
      "lat": 48.95,
      "lng": 1.833333
    },
    {
      "cityName": "La Fauvellière",
      "lat": 48.716667,
      "lng": 0.866667
    },
    {
      "cityName": "La Ferrière",
      "lat": 48.983333,
      "lng": 0.8
    },
    {
      "cityName": "La Ferté",
      "lat": 49.583333,
      "lng": 1.533333
    },
    {
      "cityName": "La Feuillie",
      "lat": 49.466667,
      "lng": 1.516667
    },
    {
      "cityName": "La Folie",
      "lat": 49.333333,
      "lng": 1.683333
    },
    {
      "cityName": "La Folletière",
      "lat": 49.566667,
      "lng": 0.8
    },
    {
      "cityName": "La Fontelaye",
      "lat": 49.683333,
      "lng": 0.95
    },
    {
      "cityName": "La Forêt",
      "lat": 48.716667,
      "lng": 0.816667
    },
    {
      "cityName": "La Forge",
      "lat": 49.616667,
      "lng": 0.35
    },
    {
      "cityName": "La Frenaye",
      "lat": 49.533333,
      "lng": 0.566667
    },
    {
      "cityName": "La Gaillarde",
      "lat": 49.833333,
      "lng": 0.866667
    },
    {
      "cityName": "La Gatte",
      "lat": 49.783333,
      "lng": 1.383333
    },
    {
      "cityName": "La Goulafrière",
      "lat": 48.95,
      "lng": 0.45
    },
    {
      "cityName": "La Goulée",
      "lat": 49.083333,
      "lng": 1.7
    },
    {
      "cityName": "La Grande Rue",
      "lat": 49.566667,
      "lng": 0.366667
    },
    {
      "cityName": "La Grève",
      "lat": 49.433333,
      "lng": 0.883333
    },
    {
      "cityName": "La Guéroulde",
      "lat": 48.816667,
      "lng": 0.883333
    },
    {
      "cityName": "La Haie-Gonnor",
      "lat": 49.533333,
      "lng": 1.133333
    },
    {
      "cityName": "La Hallotière",
      "lat": 49.516667,
      "lng": 1.466667
    },
    {
      "cityName": "La Hardannerie",
      "lat": 49.583333,
      "lng": 0.85
    },
    {
      "cityName": "La Harengère",
      "lat": 49.233333,
      "lng": 1
    },
    {
      "cityName": "La Haute Rue",
      "lat": 49.566667,
      "lng": 0.616667
    },
    {
      "cityName": "La Have",
      "lat": 49.2,
      "lng": 1.15
    },
    {
      "cityName": "La Haye-Aubrée",
      "lat": 49.383333,
      "lng": 0.7
    },
    {
      "cityName": "La Haye-de-Calleville",
      "lat": 49.183333,
      "lng": 0.783333
    },
    {
      "cityName": "La Haye-de-Routot",
      "lat": 49.4,
      "lng": 0.733333
    },
    {
      "cityName": "La Haye-du-Theil",
      "lat": 49.233333,
      "lng": 0.883333
    },
    {
      "cityName": "La Haye",
      "lat": 48.916667,
      "lng": 0.616667
    },
    {
      "cityName": "La Haye-Malherbe",
      "lat": 49.216667,
      "lng": 1.066667
    },
    {
      "cityName": "La Hêtrée",
      "lat": 49.616667,
      "lng": 1.533333
    },
    {
      "cityName": "La Heunière",
      "lat": 49.066667,
      "lng": 1.416667
    },
    {
      "cityName": "La Houssoye",
      "lat": 49.85,
      "lng": 1.666667
    },
    {
      "cityName": "La Huchonne",
      "lat": 49.683333,
      "lng": 1.483333
    },
    {
      "cityName": "Lainville",
      "lat": 49.066667,
      "lng": 1.816667
    },
    {
      "cityName": "La Lande",
      "lat": 49.3,
      "lng": 0.366667
    },
    {
      "cityName": "La Lande-Perrin",
      "lat": 49.366667,
      "lng": 1.583333
    },
    {
      "cityName": "La Lande-Vinet",
      "lat": 49.333333,
      "lng": 1.633333
    },
    {
      "cityName": "La Leuqueue",
      "lat": 49.866667,
      "lng": 1.5
    },
    {
      "cityName": "La Londe",
      "lat": 49.3,
      "lng": 1.533333
    },
    {
      "cityName": "La Madeleine-de-Nonancourt",
      "lat": 48.783333,
      "lng": 1.216667
    },
    {
      "cityName": "La Mailleraye",
      "lat": 49.483333,
      "lng": 0.766667
    },
    {
      "cityName": "La Mare aux Daims",
      "lat": 49.716667,
      "lng": 1.533333
    },
    {
      "cityName": "La Mare Bardin",
      "lat": 49.416667,
      "lng": 0.533333
    },
    {
      "cityName": "La Mare Carel",
      "lat": 49.566667,
      "lng": 0.433333
    },
    {
      "cityName": "La Mare des Plards",
      "lat": 49.016667,
      "lng": 1.55
    },
    {
      "cityName": "La Mare Goubert",
      "lat": 49.633333,
      "lng": 0.183333
    },
    {
      "cityName": "La Mare Plorias",
      "lat": 49.4,
      "lng": 0.8
    },
    {
      "cityName": "La Mare-sous-Venables",
      "lat": 49.216667,
      "lng": 1.316667
    },
    {
      "cityName": "Lamberville",
      "lat": 49.766667,
      "lng": 1
    },
    {
      "cityName": "La Mélotterie",
      "lat": 49,
      "lng": 1.55
    },
    {
      "cityName": "La Minglière",
      "lat": 48.7,
      "lng": 0.833333
    },
    {
      "cityName": "Lammerville",
      "lat": 49.8,
      "lng": 0.983333
    },
    {
      "cityName": "La Montagne",
      "lat": 49.716667,
      "lng": 1.516667
    },
    {
      "cityName": "La Muette",
      "lat": 49.516667,
      "lng": 1.133333
    },
    {
      "cityName": "Landepéreuse",
      "lat": 49,
      "lng": 0.633333
    },
    {
      "cityName": "Landes",
      "lat": 49.783333,
      "lng": 1.633333
    },
    {
      "cityName": "La Neuve-Grange",
      "lat": 49.366667,
      "lng": 1.55
    },
    {
      "cityName": "La Neuve-Lyre",
      "lat": 48.9,
      "lng": 0.75
    },
    {
      "cityName": "La Neuville-Champ-d'Oisel",
      "lat": 49.366667,
      "lng": 1.233333
    },
    {
      "cityName": "La Neuville-du-Bosc",
      "lat": 49.183333,
      "lng": 0.816667
    },
    {
      "cityName": "La Neuville-Gouvion",
      "lat": 49.7,
      "lng": 1.633333
    },
    {
      "cityName": "Langlée",
      "lat": 49.4,
      "lng": 1.6
    },
    {
      "cityName": "L'Angle",
      "lat": 49.5,
      "lng": 0.7
    },
    {
      "cityName": "Langlet",
      "lat": 49.383333,
      "lng": 1.55
    },
    {
      "cityName": "Langrume",
      "lat": 49.6,
      "lng": 0.95
    },
    {
      "cityName": "La Nöe",
      "lat": 49.266667,
      "lng": 0.516667
    },
    {
      "cityName": "Lanquetot",
      "lat": 49.583333,
      "lng": 0.533333
    },
    {
      "cityName": "La Panne",
      "lat": 49.4,
      "lng": 1.616667
    },
    {
      "cityName": "La Patinière",
      "lat": 48.733333,
      "lng": 0.866667
    },
    {
      "cityName": "La Pierre",
      "lat": 49.55,
      "lng": 0.85
    },
    {
      "cityName": "La Pommeraye",
      "lat": 49.65,
      "lng": 1.416667
    },
    {
      "cityName": "La Porte-Verte",
      "lat": 49.683333,
      "lng": 0.516667
    },
    {
      "cityName": "La Poterie-Cap-d'Antifer",
      "lat": 49.666667,
      "lng": 0.183333
    },
    {
      "cityName": "La Poterie",
      "lat": 49.266667,
      "lng": 0.55
    },
    {
      "cityName": "La Prée",
      "lat": 49.633333,
      "lng": 1.283333
    },
    {
      "cityName": "La Pyle",
      "lat": 49.2,
      "lng": 0.9
    },
    {
      "cityName": "La Quaisne",
      "lat": 49.55,
      "lng": 1.4
    },
    {
      "cityName": "La Quesne",
      "lat": 49.5,
      "lng": 1.45
    },
    {
      "cityName": "La Queue-d'Haye",
      "lat": 49.133333,
      "lng": 1.55
    },
    {
      "cityName": "La Queue-du-Hellet",
      "lat": 49.783333,
      "lng": 1.416667
    },
    {
      "cityName": "La Remuée",
      "lat": 49.533333,
      "lng": 0.4
    },
    {
      "cityName": "La Roche-Guyon",
      "lat": 49.083333,
      "lng": 1.633333
    },
    {
      "cityName": "La Roquette",
      "lat": 49.25,
      "lng": 1.333333
    },
    {
      "cityName": "La Roserie",
      "lat": 49.516667,
      "lng": 0.566667
    },
    {
      "cityName": "La Rosière",
      "lat": 49.666667,
      "lng": 1.483333
    },
    {
      "cityName": "La Rue de Voie",
      "lat": 49.216667,
      "lng": 1.283333
    },
    {
      "cityName": "La Rue",
      "lat": 49.486111,
      "lng": 0.68
    },
    {
      "cityName": "La Rue-Saint-Pierre",
      "lat": 49.566667,
      "lng": 1.25
    },
    {
      "cityName": "La Saussaye",
      "lat": 49.033333,
      "lng": 1.483333
    },
    {
      "cityName": "La Trinité-de-Réville",
      "lat": 48.966667,
      "lng": 0.516667
    },
    {
      "cityName": "La Trinité-de-Thouberville",
      "lat": 49.366667,
      "lng": 0.883333
    },
    {
      "cityName": "La Trinité-du-Mont",
      "lat": 49.55,
      "lng": 0.55
    },
    {
      "cityName": "La Tuilerie",
      "lat": 49,
      "lng": 1.533333
    },
    {
      "cityName": "Laudancourt",
      "lat": 49.5,
      "lng": 1.766667
    },
    {
      "cityName": "Launay",
      "lat": 49.1,
      "lng": 0.733333
    },
    {
      "cityName": "La Vacherie",
      "lat": 49.133333,
      "lng": 1.133333
    },
    {
      "cityName": "Lavacourt",
      "lat": 49.066667,
      "lng": 1.7
    },
    {
      "cityName": "La Vallee d'Oudalle",
      "lat": 49.483333,
      "lng": 0.283333
    },
    {
      "cityName": "La Vallée",
      "lat": 49.4,
      "lng": 0.516667
    },
    {
      "cityName": "La Vaupalière",
      "lat": 49.483333,
      "lng": 1.016667
    },
    {
      "cityName": "La Vente",
      "lat": 49.516667,
      "lng": 1.516667
    },
    {
      "cityName": "La Vieille-Lyre",
      "lat": 48.916667,
      "lng": 0.75
    },
    {
      "cityName": "La Vierge",
      "lat": 49.55,
      "lng": 1.566667
    },
    {
      "cityName": "La Vieuville",
      "lat": 49.8,
      "lng": 1.5
    },
    {
      "cityName": "La Vieux-Rue",
      "lat": 49.5,
      "lng": 1.25
    },
    {
      "cityName": "La Villeneuve-en-Chevrie",
      "lat": 49.016667,
      "lng": 1.533333
    },
    {
      "cityName": "Le Baudry",
      "lat": 48.733333,
      "lng": 0.966667
    },
    {
      "cityName": "Le Beau-Fournier",
      "lat": 49.85,
      "lng": 0.916667
    },
    {
      "cityName": "Le Beau-Soleil",
      "lat": 49.716667,
      "lng": 0.4
    },
    {
      "cityName": "Le Beauthiot",
      "lat": 49.633333,
      "lng": 1.266667
    },
    {
      "cityName": "Le Bec-Hellouin",
      "lat": 49.233333,
      "lng": 0.716667
    },
    {
      "cityName": "Lébécourt",
      "lat": 49.216667,
      "lng": 1.5
    },
    {
      "cityName": "Le Becquet",
      "lat": 49.533333,
      "lng": 0.516667
    },
    {
      "cityName": "Le Bec-Thomas",
      "lat": 49.233333,
      "lng": 0.983333
    },
    {
      "cityName": "Le Bihorel",
      "lat": 49.75,
      "lng": 1.433333
    },
    {
      "cityName": "Le Bocage",
      "lat": 49.65,
      "lng": 1.666667
    },
    {
      "cityName": "Le Boisgeloup",
      "lat": 49.25,
      "lng": 1.783333
    },
    {
      "cityName": "Le Bois-Hellain",
      "lat": 49.266667,
      "lng": 0.383333
    },
    {
      "cityName": "Le Bois-Robert",
      "lat": 49.833333,
      "lng": 1.15
    },
    {
      "cityName": "Le Bois-Roger",
      "lat": 49.133333,
      "lng": 1.633333
    },
    {
      "cityName": "Le Booshue",
      "lat": 49.7,
      "lng": 1.2
    },
    {
      "cityName": "Le Bord-des-Bois",
      "lat": 49.65,
      "lng": 1.65
    },
    {
      "cityName": "le Boulay",
      "lat": 49.083333,
      "lng": 1.183333
    },
    {
      "cityName": "Le Bout-Deshayes",
      "lat": 49.429167,
      "lng": 0.559722
    },
    {
      "cityName": "Le Breuil",
      "lat": 49.55,
      "lng": 1
    },
    {
      "cityName": "Le Buc",
      "lat": 49.7,
      "lng": 0.5
    },
    {
      "cityName": "Le Bucq",
      "lat": 49.916667,
      "lng": 1.266667
    },
    {
      "cityName": "Le Buisson",
      "lat": 49.033333,
      "lng": 1.466667
    },
    {
      "cityName": "Le Buquet",
      "lat": 49.616667,
      "lng": 1.383333
    },
    {
      "cityName": "Le Burel",
      "lat": 49.933333,
      "lng": 1.366667
    },
    {
      "cityName": "Le Calvaire",
      "lat": 49.5,
      "lng": 0.366667
    },
    {
      "cityName": "Le Camp d'Eau",
      "lat": 49.683333,
      "lng": 1.65
    },
    {
      "cityName": "Le Carreau",
      "lat": 49.55,
      "lng": 0.25
    },
    {
      "cityName": "Le Carrefour",
      "lat": 49.425,
      "lng": 0.556944
    },
    {
      "cityName": "Le Castel",
      "lat": 49.433333,
      "lng": 0.433333
    },
    {
      "cityName": "Le Catelier",
      "lat": 49.75,
      "lng": 1.15
    },
    {
      "cityName": "Le Catillon",
      "lat": 49.483333,
      "lng": 0.616667
    },
    {
      "cityName": "Le Chambray",
      "lat": 49.616667,
      "lng": 0.333333
    },
    {
      "cityName": "Le Château",
      "lat": 49.8,
      "lng": 1.15
    },
    {
      "cityName": "Le Chesnay",
      "lat": 49.2,
      "lng": 1.55
    },
    {
      "cityName": "Le Chesne",
      "lat": 48.883333,
      "lng": 0.95
    },
    {
      "cityName": "Le Cheval Blanc",
      "lat": 49.583333,
      "lng": 0.633333
    },
    {
      "cityName": "Le Coudray",
      "lat": 49.033333,
      "lng": 1.7
    },
    {
      "cityName": "Le Coudroy",
      "lat": 49.966667,
      "lng": 1.35
    },
    {
      "cityName": "Le Faux Buisson",
      "lat": 49.566667,
      "lng": 0.566667
    },
    {
      "cityName": "Le Fayel",
      "lat": 49.5,
      "lng": 0.716667
    },
    {
      "cityName": "Le Fidelaire",
      "lat": 48.95,
      "lng": 0.816667
    },
    {
      "cityName": "Le Fils",
      "lat": 49.733333,
      "lng": 0.5
    },
    {
      "cityName": "Le Fossé",
      "lat": 49.6,
      "lng": 1.566667
    },
    {
      "cityName": "Le Fouras",
      "lat": 49.483333,
      "lng": 1.483333
    },
    {
      "cityName": "Le Fresne",
      "lat": 48.95,
      "lng": 0.983333
    },
    {
      "cityName": "Le Gal",
      "lat": 49.65,
      "lng": 0.833333
    },
    {
      "cityName": "Le Grand-Catillon",
      "lat": 49.55,
      "lng": 0.966667
    },
    {
      "cityName": "Le Grand Fay",
      "lat": 49.633333,
      "lng": 0.75
    },
    {
      "cityName": "Le Grand Hameau",
      "lat": 49.533333,
      "lng": 0.083333
    },
    {
      "cityName": "Le Grand Quesnay",
      "lat": 49.6,
      "lng": 1.483333
    },
    {
      "cityName": "Le Grand Saint-Aubin",
      "lat": 49.45,
      "lng": 0.533333
    },
    {
      "cityName": "Le Grand-Tendos",
      "lat": 49.566667,
      "lng": 1.133333
    },
    {
      "cityName": "Le Gros Chêne",
      "lat": 49.5,
      "lng": 1.166667
    },
    {
      "cityName": "Le Gros-Theil",
      "lat": 49.216667,
      "lng": 0.85
    },