{
  "name": "Lazio",
  "cities": [
    {
      "cityName": "Acciarella",
      "lat": 41.45,
      "lng": 12.75
    },
    {
      "cityName": "Acilia",
      "lat": 41.783333,
      "lng": 12.366667
    },
    {
      "cityName": "Acquafondata",
      "lat": 41.55,
      "lng": 13.95
    },
    {
      "cityName": "Acquapendente",
      "lat": 42.733333,
      "lng": 11.866667
    },
    {
      "cityName": "Acque Albule",
      "lat": 41.95,
      "lng": 12.716667
    },
    {
      "cityName": "Acuto",
      "lat": 41.783333,
      "lng": 13.166667
    },
    {
      "cityName": "Affile",
      "lat": 41.883333,
      "lng": 13.1
    },
    {
      "cityName": "Agosta",
      "lat": 41.983333,
      "lng": 13.033333
    },
    {
      "cityName": "Alatri",
      "lat": 41.716667,
      "lng": 13.35
    },
    {
      "cityName": "Albano",
      "lat": 41.733333,
      "lng": 12.65
    },
    {
      "cityName": "Alfedena",
      "lat": 41.733333,
      "lng": 14.033333
    },
    {
      "cityName": "Allumiere",
      "lat": 42.15,
      "lng": 11.9
    },
    {
      "cityName": "Alsium",
      "lat": 41.933333,
      "lng": 12.1
    },
    {
      "cityName": "Altieri",
      "lat": 41.683333,
      "lng": 12.65
    },
    {
      "cityName": "Altipiani di Arcinazzo",
      "lat": 41.85,
      "lng": 13.183333
    },
    {
      "cityName": "Alviano",
      "lat": 42.583333,
      "lng": 12.3
    },
    {
      "cityName": "Alvito",
      "lat": 41.683333,
      "lng": 13.75
    },
    {
      "cityName": "Amaseno",
      "lat": 41.466667,
      "lng": 13.333333
    },
    {
      "cityName": "Ambrogio",
      "lat": 41.4,
      "lng": 13.883333
    },
    {
      "cityName": "Anagni",
      "lat": 41.733333,
      "lng": 13.15
    },
    {
      "cityName": "Anguillara Sabazia",
      "lat": 42.083333,
      "lng": 12.266667
    },
    {
      "cityName": "Anitrella",
      "lat": 41.633333,
      "lng": 13.55
    },
    {
      "cityName": "Annunziata",
      "lat": 41.383333,
      "lng": 13.75
    },
    {
      "cityName": "Anticoli Corrado",
      "lat": 42.016667,
      "lng": 12.983333
    },
    {
      "cityName": "Anzio",
      "lat": 41.45,
      "lng": 12.616667
    },
    {
      "cityName": "Aprilia",
      "lat": 41.6,
      "lng": 12.65
    },
    {
      "cityName": "Aquino",
      "lat": 41.5,
      "lng": 13.7
    },
    {
      "cityName": "Arce",
      "lat": 41.583333,
      "lng": 13.566667
    },
    {
      "cityName": "Ardea",
      "lat": 41.6,
      "lng": 12.55
    },
    {
      "cityName": "Ariccia",
      "lat": 41.716667,
      "lng": 12.666667
    },
    {
      "cityName": "Arlena di Castro",
      "lat": 42.466667,
      "lng": 11.816667
    },
    {
      "cityName": "Arnara",
      "lat": 41.583333,
      "lng": 13.383333
    },
    {
      "cityName": "Arpino",
      "lat": 41.65,
      "lng": 13.6
    },
    {
      "cityName": "Arsoli",
      "lat": 42.033333,
      "lng": 13.016667
    },
    {
      "cityName": "Artena",
      "lat": 41.733333,
      "lng": 12.916667
    },
    {
      "cityName": "Arzano",
      "lat": 41.231944,
      "lng": 13.568056
    },
    {
      "cityName": "Atina",
      "lat": 41.616667,
      "lng": 13.8
    },
    {
      "cityName": "Attigliano",
      "lat": 42.516667,
      "lng": 12.283333
    },
    {
      "cityName": "Aulpi",
      "lat": 41.266667,
      "lng": 13.9
    },
    {
      "cityName": "Aurelia",
      "lat": 42.133333,
      "lng": 11.783333
    },
    {
      "cityName": "Ausonia",
      "lat": 41.35,
      "lng": 13.75
    },
    {
      "cityName": "Badino",
      "lat": 41.283333,
      "lng": 13.2
    },
    {
      "cityName": "Bagnaia",
      "lat": 42.416667,
      "lng": 12.15
    },
    {
      "cityName": "Bagni di Stigliano",
      "lat": 42.116667,
      "lng": 12.033333
    },
    {
      "cityName": "Bagni di Vicarello",
      "lat": 42.166667,
      "lng": 12.2
    },
    {
      "cityName": "Bagnolo",
      "lat": 42.4,
      "lng": 12.383333
    },
    {
      "cityName": "Bagnoregio",
      "lat": 42.616667,
      "lng": 12.083333
    },
    {
      "cityName": "Baia Domizia",
      "lat": 41.183333,
      "lng": 13.816667
    },
    {
      "cityName": "Bainsizza",
      "lat": 41.483333,
      "lng": 12.783333
    },
    {
      "cityName": "Balsorano",
      "lat": 41.8,
      "lng": 13.566667
    },
    {
      "cityName": "Balsorano Nuovo",
      "lat": 41.816667,
      "lng": 13.566667
    },
    {
      "cityName": "Barbarano Romano",
      "lat": 42.25,
      "lng": 12.066667
    },
    {
      "cityName": "Bardano",
      "lat": 42.75,
      "lng": 12.05
    },
    {
      "cityName": "Barrea",
      "lat": 41.75,
      "lng": 13.983333
    },
    {
      "cityName": "Baschi",
      "lat": 42.666667,
      "lng": 12.216667
    },
    {
      "cityName": "Bassanello",
      "lat": 42.416667,
      "lng": 12.35
    },
    {
      "cityName": "Bassano di Sutri",
      "lat": 42.216667,
      "lng": 12.2
    },
    {
      "cityName": "Bassano in Teverina",
      "lat": 42.466667,
      "lng": 12.316667
    },
    {
      "cityName": "Bassiano",
      "lat": 41.55,
      "lng": 13.033333
    },
    {
      "cityName": "Bella Farnia",
      "lat": 41.366667,
      "lng": 12.966667
    },
    {
      "cityName": "Bellegra",
      "lat": 41.883333,
      "lng": 13.016667
    },
    {
      "cityName": "Belmonte Castello",
      "lat": 41.583333,
      "lng": 13.8
    },
    {
      "cityName": "Biede",
      "lat": 42.266667,
      "lng": 12.016667
    },
    {
      "cityName": "Boccea",
      "lat": 41.966667,
      "lng": 12.316667
    },
    {
      "cityName": "Bocchignano",
      "lat": 42.25,
      "lng": 12.7
    },
    {
      "cityName": "Bolsena",
      "lat": 42.65,
      "lng": 11.983333
    },
    {
      "cityName": "Bomarzo",
      "lat": 42.483333,
      "lng": 12.25
    },
    {
      "cityName": "Borghetto",
      "lat": 42.333333,
      "lng": 12.45
    },
    {
      "cityName": "Borgo Carso",
      "lat": 41.533333,
      "lng": 12.883333
    },
    {
      "cityName": "Borgo Ermada",
      "lat": 41.3,
      "lng": 13.166667
    },
    {
      "cityName": "Borgo Fáiti",
      "lat": 41.466667,
      "lng": 13
    },
    {
      "cityName": "Borgo Grappa",
      "lat": 41.383333,
      "lng": 12.95
    },
    {
      "cityName": "Borgo Isonzo",
      "lat": 41.416667,
      "lng": 12.9
    },
    {
      "cityName": "Borgo Montello",
      "lat": 41.5,
      "lng": 12.766667
    },
    {
      "cityName": "Borgo Montenero",
      "lat": 41.283333,
      "lng": 13.1
    },
    {
      "cityName": "Borgo Odescalchi",
      "lat": 42.083333,
      "lng": 11.8
    },
    {
      "cityName": "Borgo Pantano",
      "lat": 42.141667,
      "lng": 11.758333
    },
    {
      "cityName": "Borgo Pasubio",
      "lat": 41.4,
      "lng": 13.033333
    },
    {
      "cityName": "Borgo Piave",
      "lat": 41.483333,
      "lng": 12.866667
    },
    {
      "cityName": "Borgo Podgora",
      "lat": 41.516667,
      "lng": 12.85
    },
    {
      "cityName": "Borgo Quinzio",
      "lat": 42.166667,
      "lng": 12.716667
    },
    {
      "cityName": "Borgo Sabotino",
      "lat": 41.416667,
      "lng": 12.833333
    },
    {
      "cityName": "Borgo San Michele",
      "lat": 41.433333,
      "lng": 12.966667
    },
    {
      "cityName": "Borgo Santa Rita",
      "lat": 41.633333,
      "lng": 12.483333
    },
    {
      "cityName": "Borgo Vòdica",
      "lat": 41.333333,
      "lng": 13.1
    },
    {
      "cityName": "Botto",
      "lat": 42.683333,
      "lng": 12.15
    },
    {
      "cityName": "Boville Ernica",
      "lat": 41.633333,
      "lng": 13.466667
    },
    {
      "cityName": "Bracciano",
      "lat": 42.1,
      "lng": 12.166667
    },
    {
      "cityName": "Bullicame",
      "lat": 42.416667,
      "lng": 12.083333
    },
    {
      "cityName": "Caianello",
      "lat": 41.3,
      "lng": 14.033333
    },
    {
      "cityName": "Caianello Vecchio",
      "lat": 41.3,
      "lng": 14.083333
    },
    {
      "cityName": "Cáira",
      "lat": 41.533333,
      "lng": 13.816667
    },
    {
      "cityName": "Calcata",
      "lat": 42.216667,
      "lng": 12.416667
    },
    {
      "cityName": "Calessina",
      "lat": 41.883333,
      "lng": 12.366667
    },
    {
      "cityName": "Campagnano di Roma",
      "lat": 42.133333,
      "lng": 12.383333
    },
    {
      "cityName": "Campo Catino",
      "lat": 41.833333,
      "lng": 13.333333
    },
    {
      "cityName": "Campo di Carne",
      "lat": 41.55,
      "lng": 12.633333
    },
    {
      "cityName": "Campodimele",
      "lat": 41.383333,
      "lng": 13.033333
    },
    {
      "cityName": "Campo Iemini",
      "lat": 41.616667,
      "lng": 12.5
    },
    {
      "cityName": "Campoleone",
      "lat": 41.65,
      "lng": 12.616667
    },
    {
      "cityName": "Campoli Appennino",
      "lat": 41.733333,
      "lng": 13.683333
    },
    {
      "cityName": "Campo Marzio",
      "lat": 41.9,
      "lng": 12.466667
    },
    {
      "cityName": "Campomorto",
      "lat": 41.533333,
      "lng": 12.733333
    },
    {
      "cityName": "Campozillone",
      "lat": 41.383333,
      "lng": 14
    },
    {
      "cityName": "Canale Monterano",
      "lat": 42.133333,
      "lng": 12.083333
    },
    {
      "cityName": "Canepina",
      "lat": 42.383333,
      "lng": 12.233333
    },
    {
      "cityName": "Canino",
      "lat": 42.466667,
      "lng": 11.75
    },
    {
      "cityName": "Canneto",
      "lat": 42.183333,
      "lng": 12.733333
    },
    {
      "cityName": "Canonica",
      "lat": 42.7,
      "lng": 12.05
    },
    {
      "cityName": "Capannelle",
      "lat": 41.833333,
      "lng": 12.566667
    },
    {
      "cityName": "Capena",
      "lat": 42.133333,
      "lng": 12.533333
    },
    {
      "cityName": "Capodimonte",
      "lat": 42.55,
      "lng": 11.916667
    },
    {
      "cityName": "Cappuccini di Riano",
      "lat": 42.1,
      "lng": 12.5
    },
    {
      "cityName": "Capranica",
      "lat": 42.25,
      "lng": 12.183333
    },
    {
      "cityName": "Capranica Prenestina",
      "lat": 41.866667,
      "lng": 12.95
    },
    {
      "cityName": "Caprarola",
      "lat": 42.316667,
      "lng": 12.233333
    },
    {
      "cityName": "Capriati al Volturno",
      "lat": 41.466667,
      "lng": 14.133333
    },
    {
      "cityName": "Caprile",
      "lat": 41.533333,
      "lng": 13.683333
    },
    {
      "cityName": "Carano",
      "lat": 41.2,
      "lng": 13.916667
    },
    {
      "cityName": "Carbognano",
      "lat": 42.333333,
      "lng": 12.266667
    },
    {
      "cityName": "Cardito",
      "lat": 41.583333,
      "lng": 13.966667
    },
    {
      "cityName": "Carinola",
      "lat": 41.183333,
      "lng": 13.966667
    },
    {
      "cityName": "Carnello",
      "lat": 41.683333,
      "lng": 13.616667
    },
    {
      "cityName": "Carpineto Romano",
      "lat": 41.6,
      "lng": 13.083333
    },
    {
      "cityName": "Carroceto",
      "lat": 41.583333,
      "lng": 12.633333
    },
    {
      "cityName": "Casa Buffalotta",
      "lat": 41.983333,
      "lng": 12.55
    },
    {
      "cityName": "Casaccia",
      "lat": 42.05,
      "lng": 12.283333
    },
    {
      "cityName": "Casafredda",
      "lat": 41.266667,
      "lng": 14.016667
    },
    {
      "cityName": "Casa Galli",
      "lat": 42.716667,
      "lng": 11.983333
    },
    {
      "cityName": "Casalaccio",
      "lat": 41.65,
      "lng": 12.716667
    },
    {
      "cityName": "Casa la Rocca",
      "lat": 42.366667,
      "lng": 11.9
    },
    {
      "cityName": "Casalattico",
      "lat": 41.616667,
      "lng": 13.716667
    },
    {
      "cityName": "Casale Acquaviva",
      "lat": 41.983333,
      "lng": 12.35
    },
    {
      "cityName": "Casale Carano",
      "lat": 41.583333,
      "lng": 12.716667
    },
    {
      "cityName": "Casale Cassinese",
      "lat": 41.55,
      "lng": 13.983333
    },
    {
      "cityName": "Casale Cesarina",
      "lat": 41.966667,
      "lng": 12.583333
    },
    {
      "cityName": "Casale Col Cavaliere",
      "lat": 41.633333,
      "lng": 12.683333
    },
    {
      "cityName": "Casale della Mandria",
      "lat": 41.616667,
      "lng": 12.666667
    },
    {
      "cityName": "Casale del Re",
      "lat": 41.583333,
      "lng": 13.866667
    },
    {
      "cityName": "Casale di Padiglione",
      "lat": 41.55,
      "lng": 12.7
    },
    {
      "cityName": "Casale di Scorano",
      "lat": 42.133333,
      "lng": 12.583333
    },
    {
      "cityName": "Casale Fiammingo",
      "lat": 41.616667,
      "lng": 12.766667
    },
    {
      "cityName": "Casale Granaraccio",
      "lat": 41.916667,
      "lng": 12.733333
    },
    {
      "cityName": "Casale la Cogna",
      "lat": 41.566667,
      "lng": 12.583333
    },
    {
      "cityName": "Casale Malnome",
      "lat": 41.85,
      "lng": 12.316667
    },
    {
      "cityName": "Casale Marcigliana",
      "lat": 42.016667,
      "lng": 12.516667
    },
    {
      "cityName": "Casale Nuovo di Presciano",
      "lat": 41.633333,
      "lng": 12.716667
    },
    {
      "cityName": "Casale Pisana",
      "lat": 41.85,
      "lng": 12.383333
    },
    {
      "cityName": "Casale Ponte Galeria",
      "lat": 41.816667,
      "lng": 12.35
    },
    {
      "cityName": "Casale Prima Porta",
      "lat": 42,
      "lng": 12.483333
    },
    {
      "cityName": "Casale Sant'Antonio",
      "lat": 41.983333,
      "lng": 12.616667
    },
    {
      "cityName": "Casale Santa Palomba",
      "lat": 41.7,
      "lng": 12.583333
    },
    {
      "cityName": "Casale Santa Procula",
      "lat": 41.666667,
      "lng": 12.533333
    },
    {
      "cityName": "Casale Smeraldi",
      "lat": 41.8,
      "lng": 12.516667
    },
    {
      "cityName": "Casale Torre San Giovanni",
      "lat": 41.983333,
      "lng": 12.566667
    },
    {
      "cityName": "Casale Vignarola",
      "lat": 41.483333,
      "lng": 12.583333
    },
    {
      "cityName": "Casalvieri",
      "lat": 41.633333,
      "lng": 13.716667
    },
    {
      "cityName": "Casa Mortula",
      "lat": 41.383333,
      "lng": 13.9
    },
    {
      "cityName": "Casanova",
      "lat": 41.2,
      "lng": 13.966667
    },
    {
      "cityName": "Casape",
      "lat": 41.9,
      "lng": 12.883333
    },
    {
      "cityName": "Casaprota",
      "lat": 42.25,
      "lng": 12.8
    },
    {
      "cityName": "Casa Tragliata",
      "lat": 41.966667,
      "lng": 12.25
    },
    {
      "cityName": "Casa Villafranca",
      "lat": 41.483333,
      "lng": 12.983333
    },
    {
      "cityName": "Cascano",
      "lat": 41.233333,
      "lng": 13.966667
    },
    {
      "cityName": "Case Riminino",
      "lat": 42.466667,
      "lng": 11.65
    },
    {
      "cityName": "Casette",
      "lat": 42,
      "lng": 12.716667
    },
    {
      "cityName": "Casi",
      "lat": 41.25,
      "lng": 14.033333
    },
    {
      "cityName": "Casone",
      "lat": 42.65,
      "lng": 11.766667
    },
    {
      "cityName": "Caspoli",
      "lat": 41.383333,
      "lng": 13.966667
    },
    {
      "cityName": "Cassino",
      "lat": 41.5,
      "lng": 13.816667
    },
    {
      "cityName": "Castelchiodato",
      "lat": 42.05,
      "lng": 12.7
    },
    {
      "cityName": "Castel di Decima",
      "lat": 41.75,
      "lng": 12.433333
    },
    {
      "cityName": "Castel di Guido",
      "lat": 41.9,
      "lng": 12.283333
    },
    {
      "cityName": "Castel di Leva",
      "lat": 41.783333,
      "lng": 12.533333
    },
    {
      "cityName": "Castel di Sangro",
      "lat": 41.783333,
      "lng": 14.1
    },
    {
      "cityName": "Castelforte",
      "lat": 41.3,
      "lng": 13.816667
    },
    {
      "cityName": "Castel Fusana",
      "lat": 41.733333,
      "lng": 12.316667
    },
    {
      "cityName": "Castel Gandolfo",
      "lat": 41.75,
      "lng": 12.65
    },
    {
      "cityName": "Castel Giorgio",
      "lat": 42.7,
      "lng": 11.983333
    },
    {
      "cityName": "Castel Giuliano",
      "lat": 42.05,
      "lng": 12.116667
    },
    {
      "cityName": "Castelliri",
      "lat": 41.683333,
      "lng": 13.55
    },
    {
      "cityName": "Castellonorato",
      "lat": 41.283333,
      "lng": 13.683333
    },
    {
      "cityName": "Castel Madama",
      "lat": 41.966667,
      "lng": 12.866667
    },
    {
      "cityName": "Castelnuovo a Volturno",
      "lat": 41.616667,
      "lng": 14.05
    },
    {
      "cityName": "Castelnuovo di Farfa",
      "lat": 42.233333,
      "lng": 12.733333
    },
    {
      "cityName": "Castelnuovo di Porto",
      "lat": 42.116667,
      "lng": 12.5
    },
    {
      "cityName": "Castelnuovo Parano",
      "lat": 41.366667,
      "lng": 13.75
    },
    {
      "cityName": "Castel Porziano",
      "lat": 41.733333,
      "lng": 12.4
    },
    {
      "cityName": "Castel Romano",
      "lat": 41.733333,
      "lng": 12.45
    },
    {
      "cityName": "Castel San Pietro",
      "lat": 42.25,
      "lng": 12.716667
    },
    {
      "cityName": "Castel San Pietro Romano",
      "lat": 41.85,
      "lng": 12.883333
    },
    {
      "cityName": "Castel Sant'Elia",
      "lat": 42.25,
      "lng": 12.366667
    },
    {
      "cityName": "Castel San Vincenzo",
      "lat": 41.65,
      "lng": 14.066667
    },
    {
      "cityName": "Castel Viscardo",
      "lat": 42.75,
      "lng": 12
    },
    {
      "cityName": "Castel Volturno",
      "lat": 41.033333,
      "lng": 13.933333
    },
    {
      "cityName": "Castiglione",
      "lat": 41.733333,
      "lng": 14.133333
    },
    {
      "cityName": "Castiglione in Teverina",
      "lat": 42.65,
      "lng": 12.2
    },
    {
      "cityName": "Castle Tragliatella",
      "lat": 42.016667,
      "lng": 12.216667
    },
    {
      "cityName": "Castrocielo",
      "lat": 41.533333,
      "lng": 13.7
    },
    {
      "cityName": "Castro dei Volsci",
      "lat": 41.5,
      "lng": 13.4
    },
    {
      "cityName": "Castromenio",
      "lat": 41.766667,
      "lng": 12.65
    },
    {
      "cityName": "Catino",
      "lat": 42.283333,
      "lng": 12.683333
    },
    {
      "cityName": "Cave",
      "lat": 41.816667,
      "lng": 12.933333
    },
    {
      "cityName": "Cave Vecchie",
      "lat": 42.166667,
      "lng": 11.916667
    },
    {
      "cityName": "Ceccano",
      "lat": 41.566667,
      "lng": 13.333333
    },
    {
      "cityName": "Cecchignola",
      "lat": 41.816667,
      "lng": 12.483333
    },
    {
      "cityName": "Cecchina",
      "lat": 41.7,
      "lng": 12.65
    },
    {
      "cityName": "Celleno",
      "lat": 42.566667,
      "lng": 12.133333
    },
    {
      "cityName": "Cellere",
      "lat": 42.5,
      "lng": 11.766667
    },
    {
      "cityName": "Cellole",
      "lat": 41.2,
      "lng": 13.85
    },
    {
      "cityName": "Centocelle",
      "lat": 41.883333,
      "lng": 12.566667
    },
    {
      "cityName": "Ceppagna",
      "lat": 41.466667,
      "lng": 14.016667
    },
    {
      "cityName": "Ceprano",
      "lat": 41.55,
      "lng": 13.516667
    },
    {
      "cityName": "Cerasuolo",
      "lat": 41.583333,
      "lng": 14.016667
    },
    {
      "cityName": "Cerdomare",
      "lat": 42.2,
      "lng": 12.833333
    },
    {
      "cityName": "Ceri",
      "lat": 41.983333,
      "lng": 12.15
    },
    {
      "cityName": "Cerreto Alto",
      "lat": 41.416667,
      "lng": 12.85
    },
    {
      "cityName": "Cerreto Laziale",
      "lat": 41.933333,
      "lng": 12.983333
    },
    {
      "cityName": "Cerro al Volturno",
      "lat": 41.65,
      "lng": 14.1
    },
    {
      "cityName": "Cerro Grosso",
      "lat": 41.583333,
      "lng": 13.983333
    },
    {
      "cityName": "Cervara di Roma",
      "lat": 41.983333,
      "lng": 13.066667
    },
    {
      "cityName": "Cervaro",
      "lat": 41.483333,
      "lng": 13.9
    },
    {
      "cityName": "Cerveleri",
      "lat": 42,
      "lng": 12.1
    },
    {
      "cityName": "Cesano",
      "lat": 42.083333,
      "lng": 12.35
    },
    {
      "cityName": "Cese",
      "lat": 41.566667,
      "lng": 13.85
    },
    {
      "cityName": "Chia",
      "lat": 42.466667,
      "lng": 12.266667
    },
    {
      "cityName": "Chiaiamari",
      "lat": 41.65,
      "lng": 13.533333
    },
    {
      "cityName": "Ciampino",
      "lat": 41.8,
      "lng": 12.6
    },
    {
      "cityName": "Ciciliano",
      "lat": 41.95,
      "lng": 12.933333
    },
    {
      "cityName": "Cinecittà",
      "lat": 41.85,
      "lng": 12.566667
    },
    {
      "cityName": "Cineto Romano",
      "lat": 42.05,
      "lng": 12.966667
    },
    {
      "cityName": "Ciorlano",
      "lat": 41.45,
      "lng": 14.166667
    },
    {
      "cityName": "Cisterna",
      "lat": 41.583333,
      "lng": 12.816667
    },
    {
      "cityName": "Civita Castellana",
      "lat": 42.283333,
      "lng": 12.416667
    },
    {
      "cityName": "Civita d'Antino",
      "lat": 41.883333,
      "lng": 13.466667
    },
    {
      "cityName": "Civitavecchia",
      "lat": 42.1,
      "lng": 11.8
    },
    {
      "cityName": "Civitella Alfedena",
      "lat": 41.766667,
      "lng": 13.933333
    },
    {
      "cityName": "Civitella Cesi",
      "lat": 42.216667,
      "lng": 12.016667
    },
    {
      "cityName": "Civitella d'Agliano",
      "lat": 42.6,
      "lng": 12.183333
    },
    {
      "cityName": "Civitella San Paolo",
      "lat": 42.2,
      "lng": 12.583333
    },
    {
      "cityName": "Cocuruzzo",
      "lat": 41.366667,
      "lng": 13.9
    },
    {
      "cityName": "Coldragone",
      "lat": 41.55,
      "lng": 13.6
    },
    {
      "cityName": "Colle Alto",
      "lat": 41.566667,
      "lng": 13.566667
    },
    {
      "cityName": "Colle Arduino",
      "lat": 41.483333,
      "lng": 13.566667
    },
    {
      "cityName": "Colleberardi",
      "lat": 41.683333,
      "lng": 13.45
    },
    {
      "cityName": "Colle di Fuori",
      "lat": 41.8,
      "lng": 12.8
    },
    {
      "cityName": "Colleferro",
      "lat": 41.733333,
      "lng": 12.983333
    },
    {
      "cityName": "Collelungo",
      "lat": 42.25,
      "lng": 12.816667
    },
    {
      "cityName": "Collemacchia",
      "lat": 41.55,
      "lng": 14.05
    },
    {
      "cityName": "Colle Mastroianni",
      "lat": 41.683333,
      "lng": 13.666667
    },
    {
      "cityName": "Collepardo",
      "lat": 41.766667,
      "lng": 13.366667
    },
    {
      "cityName": "Collepizzulo",
      "lat": 41.65,
      "lng": 13.816667
    },
    {
      "cityName": "Colle San Magno",
      "lat": 41.55,
      "lng": 13.7
    },
    {
      "cityName": "Colle Santa Colomba",
      "lat": 42.033333,
      "lng": 12.566667
    },
    {
      "cityName": "Colli al Volturno",
      "lat": 41.6,
      "lng": 14.1
    },
    {
      "cityName": "Colli",
      "lat": 41.616667,
      "lng": 13.533333
    },
    {
      "cityName": "Colonia Elena",
      "lat": 41.25,
      "lng": 13.116667
    },
    {
      "cityName": "Colonna",
      "lat": 41.833333,
      "lng": 12.75
    },
    {
      "cityName": "Coltodino",
      "lat": 42.2,
      "lng": 12.716667
    },
    {
      "cityName": "Commenda",
      "lat": 42.483333,
      "lng": 12.016667
    },
    {
      "cityName": "Conca Casale",
      "lat": 41.483333,
      "lng": 14
    },
    {
      "cityName": "Conca della Campania",
      "lat": 41.333333,
      "lng": 13.983333
    },
    {
      "cityName": "Corbara",
      "lat": 42.7,
      "lng": 12.233333
    },
    {
      "cityName": "Corchiano",
      "lat": 42.35,
      "lng": 12.35
    },
    {
      "cityName": "Corcolle",
      "lat": 41.916667,
      "lng": 12.766667
    },
    {
      "cityName": "Corese",
      "lat": 42.166667,
      "lng": 12.7
    },
    {
      "cityName": "Cori",
      "lat": 41.65,
      "lng": 12.916667
    },
    {
      "cityName": "Corigliano",
      "lat": 41.283333,
      "lng": 13.916667
    },
    {
      "cityName": "Cretone",
      "lat": 42.083333,
      "lng": 12.7
    },
    {
      "cityName": "Crocicchie",
      "lat": 42.05,
      "lng": 12.25
    },
    {
      "cityName": "Crustumerium",
      "lat": 42.05,
      "lng": 12.616667
    },
    {
      "cityName": "Cupa",
      "lat": 41.233333,
      "lng": 13.9
    },
    {
      "cityName": "Cura",
      "lat": 42.3,
      "lng": 12.083333
    },
    {
      "cityName": "Doganella di Ninfa",
      "lat": 41.566667,
      "lng": 12.933333
    },
    {
      "cityName": "Eremo",
      "lat": 42.15,
      "lng": 12.116667
    },
    {
      "cityName": "Esperia",
      "lat": 41.383333,
      "lng": 13.683333
    },
    {
      "cityName": "Fabrica di Roma",
      "lat": 42.333333,
      "lng": 12.3
    },
    {
      "cityName": "Falciano Capo",
      "lat": 41.166667,
      "lng": 13.95
    },
    {
      "cityName": "Falcognana di Sopra",
      "lat": 41.75,
      "lng": 12.55
    },
    {
      "cityName": "Faleria",
      "lat": 42.233333,
      "lng": 12.433333
    },
    {
      "cityName": "Falvaterra",
      "lat": 41.5,
      "lng": 13.516667
    },
    {
      "cityName": "Fara di Soligo",
      "lat": 42.15,
      "lng": 12.65
    },
    {
      "cityName": "Farfa",
      "lat": 42.216667,
      "lng": 12.716667
    },
    {
      "cityName": "Farnese",
      "lat": 42.55,
      "lng": 11.716667
    },
    {
      "cityName": "Farnetozzo-Montebello",
      "lat": 41.5,
      "lng": 12.716667
    },
    {
      "cityName": "Fasani",
      "lat": 41.233333,
      "lng": 13.883333
    },
    {
      "cityName": "Fastello",
      "lat": 42.55,
      "lng": 12.1
    },
    {
      "cityName": "Feminamorta",
      "lat": 41.55,
      "lng": 12.8
    },
    {
      "cityName": "Ferentino",
      "lat": 41.7,
      "lng": 13.25
    },
    {
      "cityName": "Fiano Romano",
      "lat": 42.166667,
      "lng": 12.583333
    },
    {
      "cityName": "Filacciano",
      "lat": 42.25,
      "lng": 12.6
    },
    {
      "cityName": "Filettino",
      "lat": 41.883333,
      "lng": 13.316667
    },
    {
      "cityName": "Filignano",
      "lat": 41.533333,
      "lng": 14.05
    },
    {
      "cityName": "Filorsi",
      "lat": 41.283333,
      "lng": 13.983333
    },
    {
      "cityName": "Fiordine",
      "lat": 42.533333,
      "lng": 12.033333
    },
    {
      "cityName": "Fiuggi",
      "lat": 41.8,
      "lng": 13.216667
    },
    {
      "cityName": "Fiumicino",
      "lat": 41.766667,
      "lng": 12.233333
    },
    {
      "cityName": "Foglia",
      "lat": 42.333333,
      "lng": 12.466667
    },
    {
      "cityName": "Fogliano",
      "lat": 41.4,
      "lng": 12.916667
    },
    {
      "cityName": "Fondi",
      "lat": 41.35,
      "lng": 13.416667
    },
    {
      "cityName": "Fontana Liri",
      "lat": 41.616667,
      "lng": 13.566667
    },
    {
      "cityName": "Fontana Liri Inferiore",
      "lat": 41.6,
      "lng": 13.55
    },
    {
      "cityName": "Fontanelle",
      "lat": 41.25,
      "lng": 14.016667
    },
    {
      "cityName": "Fontechiari",
      "lat": 41.666667,
      "lng": 13.666667
    },
    {
      "cityName": "Fonte del Botto",
      "lat": 41.616667,
      "lng": 14.133333
    },
    {
      "cityName": "Fontegreca",
      "lat": 41.45,
      "lng": 14.183333
    },
    {
      "cityName": "Forano",
      "lat": 42.3,
      "lng": 12.6
    },
    {
      "cityName": "Forcella",
      "lat": 41.75,
      "lng": 13.633333
    },
    {
      "cityName": "Foresta",
      "lat": 41.65,
      "lng": 14.116667
    },
    {
      "cityName": "Forleta",
      "lat": 41.633333,
      "lng": 13.666667
    },
    {
      "cityName": "Formello",
      "lat": 42.083333,
      "lng": 12.4
    },
    {
      "cityName": "Formia",
      "lat": 41.25,
      "lng": 13.616667
    },
    {
      "cityName": "Fornacchia",
      "lat": 42.45,
      "lng": 12.2
    },
    {
      "cityName": "Fornelli",
      "lat": 41.6,
      "lng": 14.133333
    },
    {
      "cityName": "Fraioli",
      "lat": 41.583333,
      "lng": 13.616667
    },
    {
      "cityName": "Frascati",
      "lat": 41.8,
      "lng": 12.683333
    },
    {
      "cityName": "Frasso Sabino",
      "lat": 42.233333,
      "lng": 12.8
    },
    {
      "cityName": "Frattocchie",
      "lat": 41.766667,
      "lng": 12.616667
    },
    {
      "cityName": "Fregene",
      "lat": 41.85,
      "lng": 12.2
    },
    {
      "cityName": "Frosinone",
      "lat": 41.633333,
      "lng": 13.316667
    },
    {
      "cityName": "Fumone",
      "lat": 41.733333,
      "lng": 13.283333
    },
    {
      "cityName": "Furnolo",
      "lat": 41.266667,
      "lng": 14.05
    },
    {
      "cityName": "Gaeta",
      "lat": 41.2,
      "lng": 13.583333
    },
    {
      "cityName": "Gallese",
      "lat": 42.366667,
      "lng": 12.4
    },
    {
      "cityName": "Gallicano nel Lazio",
      "lat": 41.866667,
      "lng": 12.816667
    },
    {
      "cityName": "Gallinaro",
      "lat": 41.65,
      "lng": 13.8
    },
    {
      "cityName": "Gallo",
      "lat": 41.3,
      "lng": 13.983333
    },
    {
      "cityName": "Galluccio",
      "lat": 41.35,
      "lng": 13.95
    },
    {
      "cityName": "Garbatella",
      "lat": 41.866667,
      "lng": 12.483333
    },
    {
      "cityName": "Gavignano",
      "lat": 41.7,
      "lng": 13.05
    },
    {
      "cityName": "Genazzano",
      "lat": 41.833333,
      "lng": 12.966667
    },
    {
      "cityName": "Genzano di Roma",
      "lat": 41.7,
      "lng": 12.683333
    },
    {
      "cityName": "Gianicolo",
      "lat": 41.883333,
      "lng": 12.466667
    },
    {
      "cityName": "Giannetti",
      "lat": 41.616667,
      "lng": 13.55
    },
    {
      "cityName": "Ginestra",
      "lat": 42.233333,
      "lng": 12.85
    },
    {
      "cityName": "Giove",
      "lat": 42.483333,
      "lng": 12.316667
    },
    {
      "cityName": "Giulianello",
      "lat": 41.683333,
      "lng": 12.866667
    },
    {
      "cityName": "Giuliano di Roma",
      "lat": 41.533333,
      "lng": 13.283333
    },
    {
      "cityName": "Gorga",
      "lat": 41.65,
      "lng": 13.116667
    },
    {
      "cityName": "Gradoli",
      "lat": 42.65,
      "lng": 11.85
    },
    {
      "cityName": "Graffignano",
      "lat": 42.566667,
      "lng": 12.2
    },
    {
      "cityName": "Grottaferrata",
      "lat": 41.783333,
      "lng": 12.666667
    },
    {
      "cityName": "Grotte di Castro",
      "lat": 42.666667,
      "lng": 11.866667
    },
    {
      "cityName": "Grotte Santo Stefano",
      "lat": 42.516667,
      "lng": 12.166667
    },
    {
      "cityName": "Guadanolo",
      "lat": 41.916667,
      "lng": 12.933333
    },
    {
      "cityName": "Guarcino",
      "lat": 41.8,
      "lng": 13.316667
    },
    {
      "cityName": "Guidonia",
      "lat": 42.016667,
      "lng": 12.75
    },
    {
      "cityName": "I Casini",
      "lat": 42.083333,
      "lng": 12.55
    },
    {
      "cityName": "I Doddi",
      "lat": 41.216667,
      "lng": 14.016667
    },
    {
      "cityName": "Ienne",
      "lat": 41.883333,
      "lng": 13.166667
    },
    {
      "cityName": "Il Casaletto",
      "lat": 41.783333,
      "lng": 12.566667
    },
    {
      "cityName": "Il Pizzone",
      "lat": 41.233333,
      "lng": 13.566667
    },
    {
      "cityName": "Ischia di Castro",
      "lat": 42.55,
      "lng": 11.75
    },
    {
      "cityName": "Isola del Liri",
      "lat": 41.683333,
      "lng": 13.566667
    },
    {
      "cityName": "Isola Farnese",
      "lat": 42.016667,
      "lng": 12.383333
    },
    {
      "cityName": "Itri",
      "lat": 41.283333,
      "lng": 13.533333
    },
    {
      "cityName": "Labico",
      "lat": 41.783333,
      "lng": 12.883333
    },
    {
      "cityName": "La Botiaccia",
      "lat": 41.9,
      "lng": 12.316667
    },
    {
      "cityName": "La Capocotta",
      "lat": 41.683333,
      "lng": 12.45
    },
    {
      "cityName": "Ladispoli",
      "lat": 41.933333,
      "lng": 12.083333
    },
    {
      "cityName": "La Giustiniana",
      "lat": 41.983333,
      "lng": 12.4
    },
    {
      "cityName": "L'Americano",
      "lat": 41.566667,
      "lng": 12.5
    },
    {
      "cityName": "Lanna",
      "lat": 41.766667,
      "lng": 13.616667
    },
    {
      "cityName": "Lanuvio",
      "lat": 41.666667,
      "lng": 12.7
    },
    {
      "cityName": "La Pavona",
      "lat": 41.716667,
      "lng": 12.616667
    },
    {
      "cityName": "La Quercia",
      "lat": 42.416667,
      "lng": 12.1
    },
    {
      "cityName": "Lariano",
      "lat": 41.716667,
      "lng": 12.833333
    },
    {
      "cityName": "La Storta",
      "lat": 42,
      "lng": 12.383333
    },
    {
      "cityName": "Latera",
      "lat": 42.633333,
      "lng": 11.833333
    },
    {
      "cityName": "Latina",
      "lat": 41.466667,
      "lng": 12.866667
    },
    {
      "cityName": "Lauro",
      "lat": 41.266667,
      "lng": 13.883333
    },
    {
      "cityName": "La Villa",
      "lat": 42.066667,
      "lng": 12.4
    },
    {
      "cityName": "La Volla",
      "lat": 41.483333,
      "lng": 13.75
    },
    {
      "cityName": "Le Castella",
      "lat": 41.616667,
      "lng": 12.8
    },
    {
      "cityName": "Le Cerquete",
      "lat": 41.85,
      "lng": 12.266667
    },
    {
      "cityName": "Le Cese",
      "lat": 41.55,
      "lng": 13.616667
    },
    {
      "cityName": "Le Ferriere",
      "lat": 41.516667,
      "lng": 12.75
    },
    {
      "cityName": "Lemmolle",
      "lat": 41.616667,
      "lng": 13.866667
    },
    {
      "cityName": "Lenola",
      "lat": 41.4,
      "lng": 13.466667
    },
    {
      "cityName": "Le Pastinelle",
      "lat": 41.483333,
      "lng": 13.883333
    },
    {
      "cityName": "Licenza",
      "lat": 42.066667,
      "lng": 12.9
    },
    {
      "cityName": "Lido di Ostia",
      "lat": 41.733333,
      "lng": 12.266667
    },
    {
      "cityName": "Li Paoli",
      "lat": 41.283333,
      "lng": 13.933333
    },
    {
      "cityName": "Lubriano",
      "lat": 42.633333,
      "lng": 12.116667
    },
    {
      "cityName": "Lunghezza",
      "lat": 41.916667,
      "lng": 12.583333
    },
    {
      "cityName": "Maccarese",
      "lat": 41.883333,
      "lng": 12.216667
    },
    {
      "cityName": "Macchia d'Isernia",
      "lat": 41.566667,
      "lng": 14.166667
    },
    {
      "cityName": "Macere",
      "lat": 41.75,
      "lng": 12.866667
    },
    {
      "cityName": "Madonna di Roselli",
      "lat": 41.65,
      "lng": 13.716667
    },
    {
      "cityName": "Maenza",
      "lat": 41.516667,
      "lng": 13.183333
    },
    {
      "cityName": "Magliana",
      "lat": 41.833333,
      "lng": 12.416667
    },
    {
      "cityName": "Magliano Romano",
      "lat": 42.166667,
      "lng": 12.433333
    },
    {
      "cityName": "Malagrotta",
      "lat": 41.883333,
      "lng": 12.333333
    },
    {
      "cityName": "Mandela",
      "lat": 42.033333,
      "lng": 12.916667
    },
    {
      "cityName": "Manziana",
      "lat": 42.133333,
      "lng": 12.133333
    },
    {
      "cityName": "Marano Equo",
      "lat": 42,
      "lng": 13.016667
    },
    {
      "cityName": "Maranola",
      "lat": 41.283333,
      "lng": 13.616667
    },
    {
      "cityName": "Marcellina",
      "lat": 42.016667,
      "lng": 12.8
    },
    {
      "cityName": "Marta",
      "lat": 42.533333,
      "lng": 11.916667
    },
    {
      "cityName": "Marzano",
      "lat": 41.316667,
      "lng": 14.033333
    },
    {
      "cityName": "Mastrati",
      "lat": 41.4,
      "lng": 14.116667
    },
    {
      "cityName": "Mazzano Romano",
      "lat": 42.2,
      "lng": 12.4
    },
    {
      "cityName": "Meana",
      "lat": 42.783333,
      "lng": 11.983333
    },
    {
      "cityName": "Melfa",
      "lat": 41.533333,
      "lng": 13.65
    },
    {
      "cityName": "Mennella",
      "lat": 41.583333,
      "lng": 14.05
    },
    {
      "cityName": "Mentana",
      "lat": 42.033333,
      "lng": 12.633333
    },
    {
      "cityName": "Mesa",
      "lat": 41.383333,
      "lng": 13.116667
    },
    {
      "cityName": "Minturno",
      "lat": 41.25,
      "lng": 13.75
    },
    {
      "cityName": "Mompeo",
      "lat": 42.25,
      "lng": 12.75
    },
    {
      "cityName": "Mondragone",
      "lat": 41.116667,
      "lng": 13.883333
    },
    {
      "cityName": "Montalfina",
      "lat": 42.683333,
      "lng": 11.95
    },
    {
      "cityName": "Montalto di Castro",
      "lat": 42.35,
      "lng": 11.616667
    },
    {
      "cityName": "Montaquila",
      "lat": 41.566667,
      "lng": 14.116667
    },
    {
      "cityName": "Montecalvello",
      "lat": 42.55,
      "lng": 12.216667
    },
    {
      "cityName": "Montecelio",
      "lat": 42.016667,
      "lng": 12.733333
    },
    {
      "cityName": "Monte Compatri",
      "lat": 41.8,
      "lng": 12.733333
    },
    {
      "cityName": "Monte di Leva",
      "lat": 41.7,
      "lng": 12.466667
    },
    {
      "cityName": "Monte Flavio",
      "lat": 42.1,
      "lng": 12.833333
    },
    {
      "cityName": "Montelanico",
      "lat": 41.65,
      "lng": 13.033333
    },
    {
      "cityName": "Monte Libretti",
      "lat": 42.133333,
      "lng": 12.783333
    },
    {
      "cityName": "Monte Maggiore",
      "lat": 42.15,
      "lng": 12.683333
    },
    {
      "cityName": "Montenero in Sabina",
      "lat": 42.283333,
      "lng": 12.816667
    },
    {
      "cityName": "Montenero Val Cocchiara",
      "lat": 41.716667,
      "lng": 14.066667
    },
    {
      "cityName": "Monte Porzio Catone",
      "lat": 41.816667,
      "lng": 12.716667
    },
    {
      "cityName": "Monte Porzio",
      "lat": 41.733333,
      "lng": 12.716667
    },
    {
      "cityName": "Monteroduni",
      "lat": 41.516667,
      "lng": 14.166667
    },
    {
      "cityName": "Monte Romano",
      "lat": 42.266667,
      "lng": 11.9
    },
    {
      "cityName": "Monterosi",
      "lat": 42.2,
      "lng": 12.3
    },
    {
      "cityName": "Monte Rubiaglio",
      "lat": 42.766667,
      "lng": 12.016667
    },
    {
      "cityName": "Monte Sacro",
      "lat": 41.933333,
      "lng": 12.533333
    },
    {
      "cityName": "Monte San Biagio",
      "lat": 41.35,
      "lng": 13.35
    },
    {
      "cityName": "Monte San Giovanni Campano",
      "lat": 41.633333,
      "lng": 13.516667
    },
    {
      "cityName": "Monte Santa Maria in Sabina",
      "lat": 42.216667,
      "lng": 12.766667
    },
    {
      "cityName": "Monticchio",
      "lat": 41.533333,
      "lng": 12.966667
    },
    {
      "cityName": "Monticelli",
      "lat": 41.4,
      "lng": 13.65
    },
    {
      "cityName": "Montopoli in Sabina",
      "lat": 42.25,
      "lng": 12.683333
    },
    {
      "cityName": "Montorio Romano",
      "lat": 42.133333,
      "lng": 12.8
    },
    {
      "cityName": "Moricone",
      "lat": 42.116667,
      "lng": 12.766667
    },
    {
      "cityName": "Morlupo",
      "lat": 42.133333,
      "lng": 12.5
    },
    {
      "cityName": "Morolo",
      "lat": 41.633333,
      "lng": 13.2
    },
    {
      "cityName": "Morrano",
      "lat": 42.766667,
      "lng": 12.133333
    },
    {
      "cityName": "Morrea",
      "lat": 41.85,
      "lng": 13.516667
    },
    {
      "cityName": "Mugnano",
      "lat": 42.5,
      "lng": 12.283333
    },
    {
      "cityName": "Musignano",
      "lat": 42.433333,
      "lng": 11.716667
    },
    {
      "cityName": "Nazzano",
      "lat": 42.233333,
      "lng": 12.6
    },
    {
      "cityName": "Nemi",
      "lat": 41.716667,
      "lng": 12.716667
    },
    {
      "cityName": "Nepi",
      "lat": 42.233333,
      "lng": 12.35
    },
    {
      "cityName": "Nerola",
      "lat": 42.166667,
      "lng": 12.783333
    },
    {
      "cityName": "Nettuno",
      "lat": 41.45,
      "lng": 12.65
    },
    {
      "cityName": "Nocelleto",
      "lat": 41.166667,
      "lng": 14.016667
    },
    {
      "cityName": "Nomentano",
      "lat": 41.916667,
      "lng": 12.5
    },
    {
      "cityName": "Norma",
      "lat": 41.583333,
      "lng": 12.966667
    },
    {
      "cityName": "Olevano",
      "lat": 41.866667,
      "lng": 13.033333
    },
    {
      "cityName": "Olgiata",
      "lat": 42.033333,
      "lng": 12.366667
    },
    {
      "cityName": "Omero",
      "lat": 41.666667,
      "lng": 14.033333
    },
    {
      "cityName": "Onano",
      "lat": 42.683333,
      "lng": 11.816667
    },
    {
      "cityName": "Opi",
      "lat": 41.783333,
      "lng": 13.833333
    },
    {
      "cityName": "Orchi",
      "lat": 41.316667,
      "lng": 14
    },
    {
      "cityName": "Oricola",
      "lat": 42.033333,
      "lng": 13.033333
    },
    {
      "cityName": "Oriolo",
      "lat": 42.166667,
      "lng": 12.133333
    },
    {
      "cityName": "Orte",
      "lat": 42.45,
      "lng": 12.383333
    },
    {
      "cityName": "Orvieto",
      "lat": 42.716667,
      "lng": 12.116667
    },
    {
      "cityName": "Orvinio",
      "lat": 42.133333,
      "lng": 12.933333
    },
    {
      "cityName": "Osarella",
      "lat": 42.733333,
      "lng": 12.166667
    },
    {
      "cityName": "Osteria dell' Osa",
      "lat": 41.883333,
      "lng": 12.7
    },
    {
      "cityName": "Ostia Antica",
      "lat": 41.75,
      "lng": 12.3
    },
    {
      "cityName": "Ottavia",
      "lat": 41.966667,
      "lng": 12.4
    },
    {
      "cityName": "Palestrina",
      "lat": 41.833333,
      "lng": 12.883333
    },
    {
      "cityName": "Paliano",
      "lat": 41.8,
      "lng": 13.05
    },
    {
      "cityName": "Palidoro",
      "lat": 41.933333,
      "lng": 12.183333
    },
    {
      "cityName": "Palombara Sabina",
      "lat": 42.066667,
      "lng": 12.766667
    },
    {
      "cityName": "Panaccioni",
      "lat": 41.466667,
      "lng": 13.816667
    },
    {
      "cityName": "Pantano",
      "lat": 41.566667,
      "lng": 14.05
    },
    {
      "cityName": "Passerano",
      "lat": 41.9,
      "lng": 12.766667
    },
    {
      "cityName": "Pastena",
      "lat": 41.466667,
      "lng": 13.483333
    },
    {
      "cityName": "Patrica",
      "lat": 41.6,
      "lng": 13.25
    },
    {
      "cityName": "Penna in Teverina",
      "lat": 42.5,
      "lng": 12.35
    },
    {
      "cityName": "Percile",
      "lat": 42.1,
      "lng": 12.9
    },
    {
      "cityName": "Pescasseroli",
      "lat": 41.8,
      "lng": 13.783333
    },
    {
      "cityName": "Pescosolido",
      "lat": 41.75,
      "lng": 13.65
    },
    {
      "cityName": "Pianiano",
      "lat": 42.5,
      "lng": 11.733333
    },
    {
      "cityName": "Pianicciole",
      "lat": 42.633333,
      "lng": 12.183333
    },
    {
      "cityName": "Piansano",
      "lat": 42.516667,
      "lng": 11.833333
    },
    {
      "cityName": "Piccilli",
      "lat": 41.333333,
      "lng": 14.033333
    },
    {
      "cityName": "Picinisco",
      "lat": 41.65,
      "lng": 13.866667
    },
    {
      "cityName": "Pico",
      "lat": 41.45,
      "lng": 13.566667
    },
    {
      "cityName": "Piedimonte Massicano",
      "lat": 41.183333,
      "lng": 13.9
    },
    {
      "cityName": "Piedimonte San Germano",
      "lat": 41.5,
      "lng": 13.75
    },
    {
      "cityName": "Pietrafitta",
      "lat": 41.666667,
      "lng": 13.816667
    },
    {
      "cityName": "Pietransieri",
      "lat": 41.85,
      "lng": 14.116667
    },
    {
      "cityName": "Piglio",
      "lat": 41.816667,
      "lng": 13.133333
    },
    {
      "cityName": "Pignataro Interamna",
      "lat": 41.466667,
      "lng": 13.783333
    },
    {
      "cityName": "Piperno",
      "lat": 41.466667,
      "lng": 13.183333
    },
    {
      "cityName": "Pisciacavallo",
      "lat": 42.05,
      "lng": 12.366667
    },
    {
      "cityName": "Pisciarelli",
      "lat": 42.116667,
      "lng": 12.15
    },
    {
      "cityName": "Pisoniano",
      "lat": 41.9,
      "lng": 12.95
    },
    {
      "cityName": "Piumarola",
      "lat": 41.466667,
      "lng": 13.766667
    },
    {
      "cityName": "Poczilli",
      "lat": 41.516667,
      "lng": 14.066667
    },
    {
      "cityName": "Podere Rosa",
      "lat": 41.95,
      "lng": 12.566667
    },
    {
      "cityName": "Pofi",
      "lat": 41.566667,
      "lng": 13.416667
    },
    {
      "cityName": "Póggio Lorenzo",
      "lat": 42.25,
      "lng": 12.833333
    },
    {
      "cityName": "Poggio Martino",
      "lat": 42.066667,
      "lng": 11.816667
    },
    {
      "cityName": "Poggio Mirteto",
      "lat": 42.266667,
      "lng": 12.683333
    },
    {
      "cityName": "Poggio Moiano",
      "lat": 42.2,
      "lng": 12.883333
    },
    {
      "cityName": "Poggio Nativo",
      "lat": 42.216667,
      "lng": 12.8
    },
    {
      "cityName": "Poggio Sommavilla",
      "lat": 42.3,
      "lng": 12.533333
    },
    {
      "cityName": "Poli",
      "lat": 41.883333,
      "lng": 12.883333
    },
    {
      "cityName": "Pomezia",
      "lat": 41.666667,
      "lng": 12.5
    },
    {
      "cityName": "Pontecorvo",
      "lat": 41.45,
      "lng": 13.666667
    },
    {
      "cityName": "Ponte Lucano",
      "lat": 41.95,
      "lng": 12.766667
    },
    {
      "cityName": "Ponte",
      "lat": 41.266667,
      "lng": 13.95
    },
    {
      "cityName": "Ponte Rotto",
      "lat": 41.583333,
      "lng": 12.8
    },
    {
      "cityName": "Ponticelli",
      "lat": 42.166667,
      "lng": 12.816667
    },
    {
      "cityName": "Ponzano Ramano",
      "lat": 42.25,
      "lng": 12.566667
    },
    {
      "cityName": "Ponza",
      "lat": 40.9,
      "lng": 12.966667
    },
    {
      "cityName": "Porano",
      "lat": 42.683333,
      "lng": 12.1
    },
    {
      "cityName": "Portantino",
      "lat": 41.666667,
      "lng": 13.45
    },
    {
      "cityName": "Portella",
      "lat": 41.533333,
      "lng": 13.866667
    },
    {
      "cityName": "Porto Clementino",
      "lat": 42.216667,
      "lng": 11.7
    },
    {
      "cityName": "Porto",
      "lat": 41.766667,
      "lng": 12.266667
    },
    {
      "cityName": "Porto Salvo",
      "lat": 41.216667,
      "lng": 13.566667
    },
    {
      "cityName": "Posta",
      "lat": 41.7,
      "lng": 13.7
    },
    {
      "cityName": "Pratica di Mare",
      "lat": 41.666667,
      "lng": 12.483333
    },
    {
      "cityName": "Presenzano",
      "lat": 41.366667,
      "lng": 14.066667
    },
    {
      "cityName": "Pretalve",
      "lat": 41.7,
      "lng": 14.133333
    },
    {
      "cityName": "Proceno",
      "lat": 42.75,
      "lng": 11.833333
    },
    {
      "cityName": "Procoio Nuovo",
      "lat": 42.05,
      "lng": 12.516667
    },
    {
      "cityName": "Prossedi",
      "lat": 41.516667,
      "lng": 13.25
    },
    {
      "cityName": "Pulcherini",
      "lat": 41.283333,
      "lng": 13.75
    },
    {
      "cityName": "Pyrgi",
      "lat": 42.033333,
      "lng": 11.95
    },
    {
      "cityName": "Quadroni",
      "lat": 42.133333,
      "lng": 12.116667
    },
    {
      "cityName": "Ranucci",
      "lat": 42.55,
      "lng": 12.083333
    },
    {
      "cityName": "Rendinara",
      "lat": 41.833333,
      "lng": 13.466667
    },
    {
      "cityName": "Retignano",
      "lat": 42.7,
      "lng": 12.183333
    },
    {
      "cityName": "Riano",
      "lat": 42.083333,
      "lng": 12.533333
    },
    {
      "cityName": "Rignano Flaminio",
      "lat": 42.2,
      "lng": 12.483333
    },
    {
      "cityName": "Rimessa Nuova",
      "lat": 42.116667,
      "lng": 11.794444
    },
    {
      "cityName": "Riofreddo",
      "lat": 42.05,
      "lng": 13
    },
    {
      "cityName": "Ripi",
      "lat": 41.616667,
      "lng": 13.416667
    },
    {
      "cityName": "Rocca Cinquemiglia",
      "lat": 41.816667,
      "lng": 14.116667
    },
    {
      "cityName": "Rocca d'Arce",
      "lat": 41.583333,
      "lng": 13.583333
    },
    {
      "cityName": "Rocca di Botte",
      "lat": 42.016667,
      "lng": 13.066667
    },
    {
      "cityName": "Rocca di Cave",
      "lat": 41.85,
      "lng": 12.95
    },
    {
      "cityName": "Rocca di Papa",
      "lat": 41.766667,
      "lng": 12.7
    },
    {
      "cityName": "Rocca Giòvane",
      "lat": 42.05,
      "lng": 12.9
    },
    {
      "cityName": "Roccalvecce",
      "lat": 42.566667,
      "lng": 12.166667
    },
    {
      "cityName": "Rocca Massima",
      "lat": 41.683333,
      "lng": 12.916667
    },
    {
      "cityName": "Rocca Pipirozzi",
      "lat": 41.433333,
      "lng": 14.033333
    },
    {
      "cityName": "Rocca Priora",
      "lat": 41.8,
      "lng": 12.75
    },
    {
      "cityName": "Roccarasa",
      "lat": 41.85,
      "lng": 14.083333
    },
    {
      "cityName": "Roccaravindola",
      "lat": 41.533333,
      "lng": 14.116667
    },
    {
      "cityName": "Roccasecca dei Volsci",
      "lat": 41.483333,
      "lng": 13.216667
    },
    {
      "cityName": "Roccasecca",
      "lat": 41.55,
      "lng": 13.666667
    },
    {
      "cityName": "Roccavivi",
      "lat": 41.816667,
      "lng": 13.533333
    },
    {
      "cityName": "Rocchetta al Volturno",
      "lat": 41.633333,
      "lng": 14.066667
    },
    {
      "cityName": "Roiate",
      "lat": 41.866667,
      "lng": 13.066667
    },
    {
      "cityName": "Roma",
      "lat": 41.9,
      "lng": 12.483333
    },
    {
      "cityName": "Ronciglione",
      "lat": 42.283333,
      "lng": 12.216667
    },
    {
      "cityName": "Rongolisi",
      "lat": 41.266667,
      "lng": 13.916667
    },
    {
      "cityName": "Rota",
      "lat": 42.15,
      "lng": 12.016667
    },
    {
      "cityName": "Roviano",
      "lat": 42.016667,
      "lng": 13
    },
    {
      "cityName": "Sabaudia",
      "lat": 41.3,
      "lng": 13.016667
    },
    {
      "cityName": "Sacrofano",
      "lat": 42.1,
      "lng": 12.45
    },
    {
      "cityName": "Saline",
      "lat": 42.2,
      "lng": 11.716667
    },
    {
      "cityName": "Sambuci",
      "lat": 41.983333,
      "lng": 12.933333
    },
    {
      "cityName": "San Angelo",
      "lat": 41.45,
      "lng": 13.833333
    },
    {
      "cityName": "San Biagio Saracinesco",
      "lat": 41.616667,
      "lng": 13.916667
    },
    {
      "cityName": "San Carlo",
      "lat": 41.316667,
      "lng": 13.916667
    },
    {
      "cityName": "San Castrese",
      "lat": 41.25,
      "lng": 13.866667
    },
    {
      "cityName": "San Cesareo",
      "lat": 41.816667,
      "lng": 12.8
    },
    {
      "cityName": "San Clemente",
      "lat": 41.333333,
      "lng": 13.95
    },
    {
      "cityName": "San Donato",
      "lat": 41.2,
      "lng": 13.983333
    },
    {
      "cityName": "San Donato Val di Comino",
      "lat": 41.7,
      "lng": 13.816667
    },
    {
      "cityName": "San Erasmo",
      "lat": 41.208333,
      "lng": 13.586667
    },
    {
      "cityName": "San Felice Circeo",
      "lat": 41.233333,
      "lng": 13.083333
    },
    {
      "cityName": "San Gennaro",
      "lat": 41.633333,
      "lng": 13.883333
    },
    {
      "cityName": "San Giorgio a Liri",
      "lat": 41.4,
      "lng": 13.766667
    },
    {
      "cityName": "San Giovanni di Bieda",
      "lat": 42.283333,
      "lng": 12.05
    },
    {
      "cityName": "San Giovanni Incarico",
      "lat": 41.5,
      "lng": 13.55
    },
    {
      "cityName": "San Giovanni",
      "lat": 41.666667,
      "lng": 14.116667
    },
    {
      "cityName": "San Giuseppe",
      "lat": 41.616667,
      "lng": 13.883333
    },
    {
      "cityName": "San Gregorio da Sassola",
      "lat": 41.916667,
      "lng": 12.866667
    },
    {
      "cityName": "San Liborio",
      "lat": 42.1,
      "lng": 11.825
    },
    {
      "cityName": "San Lorenzo Nuovo",
      "lat": 42.683333,
      "lng": 11.9
    },
    {
      "cityName": "San Lorenzo",
      "lat": 41.283333,
      "lng": 13.816667
    },
    {
      "cityName": "San Luigi",
      "lat": 42.283333,
      "lng": 12.666667
    },
    {
      "cityName": "San Martino al Cimino",
      "lat": 42.366667,
      "lng": 12.116667
    },
    {
      "cityName": "San Martino",
      "lat": 41.3,
      "lng": 13.933333
    },
    {
      "cityName": "San Michele in Teverina",
      "lat": 42.6,
      "lng": 12.166667
    },
    {
      "cityName": "San Paolo",
      "lat": 41.883333,
      "lng": 12.483333
    },
    {
      "cityName": "San Pietro Infine",
      "lat": 41.45,
      "lng": 13.966667
    },
    {
      "cityName": "San Polo de Cavalieri",
      "lat": 42.016667,
      "lng": 12.833333
    },
    {
      "cityName": "San Quirico",
      "lat": 42.666667,
      "lng": 11.766667
    },
    {
      "cityName": "Santa Croce",
      "lat": 41.183333,
      "lng": 13.983333
    },
    {
      "cityName": "Santa Maria a Versano",
      "lat": 41.283333,
      "lng": 14.083333
    },
    {
      "cityName": "Santa Maria di Galeria",
      "lat": 42.033333,
      "lng": 12.316667
    },
    {
      "cityName": "Santa Maria di Mortola",
      "lat": 41.35,
      "lng": 13.883333
    },
    {
      "cityName": "Santa Maria di Ramici",
      "lat": 42.55,
      "lng": 12.3
    },
    {
      "cityName": "Santa Maria Infante",
      "lat": 41.283333,
      "lng": 13.733333
    },
    {
      "cityName": "Santa Maria",
      "lat": 40.9,
      "lng": 12.983333
    },
    {
      "cityName": "Santa Marinella",
      "lat": 42.033333,
      "lng": 11.85
    },
    {
      "cityName": "Santa Marta",
      "lat": 42.1,
      "lng": 12.583333
    },
    {
      "cityName": "Sant'Andrea del Garigliano",
      "lat": 41.383333,
      "lng": 13.833333
    },
    {
      "cityName": "Sant'Angelo Romano",
      "lat": 42.033333,
      "lng": 12.716667
    },
    {
      "cityName": "Sant'Angelo",
      "lat": 41.116667,
      "lng": 13.9
    },
    {
      "cityName": "Sant'Apollinare",
      "lat": 41.433333,
      "lng": 13.833333
    },
    {
      "cityName": "Santa Procula Maggiore",
      "lat": 41.65,
      "lng": 12.533333
    },
    {
      "cityName": "Santa Restituta di Morrea",
      "lat": 41.85,
      "lng": 13.5
    },
    {
      "cityName": "Santi Cosma e Damiano",
      "lat": 41.3,
      "lng": 13.8
    },
    {
      "cityName": "Sant'Oliva",
      "lat": 41.416667,
      "lng": 13.633333
    },
    {
      "cityName": "Sant'Onofrio",
      "lat": 41.65,
      "lng": 13.516667
    },
    {
      "cityName": "Santo Padre",
      "lat": 41.6,
      "lng": 13.633333
    },
    {
      "cityName": "Sant'Oreste",
      "lat": 42.233333,
      "lng": 12.533333
    },
    {
      "cityName": "San Vincenzo Nuovo",
      "lat": 41.833333,
      "lng": 13.516667
    },
    {
      "cityName": "San Vincenzo Valle Roveto Superiore",
      "lat": 41.85,
      "lng": 13.533333
    },
    {
      "cityName": "San Vito Romano",
      "lat": 41.883333,
      "lng": 12.983333
    },
    {
      "cityName": "San Vittore del Lazio",
      "lat": 41.633333,
      "lng": 13.916667
    },
    {
      "cityName": "San Vittorino",
      "lat": 41.666667,
      "lng": 14.1
    },
    {
      "cityName": "Saracinesco",
      "lat": 42,
      "lng": 12.95
    },
    {
      "cityName": "Sasso",
      "lat": 42.05,
      "lng": 12.05
    },
    {
      "cityName": "Scaglia",
      "lat": 42.125,
      "lng": 11.769444
    },
    {
      "cityName": "Scandriglia",
      "lat": 42.166667,
      "lng": 12.833333
    },
    {
      "cityName": "Scauri",
      "lat": 41.25,
      "lng": 13.7
    },
    {
      "cityName": "Scifelli",
      "lat": 41.7,
      "lng": 13.483333
    },
    {
      "cityName": "Scontrone",
      "lat": 41.75,
      "lng": 14.033333
    },
    {
      "cityName": "Segni",
      "lat": 41.683333,
      "lng": 13.016667
    },
    {
      "cityName": "Selvacava",
      "lat": 41.35,
      "lng": 13.733333
    },
    {
      "cityName": "Sermoneta",
      "lat": 41.55,
      "lng": 12.983333
    },
    {
      "cityName": "Sermugnano",
      "lat": 42.65,
      "lng": 12.166667
    },
    {
      "cityName": "Serrone",
      "lat": 41.85,
      "lng": 13.083333
    },
    {
      "cityName": "Sessa Aurunca",
      "lat": 41.233333,
      "lng": 13.933333
    },
    {
      "cityName": "Sesto Campano",
      "lat": 41.416667,
      "lng": 14.066667
    },
    {
      "cityName": "Settecamini",
      "lat": 41.933333,
      "lng": 12.616667
    },
    {
      "cityName": "Settefrati",
      "lat": 41.666667,
      "lng": 13.85
    },
    {
      "cityName": "Sezze",
      "lat": 41.5,
      "lng": 13.05
    },
    {
      "cityName": "Sgurgola",
      "lat": 41.666667,
      "lng": 13.15
    },
    {
      "cityName": "Sipicciano",
      "lat": 41.316667,
      "lng": 13.85
    },
    {
      "cityName": "Sonnino",
      "lat": 41.416667,
      "lng": 13.233333
    },
    {
      "cityName": "Sora",
      "lat": 41.716667,
      "lng": 13.616667
    },
    {
      "cityName": "Sorbello",
      "lat": 41.216667,
      "lng": 13.933333
    },
    {
      "cityName": "Soriano nel Cimino",
      "lat": 42.416667,
      "lng": 12.233333
    },
    {
      "cityName": "Sperlonga",
      "lat": 41.25,
      "lng": 13.433333
    },
    {
      "cityName": "Spigno Saturnia",
      "lat": 41.3,
      "lng": 13.716667
    },
    {
      "cityName": "Stazzano Nuovo",
      "lat": 42.083333,
      "lng": 12.766667
    },
    {
      "cityName": "Stimigliano",
      "lat": 42.3,
      "lng": 12.566667
    },
    {
      "cityName": "Strangolagalli",
      "lat": 41.6,
      "lng": 13.483333
    },
    {
      "cityName": "Subiaco",
      "lat": 41.916667,
      "lng": 13.1
    },
    {
      "cityName": "Suio",
      "lat": 41.3,
      "lng": 13.85
    },
    {
      "cityName": "Supino",
      "lat": 41.616667,
      "lng": 13.233333
    },
    {
      "cityName": "Sutri",
      "lat": 42.233333,
      "lng": 12.216667
    },
    {
      "cityName": "Tarquinia",
      "lat": 42.25,
      "lng": 11.75
    },
    {
      "cityName": "Teano",
      "lat": 41.25,
      "lng": 14.066667
    },
    {
      "cityName": "Tecchiena",
      "lat": 41.683333,
      "lng": 13.316667
    },
    {
      "cityName": "Terelle",
      "lat": 41.55,
      "lng": 13.783333
    },
    {
      "cityName": "Terracina",
      "lat": 41.283333,
      "lng": 13.25
    },
    {
      "cityName": "Tessennano",
      "lat": 42.483333,
      "lng": 11.783333
    },
    {
      "cityName": "Tivoli",
      "lat": 41.966667,
      "lng": 12.8
    },
    {
      "cityName": "Tobia",
      "lat": 42.35,
      "lng": 12.133333
    },
    {
      "cityName": "Toffia",
      "lat": 42.216667,
      "lng": 12.75
    },
    {
      "cityName": "Tolfa",
      "lat": 42.15,
      "lng": 11.933333
    },
    {
      "cityName": "Tora",
      "lat": 41.333333,
      "lng": 14.016667
    },
    {
      "cityName": "Tordimonte",
      "lat": 42.7,
      "lng": 12.166667
    },
    {
      "cityName": "Tor di Quinto",
      "lat": 41.933333,
      "lng": 12.466667
    },
    {
      "cityName": "Tor Paterno",
      "lat": 41.683333,
      "lng": 12.383333
    },
    {
      "cityName": "Torre Alfina",
      "lat": 42.75,
      "lng": 11.95
    },
    {
      "cityName": "Torrecchia Nuova",
      "lat": 41.616667,
      "lng": 12.833333
    },
    {
      "cityName": "Torre di Montalto",
      "lat": 42.333333,
      "lng": 11.583333
    },
    {
      "cityName": "Torre Gaia",
      "lat": 41.85,
      "lng": 12.65
    },
    {
      "cityName": "Torrenova",
      "lat": 41.85,
      "lng": 12.616667
    },
    {
      "cityName": "Torre San Limato",
      "lat": 41.15,
      "lng": 13.833333
    },
    {
      "cityName": "Torre San Severo",
      "lat": 42.666667,
      "lng": 12.066667
    },
    {
      "cityName": "Torre Tre Ponti",
      "lat": 41.5,
      "lng": 12.933333
    },
    {
      "cityName": "Torrice",
      "lat": 41.633333,
      "lng": 13.4
    },
    {
      "cityName": "Torrimpietra",
      "lat": 41.933333,
      "lng": 12.216667
    },
    {
      "cityName": "Torrita Tiberina",
      "lat": 42.233333,
      "lng": 12.616667
    },
    {
      "cityName": "Tor Sapienza",
      "lat": 41.9,
      "lng": 12.583333
    },
    {
      "cityName": "Trafusina",
      "lat": 41.766667,
      "lng": 12.4
    },
    {
      "cityName": "Tranzi",
      "lat": 41.233333,
      "lng": 14.05
    },
    {
      "cityName": "Tre Cancelli",
      "lat": 41.483333,
      "lng": 12.716667
    },
    {
      "cityName": "Tremensuoli",
      "lat": 41.266667,
      "lng": 13.716667
    },
    {
      "cityName": "Trevignano Romano",
      "lat": 42.15,
      "lng": 12.25
    },
    {
      "cityName": "Trevi nel Lazio",
      "lat": 41.866667,
      "lng": 13.25
    },
    {
      "cityName": "Trivio",
      "lat": 41.283333,
      "lng": 13.633333
    },
    {
      "cityName": "Tufo",
      "lat": 41.266667,
      "lng": 13.766667
    },
    {
      "cityName": "Tuscania",
      "lat": 42.416667,
      "lng": 11.866667
    },
    {
      "cityName": "Vacchereccia",
      "lat": 41.616667,
      "lng": 14.083333
    },
    {
      "cityName": "Vaccina",
      "lat": 41.966667,
      "lng": 12.083333
    },
    {
      "cityName": "Vaiano",
      "lat": 42.633333,
      "lng": 12.166667
    },
    {
      "cityName": "Valentano",
      "lat": 42.566667,
      "lng": 11.816667
    },
    {
      "cityName": "Vallebona",
      "lat": 42.533333,
      "lng": 12.2
    },
    {
      "cityName": "Vallebuona",
      "lat": 42.133333,
      "lng": 12.916667
    },
    {
      "cityName": "Vallecorsa",
      "lat": 41.45,
      "lng": 13.4
    },
    {
      "cityName": "Vallecupa",
      "lat": 41.433333,
      "lng": 14.016667
    },
    {
      "cityName": "Vallefredda",
      "lat": 41.383333,
      "lng": 13.816667
    },
    {
      "cityName": "Vallepietra",
      "lat": 41.916667,
      "lng": 13.233333
    },
    {
      "cityName": "Vallerano",
      "lat": 42.383333,
      "lng": 12.266667
    },
    {
      "cityName": "Vallerotonda",
      "lat": 41.55,
      "lng": 13.916667
    },
    {
      "cityName": "Valle",
      "lat": 41.533333,
      "lng": 14.066667
    },
    {
      "cityName": "Valloni",
      "lat": 41.633333,
      "lng": 14.116667
    },
    {
      "cityName": "Valmontone",
      "lat": 41.766667,
      "lng": 12.95
    },
    {
      "cityName": "Valogno Piccolo",
      "lat": 41.25,
      "lng": 13.966667
    },
    {
      "cityName": "Valvori",
      "lat": 41.566667,
      "lng": 13.883333
    },
    {
      "cityName": "Veiano",
      "lat": 42.216667,
      "lng": 12.083333
    },
    {
      "cityName": "Velletri",
      "lat": 41.683333,
      "lng": 12.783333
    },
    {
      "cityName": "Venafro",
      "lat": 41.483333,
      "lng": 14.033333
    },
    {
      "cityName": "Vendicio",
      "lat": 41.263889,
      "lng": 13.583333
    },
    {
      "cityName": "Ventaroli",
      "lat": 41.216667,
      "lng": 13.983333
    },
    {
      "cityName": "Ventotene",
      "lat": 40.8,
      "lng": 13.433333
    },
    {
      "cityName": "Veroli",
      "lat": 41.683333,
      "lng": 13.416667
    },
    {
      "cityName": "Vetralla",
      "lat": 42.316667,
      "lng": 12.05
    },
    {
      "cityName": "Vetriolo",
      "lat": 42.6,
      "lng": 12.116667
    },
    {
      "cityName": "Vicalvi",
      "lat": 41.683333,
      "lng": 13.716667
    },
    {
      "cityName": "Viceno",
      "lat": 42.733333,
      "lng": 12.016667
    },
    {
      "cityName": "Vico nel Lazio",
      "lat": 41.766667,
      "lng": 13.333333
    },
    {
      "cityName": "Vicovaro",
      "lat": 42.016667,
      "lng": 12.9
    },
    {
      "cityName": "Vigna di Valle",
      "lat": 42.083333,
      "lng": 12.25
    },
    {
      "cityName": "Vignanello",
      "lat": 42.383333,
      "lng": 12.283333
    },
    {
      "cityName": "Villaggio del Fanciullo",
      "lat": 42.058333,
      "lng": 11.825
    },
    {
      "cityName": "Villa Latina",
      "lat": 41.616667,
      "lng": 13.833333
    },
    {
      "cityName": "Villa Santa Lucia",
      "lat": 41.516667,
      "lng": 13.766667
    },
    {
      "cityName": "Villa Santo Stefano",
      "lat": 41.516667,
      "lng": 13.316667
    },
    {
      "cityName": "Villavallelonga",
      "lat": 41.866667,
      "lng": 13.616667
    },
    {
      "cityName": "Villetta Barrea",
      "lat": 41.783333,
      "lng": 13.933333
    },
    {
      "cityName": "Viticuso",
      "lat": 41.516667,
      "lng": 13.966667
    },
    {
      "cityName": "Vitorchiano",
      "lat": 42.466667,
      "lng": 12.166667
    },
    {
      "cityName": "Zagarolo",
      "lat": 41.833333,
      "lng": 12.833333
    },
    {
      "cityName": "Zepponami",
      "lat": 42.516667,
      "lng": 12.05
    },
    {
      "cityName": "Zolforata",
      "lat": 41.7,
      "lng": 12.533333
    }
  ]
}