{
  "name": "Piemonte",
  "cities": [
    {
      "cityName": "Abbadia",
      "lat": 45.033333,
      "lng": 6.833333
    },
    {
      "cityName": "Abbadia di Stura",
      "lat": 45.1,
      "lng": 7.716667
    },
    {
      "cityName": "Acceglio",
      "lat": 44.466667,
      "lng": 7
    },
    {
      "cityName": "Agliè",
      "lat": 45.366667,
      "lng": 7.766667
    },
    {
      "cityName": "Agognate",
      "lat": 45.466667,
      "lng": 8.583333
    },
    {
      "cityName": "Aie",
      "lat": 44.783333,
      "lng": 8.433333
    },
    {
      "cityName": "Ailoche",
      "lat": 45.7,
      "lng": 8.216667
    },
    {
      "cityName": "Airasca",
      "lat": 44.916667,
      "lng": 7.483333
    },
    {
      "cityName": "Ala",
      "lat": 45.316667,
      "lng": 7.316667
    },
    {
      "cityName": "Alba",
      "lat": 44.7,
      "lng": 8.033333
    },
    {
      "cityName": "Albano",
      "lat": 45.433333,
      "lng": 8.383333
    },
    {
      "cityName": "Albaron di Sea",
      "lat": 45.333333,
      "lng": 7.183333
    },
    {
      "cityName": "Albiano d'Ivrea",
      "lat": 45.45,
      "lng": 7.95
    },
    {
      "cityName": "Albonese",
      "lat": 45.3,
      "lng": 8.7
    },
    {
      "cityName": "Alessandria",
      "lat": 44.9,
      "lng": 8.616667
    },
    {
      "cityName": "Alfiano Natta",
      "lat": 45.05,
      "lng": 8.2
    },
    {
      "cityName": "Alice Castello",
      "lat": 45.366667,
      "lng": 8.066667
    },
    {
      "cityName": "Alice Superiore",
      "lat": 45.466667,
      "lng": 7.783333
    },
    {
      "cityName": "Almese",
      "lat": 45.116667,
      "lng": 7.383333
    },
    {
      "cityName": "Alpe Tartarea",
      "lat": 44.633333,
      "lng": 7.183333
    },
    {
      "cityName": "Alpette",
      "lat": 45.416667,
      "lng": 7.583333
    },
    {
      "cityName": "Alpignano",
      "lat": 45.1,
      "lng": 7.516667
    },
    {
      "cityName": "Altessano",
      "lat": 45.133333,
      "lng": 7.65
    },
    {
      "cityName": "Alzate",
      "lat": 45.566667,
      "lng": 8.583333
    },
    {
      "cityName": "Andezeno",
      "lat": 45.033333,
      "lng": 7.866667
    },
    {
      "cityName": "Andonno",
      "lat": 44.3,
      "lng": 7.433333
    },
    {
      "cityName": "Andorno Cacciorna",
      "lat": 45.616667,
      "lng": 8.05
    },
    {
      "cityName": "Andrate",
      "lat": 45.533333,
      "lng": 7.883333
    },
    {
      "cityName": "Arborio",
      "lat": 45.5,
      "lng": 8.383333
    },
    {
      "cityName": "Argentera",
      "lat": 44.4,
      "lng": 6.95
    },
    {
      "cityName": "Argentiera",
      "lat": 44.883333,
      "lng": 6.933333
    },
    {
      "cityName": "Arignano",
      "lat": 45.033333,
      "lng": 7.9
    },
    {
      "cityName": "Arnauds",
      "lat": 45.066667,
      "lng": 6.683333
    },
    {
      "cityName": "Asti",
      "lat": 44.9,
      "lng": 8.2
    },
    {
      "cityName": "Augusta Taurinorum",
      "lat": 45.05,
      "lng": 7.666667
    },
    {
      "cityName": "Autagne",
      "lat": 44.983333,
      "lng": 6.816667
    },
    {
      "cityName": "Avigliana",
      "lat": 45.083333,
      "lng": 7.383333
    },
    {
      "cityName": "Azeglio",
      "lat": 45.416667,
      "lng": 8
    },
    {
      "cityName": "Bagni",
      "lat": 44.3,
      "lng": 7.083333
    },
    {
      "cityName": "Bagnolo",
      "lat": 44.75,
      "lng": 7.316667
    },
    {
      "cityName": "Baio Dora",
      "lat": 45.5,
      "lng": 7.833333
    },
    {
      "cityName": "Balangero",
      "lat": 45.266667,
      "lng": 7.516667
    },
    {
      "cityName": "Baldichieri",
      "lat": 44.9,
      "lng": 8.116667
    },
    {
      "cityName": "Baldissero Torinese",
      "lat": 45.066667,
      "lng": 7.816667
    },
    {
      "cityName": "Balma",
      "lat": 45.65,
      "lng": 8.016667
    },
    {
      "cityName": "Balme",
      "lat": 45.3,
      "lng": 7.216667
    },
    {
      "cityName": "Balocco",
      "lat": 45.466667,
      "lng": 8.283333
    },
    {
      "cityName": "Balzola",
      "lat": 45.183333,
      "lng": 8.4
    },
    {
      "cityName": "Baraggia",
      "lat": 45.566667,
      "lng": 8.333333
    },
    {
      "cityName": "Barbania",
      "lat": 45.283333,
      "lng": 7.633333
    },
    {
      "cityName": "Bar",
      "lat": 45.183333,
      "lng": 6.983333
    },
    {
      "cityName": "Bardonecchia",
      "lat": 45.083333,
      "lng": 6.7
    },
    {
      "cityName": "Barge",
      "lat": 44.716667,
      "lng": 7.333333
    },
    {
      "cityName": "Barriera di Stura",
      "lat": 45.083333,
      "lng": 7.716667
    },
    {
      "cityName": "Bassignana",
      "lat": 45,
      "lng": 8.733333
    },
    {
      "cityName": "Bassura",
      "lat": 44.5,
      "lng": 7.116667
    },
    {
      "cityName": "Beaulard",
      "lat": 45.05,
      "lng": 6.766667
    },
    {
      "cityName": "Beinasco",
      "lat": 45.016667,
      "lng": 7.583333
    },
    {
      "cityName": "Beinette",
      "lat": 44.366667,
      "lng": 7.65
    },
    {
      "cityName": "Bellinzago",
      "lat": 45.566667,
      "lng": 8.633333
    },
    {
      "cityName": "Bene Vagienna",
      "lat": 44.55,
      "lng": 7.833333
    },
    {
      "cityName": "Benna",
      "lat": 45.516667,
      "lng": 8.133333
    },
    {
      "cityName": "Bergerie Giulian",
      "lat": 44.833333,
      "lng": 7.066667
    },
    {
      "cityName": "Bernate Ticino",
      "lat": 45.483333,
      "lng": 8.816667
    },
    {
      "cityName": "Bersezio",
      "lat": 44.383333,
      "lng": 6.966667
    },
    {
      "cityName": "Bertoulla",
      "lat": 45.1,
      "lng": 7.75
    },
    {
      "cityName": "Berzano di San Pietro",
      "lat": 45.1,
      "lng": 7.95
    },
    {
      "cityName": "Bessé-Bas",
      "lat": 44.933333,
      "lng": 6.866667
    },
    {
      "cityName": "Biandrate",
      "lat": 45.45,
      "lng": 8.466667
    },
    {
      "cityName": "Bianzè",
      "lat": 45.3,
      "lng": 8.116667
    },
    {
      "cityName": "Biella",
      "lat": 45.566667,
      "lng": 8.05
    },
    {
      "cityName": "Bif",
      "lat": 45.116667,
      "lng": 6.95
    },
    {
      "cityName": "Biglini",
      "lat": 44.7,
      "lng": 7.983333
    },
    {
      "cityName": "Bioglio",
      "lat": 45.616667,
      "lng": 8.133333
    },
    {
      "cityName": "Biolla",
      "lat": 45.7,
      "lng": 8.183333
    },
    {
      "cityName": "Bobbio",
      "lat": 44.8,
      "lng": 7.116667
    },
    {
      "cityName": "Boffalora",
      "lat": 45.466667,
      "lng": 8.833333
    },
    {
      "cityName": "Bollengo",
      "lat": 45.466667,
      "lng": 7.95
    },
    {
      "cityName": "Borgaro Torinese",
      "lat": 45.15,
      "lng": 7.666667
    },
    {
      "cityName": "Borgata Sestriere",
      "lat": 44.966667,
      "lng": 6.883333
    },
    {
      "cityName": "Borgiallo",
      "lat": 45.416667,
      "lng": 7.666667
    },
    {
      "cityName": "Borgo d'Ale",
      "lat": 45.35,
      "lng": 8.05
    },
    {
      "cityName": "Borgofranco",
      "lat": 45.5,
      "lng": 7.85
    },
    {
      "cityName": "Borgo Lavezzaro",
      "lat": 45.316667,
      "lng": 8.7
    },
    {
      "cityName": "Borgomasino",
      "lat": 45.366667,
      "lng": 7.983333
    },
    {
      "cityName": "Borgone Susa",
      "lat": 45.133333,
      "lng": 7.233333
    },
    {
      "cityName": "Borgo Po",
      "lat": 45.05,
      "lng": 7.7
    },
    {
      "cityName": "Borgoratto Alessandrino",
      "lat": 44.833333,
      "lng": 8.533333
    },
    {
      "cityName": "Borgo San Dalmazzo",
      "lat": 44.333333,
      "lng": 7.5
    },
    {
      "cityName": "Borgo San Martino",
      "lat": 45.083333,
      "lng": 8.516667
    },
    {
      "cityName": "Borgosesia",
      "lat": 45.716667,
      "lng": 8.266667
    },
    {
      "cityName": "Borgo Vercelli",
      "lat": 45.35,
      "lng": 8.466667
    },
    {
      "cityName": "Borriana",
      "lat": 45.5,
      "lng": 8.033333
    },
    {
      "cityName": "Bosco Marengo",
      "lat": 44.816667,
      "lng": 8.683333
    },
    {
      "cityName": "Bosconero",
      "lat": 45.266667,
      "lng": 7.766667
    },
    {
      "cityName": "Bousson",
      "lat": 44.933333,
      "lng": 6.816667
    },
    {
      "cityName": "Bovasenda",
      "lat": 45.533333,
      "lng": 8.316667
    },
    {
      "cityName": "Boves",
      "lat": 44.316667,
      "lng": 7.55
    },
    {
      "cityName": "Bozzole",
      "lat": 45.066667,
      "lng": 8.6
    },
    {
      "cityName": "Bra",
      "lat": 44.7,
      "lng": 7.85
    },
    {
      "cityName": "Brandizzo",
      "lat": 45.183333,
      "lng": 7.85
    },
    {
      "cityName": "Breme",
      "lat": 45.133333,
      "lng": 8.616667
    },
    {
      "cityName": "Breolungi",
      "lat": 44.433333,
      "lng": 7.8
    },
    {
      "cityName": "Bric Gallo",
      "lat": 44.883333,
      "lng": 8.05
    },
    {
      "cityName": "Bricherasio",
      "lat": 44.816667,
      "lng": 7.3
    },
    {
      "cityName": "Brieis",
      "lat": 44.466667,
      "lng": 7.1
    },
    {
      "cityName": "Brirus",
      "lat": 44.516667,
      "lng": 7.333333
    },
    {
      "cityName": "Brossasco",
      "lat": 44.566667,
      "lng": 7.35
    },
    {
      "cityName": "Brosso",
      "lat": 45.5,
      "lng": 7.8
    },
    {
      "cityName": "Bruino",
      "lat": 45.016667,
      "lng": 7.466667
    },
    {
      "cityName": "Brusà de la Merle",
      "lat": 44.916667,
      "lng": 6.883333
    },
    {
      "cityName": "Brusà-del Plan",
      "lat": 44.9,
      "lng": 6.9
    },
    {
      "cityName": "Brusasco",
      "lat": 45.15,
      "lng": 8.066667
    },
    {
      "cityName": "Brusnengo",
      "lat": 45.6,
      "lng": 8.25
    },
    {
      "cityName": "Buriasco",
      "lat": 44.866667,
      "lng": 7.416667
    },
    {
      "cityName": "Burolo",
      "lat": 45.483333,
      "lng": 7.933333
    },
    {
      "cityName": "Buronzo",
      "lat": 45.483333,
      "lng": 8.266667
    },
    {
      "cityName": "Busano",
      "lat": 45.333333,
      "lng": 7.65
    },
    {
      "cityName": "Busca",
      "lat": 44.516667,
      "lng": 7.483333
    },
    {
      "cityName": "Buscate",
      "lat": 45.55,
      "lng": 8.816667
    },
    {
      "cityName": "Busonengo",
      "lat": 45.4,
      "lng": 8.316667
    },
    {
      "cityName": "Bussoleno",
      "lat": 45.133333,
      "lng": 7.15
    },
    {
      "cityName": "Buttigliera Alta",
      "lat": 45.066667,
      "lng": 7.433333
    },
    {
      "cityName": "Cainpriond",
      "lat": 45.1,
      "lng": 6.95
    },
    {
      "cityName": "Calamandrana",
      "lat": 44.733333,
      "lng": 8.333333
    },
    {
      "cityName": "Calcini",
      "lat": 44.933333,
      "lng": 8.366667
    },
    {
      "cityName": "Calliano",
      "lat": 45,
      "lng": 8.25
    },
    {
      "cityName": "Callieri",
      "lat": 44.266667,
      "lng": 7.05
    },
    {
      "cityName": "Caltignaga",
      "lat": 45.516667,
      "lng": 8.583333
    },
    {
      "cityName": "Caluso",
      "lat": 45.3,
      "lng": 7.883333
    },
    {
      "cityName": "Cambiano",
      "lat": 44.966667,
      "lng": 7.783333
    },
    {
      "cityName": "Camburzano",
      "lat": 45.533333,
      "lng": 8
    },
    {
      "cityName": "Cameriano",
      "lat": 45.4,
      "lng": 8.533333
    },
    {
      "cityName": "Cameri",
      "lat": 45.5,
      "lng": 8.65
    },
    {
      "cityName": "Camino",
      "lat": 45.166667,
      "lng": 8.283333
    },
    {
      "cityName": "Campana",
      "lat": 44.45,
      "lng": 7.416667
    },
    {
      "cityName": "Campertogno",
      "lat": 45.8,
      "lng": 8.016667
    },
    {
      "cityName": "Campiglia Cervo",
      "lat": 45.666667,
      "lng": 8
    },
    {
      "cityName": "Campo Molino",
      "lat": 44.416667,
      "lng": 7.216667
    },
    {
      "cityName": "Canale",
      "lat": 44.8,
      "lng": 8
    },
    {
      "cityName": "Canapile",
      "lat": 44.75,
      "lng": 7.7
    },
    {
      "cityName": "Candelo",
      "lat": 45.55,
      "lng": 8.116667
    },
    {
      "cityName": "Candia Canavese",
      "lat": 45.333333,
      "lng": 7.883333
    },
    {
      "cityName": "Candia",
      "lat": 45.183333,
      "lng": 8.6
    },
    {
      "cityName": "Candiolo",
      "lat": 44.95,
      "lng": 7.6
    },
    {
      "cityName": "Canelli",
      "lat": 44.716667,
      "lng": 8.283333
    },
    {
      "cityName": "Canischio",
      "lat": 45.366667,
      "lng": 7.6
    },
    {
      "cityName": "Canove",
      "lat": 44.783333,
      "lng": 8.1
    },
    {
      "cityName": "Cantalupo",
      "lat": 44.866667,
      "lng": 8.55
    },
    {
      "cityName": "Cantoira",
      "lat": 45.35,
      "lng": 7.383333
    },
    {
      "cityName": "Caprie",
      "lat": 45.116667,
      "lng": 7.333333
    },
    {
      "cityName": "Caraglio",
      "lat": 44.416667,
      "lng": 7.433333
    },
    {
      "cityName": "Caravino",
      "lat": 45.4,
      "lng": 7.95
    },
    {
      "cityName": "Carboneri",
      "lat": 45.05,
      "lng": 8.066667
    },
    {
      "cityName": "Cardona",
      "lat": 45.05,
      "lng": 8.183333
    },
    {
      "cityName": "Carema",
      "lat": 45.583333,
      "lng": 7.816667
    },
    {
      "cityName": "Caresana",
      "lat": 45.216667,
      "lng": 8.5
    },
    {
      "cityName": "Carignano",
      "lat": 44.916667,
      "lng": 7.666667
    },
    {
      "cityName": "Carisio",
      "lat": 45.416667,
      "lng": 8.2
    },
    {
      "cityName": "Carmagnola",
      "lat": 44.85,
      "lng": 7.716667
    },
    {
      "cityName": "Carpignano",
      "lat": 45.533333,
      "lng": 8.416667
    },
    {
      "cityName": "Carrone",
      "lat": 45.35,
      "lng": 7.9
    },
    {
      "cityName": "Carrù",
      "lat": 44.483333,
      "lng": 7.866667
    },
    {
      "cityName": "Cartignano",
      "lat": 44.483333,
      "lng": 7.283333
    },
    {
      "cityName": "Casabianca",
      "lat": 45.216667,
      "lng": 7.933333
    },
    {
      "cityName": "Casa Fontana Cervo",
      "lat": 44.916667,
      "lng": 7.783333
    },
    {
      "cityName": "Casa Furno",
      "lat": 44.616667,
      "lng": 7.833333
    },
    {
      "cityName": "Casalbagliano",
      "lat": 44.9,
      "lng": 8.55
    },
    {
      "cityName": "Casalborgone",
      "lat": 45.116667,
      "lng": 7.933333
    },
    {
      "cityName": "Casale",
      "lat": 45.133333,
      "lng": 8.45
    },
    {
      "cityName": "Casaleggio Novara",
      "lat": 45.483333,
      "lng": 8.483333
    },
    {
      "cityName": "Casalgrasso",
      "lat": 44.816667,
      "lng": 7.633333
    },
    {
      "cityName": "Casalino",
      "lat": 45.35,
      "lng": 8.516667
    },
    {
      "cityName": "Casalvolone",
      "lat": 45.4,
      "lng": 8.466667
    },
    {
      "cityName": "Casanova",
      "lat": 44.866667,
      "lng": 7.783333
    },
    {
      "cityName": "Casanova Elvo",
      "lat": 45.4,
      "lng": 8.283333
    },
    {
      "cityName": "Casa Robella Bassa",
      "lat": 44.783333,
      "lng": 7.6
    },
    {
      "cityName": "Casa San Quirico",
      "lat": 44.833333,
      "lng": 8.733333
    },
    {
      "cityName": "Casavecchie",
      "lat": 44.933333,
      "lng": 7.45
    },
    {
      "cityName": "Cascina Grossa",
      "lat": 45.016667,
      "lng": 8.783333
    },
    {
      "cityName": "Cascina Motta",
      "lat": 44.816667,
      "lng": 7.55
    },
    {
      "cityName": "Cascinette",
      "lat": 45.483333,
      "lng": 7.9
    },
    {
      "cityName": "Case Arfel",
      "lat": 44.25,
      "lng": 7.783333
    },
    {
      "cityName": "Case Bruciate",
      "lat": 44.9,
      "lng": 8.066667
    },
    {
      "cityName": "Caselette",
      "lat": 45.1,
      "lng": 7.483333
    },
    {
      "cityName": "Caselle",
      "lat": 45.166667,
      "lng": 7.65
    },
    {
      "cityName": "Casetti",
      "lat": 45.433333,
      "lng": 7.433333
    },
    {
      "cityName": "Casorzo",
      "lat": 45.016667,
      "lng": 8.333333
    },
    {
      "cityName": "Cassine",
      "lat": 44.75,
      "lng": 8.516667
    },
    {
      "cityName": "Cassolnovo",
      "lat": 45.366667,
      "lng": 8.8
    },
    {
      "cityName": "Castagneto Po",
      "lat": 45.166667,
      "lng": 7.883333
    },
    {
      "cityName": "Castagnito",
      "lat": 44.75,
      "lng": 8.033333
    },
    {
      "cityName": "Castagnole",
      "lat": 44.75,
      "lng": 8.133333
    },
    {
      "cityName": "Castagnole Monferrato",
      "lat": 44.966667,
      "lng": 8.3
    },
    {
      "cityName": "Castano",
      "lat": 45.55,
      "lng": 8.783333
    },
    {
      "cityName": "Casteldelfino",
      "lat": 44.583333,
      "lng": 7.066667
    },
    {
      "cityName": "Castell'Alfero",
      "lat": 44.983333,
      "lng": 8.216667
    },
    {
      "cityName": "Castellamonte",
      "lat": 45.383333,
      "lng": 7.7
    },
    {
      "cityName": "Castellani",
      "lat": 44.8,
      "lng": 7.35
    },
    {
      "cityName": "Castellazzo Bormida",
      "lat": 44.85,
      "lng": 8.566667
    },
    {
      "cityName": "Castellazzo Novarese",
      "lat": 45.516667,
      "lng": 8.483333
    },
    {
      "cityName": "Castellengo",
      "lat": 45.533333,
      "lng": 8.183333
    },
    {
      "cityName": "Castelletto",
      "lat": 45.583333,
      "lng": 8.583333
    },
    {
      "cityName": "Castello Annone",
      "lat": 44.883333,
      "lng": 8.316667
    },
    {
      "cityName": "Castello",
      "lat": 44.616667,
      "lng": 7.05
    },
    {
      "cityName": "Castelmagno",
      "lat": 44.4,
      "lng": 7.216667
    },
    {
      "cityName": "Castelnovetto",
      "lat": 45.25,
      "lng": 8.616667
    },
    {
      "cityName": "Castelnuova",
      "lat": 45.05,
      "lng": 7.966667
    },
    {
      "cityName": "Castelnuovo Bormida",
      "lat": 44.75,
      "lng": 8.55
    },
    {
      "cityName": "Castelnuovo",
      "lat": 44.783333,
      "lng": 8.283333
    },
    {
      "cityName": "Castelnuovo Nigra",
      "lat": 45.433333,
      "lng": 7.683333
    },
    {
      "cityName": "Castelrosso",
      "lat": 45.2,
      "lng": 7.933333
    },
    {
      "cityName": "Castel San Barnaba",
      "lat": 44.5,
      "lng": 7.5
    },
    {
      "cityName": "Cavaglià",
      "lat": 45.4,
      "lng": 8.083333
    },
    {
      "cityName": "Cavaliggi",
      "lat": 44.416667,
      "lng": 7.35
    },
    {
      "cityName": "Cavallermaggiore",
      "lat": 44.716667,
      "lng": 7.683333
    },
    {
      "cityName": "Cavallirio",
      "lat": 45.666667,
      "lng": 8.4
    },
    {
      "cityName": "Cavallo",
      "lat": 44.833333,
      "lng": 7.9
    },
    {
      "cityName": "Cavour",
      "lat": 44.783333,
      "lng": 7.366667
    },
    {
      "cityName": "Centallo",
      "lat": 44.5,
      "lng": 7.583333
    },
    {
      "cityName": "Cerano",
      "lat": 45.416667,
      "lng": 8.783333
    },
    {
      "cityName": "Cere",
      "lat": 45.316667,
      "lng": 7.383333
    },
    {
      "cityName": "Cereseto",
      "lat": 45.083333,
      "lng": 8.316667
    },
    {
      "cityName": "Ceriolo",
      "lat": 44.483333,
      "lng": 7.7
    },
    {
      "cityName": "Ceronda",
      "lat": 45.1,
      "lng": 7.65
    },
    {
      "cityName": "Cerrione",
      "lat": 45.466667,
      "lng": 8.083333
    },
    {
      "cityName": "Certosa",
      "lat": 44.233333,
      "lng": 7.666667
    },
    {
      "cityName": "Cervere",
      "lat": 44.633333,
      "lng": 7.783333
    },
    {
      "cityName": "Cesana",
      "lat": 44.95,
      "lng": 6.783333
    },
    {
      "cityName": "Cesani",
      "lat": 44.516667,
      "lng": 7.066667
    },
    {
      "cityName": "Chaband",
      "lat": 44.9,
      "lng": 6.816667
    },
    {
      "cityName": "Champlas du Col",
      "lat": 44.933333,
      "lng": 6.85
    },
    {
      "cityName": "Champlas Janoier",
      "lat": 44.95,
      "lng": 6.833333
    },
    {
      "cityName": "Champlas Segnin",
      "lat": 44.95,
      "lng": 6.816667
    },
    {
      "cityName": "Champ Quartier",
      "lat": 44.916667,
      "lng": 6.833333
    },
    {
      "cityName": "Chasteiran",
      "lat": 44.983333,
      "lng": 7.1
    },
    {
      "cityName": "Chàtean",
      "lat": 45.033333,
      "lng": 6.766667
    },
    {
      "cityName": "Cheiron",
      "lat": 44.666667,
      "lng": 6.966667
    },
    {
      "cityName": "Cherasco",
      "lat": 44.65,
      "lng": 7.85
    },
    {
      "cityName": "Chialamberto",
      "lat": 45.366667,
      "lng": 7.35
    },
    {
      "cityName": "Chialvetta",
      "lat": 44.45,
      "lng": 7
    },
    {
      "cityName": "Chianale",
      "lat": 44.65,
      "lng": 6.983333
    },
    {
      "cityName": "Chiappera",
      "lat": 44.483333,
      "lng": 6.916667
    },
    {
      "cityName": "Chiappi",
      "lat": 44.4,
      "lng": 7.166667
    },
    {
      "cityName": "Chiara",
      "lat": 45.516667,
      "lng": 7.716667
    },
    {
      "cityName": "Chiaronto",
      "lat": 44.583333,
      "lng": 7.25
    },
    {
      "cityName": "Chiavazza",
      "lat": 45.583333,
      "lng": 8.066667
    },
    {
      "cityName": "Chieri",
      "lat": 45.016667,
      "lng": 7.816667
    },
    {
      "cityName": "Chiomonte",
      "lat": 45.116667,
      "lng": 6.983333
    },
    {
      "cityName": "Chiot la Setta",
      "lat": 44.766667,
      "lng": 7.133333
    },
    {
      "cityName": "Chiusa di Pesio",
      "lat": 44.316667,
      "lng": 7.666667
    },
    {
      "cityName": "Chivasso",
      "lat": 45.183333,
      "lng": 7.883333
    },
    {
      "cityName": "Ciampiano",
      "lat": 44.966667,
      "lng": 7.2
    },
    {
      "cityName": "Cigliano",
      "lat": 45.3,
      "lng": 8.016667
    },
    {
      "cityName": "Cilavegna",
      "lat": 45.316667,
      "lng": 8.733333
    },
    {
      "cityName": "Cintano",
      "lat": 45.433333,
      "lng": 7.7
    },
    {
      "cityName": "Cinzano",
      "lat": 45.1,
      "lng": 7.933333
    },
    {
      "cityName": "Ciriè",
      "lat": 45.233333,
      "lng": 7.6
    },
    {
      "cityName": "Cisterna d'Asti",
      "lat": 44.833333,
      "lng": 8
    },
    {
      "cityName": "Claviere",
      "lat": 44.933333,
      "lng": 6.75
    },
    {
      "cityName": "Clotes",
      "lat": 44.883333,
      "lng": 6.916667
    },
    {
      "cityName": "Coazze",
      "lat": 45.05,
      "lng": 7.3
    },
    {
      "cityName": "Cocconato",
      "lat": 45.083333,
      "lng": 8.033333
    },
    {
      "cityName": "Codovilla",
      "lat": 44.4,
      "lng": 7.933333
    },
    {
      "cityName": "Coggia",
      "lat": 45.166667,
      "lng": 8.133333
    },
    {
      "cityName": "Coggiola",
      "lat": 45.683333,
      "lng": 8.183333
    },
    {
      "cityName": "Colcavagno",
      "lat": 45.05,
      "lng": 8.116667
    },
    {
      "cityName": "Collegno",
      "lat": 45.083333,
      "lng": 7.566667
    },
    {
      "cityName": "Colleretto Parella",
      "lat": 45.45,
      "lng": 7.8
    },
    {
      "cityName": "Colle Sestriere",
      "lat": 44.95,
      "lng": 6.883333
    },
    {
      "cityName": "Collobiano",
      "lat": 45.4,
      "lng": 8.35
    },
    {
      "cityName": "Colombari",
      "lat": 45.216667,
      "lng": 7.583333
    },
    {
      "cityName": "Condove",
      "lat": 45.116667,
      "lng": 7.3
    },
    {
      "cityName": "Confienza",
      "lat": 45.333333,
      "lng": 8.55
    },
    {
      "cityName": "Conialo",
      "lat": 45.15,
      "lng": 8.366667
    },
    {
      "cityName": "Coni",
      "lat": 44.383333,
      "lng": 7.533333
    },
    {
      "cityName": "Corio",
      "lat": 45.316667,
      "lng": 7.533333
    },
    {
      "cityName": "Cortandone",
      "lat": 44.966667,
      "lng": 8.066667
    },
    {
      "cityName": "Cortanze",
      "lat": 45.016667,
      "lng": 8.083333
    },
    {
      "cityName": "Cortazzone",
      "lat": 44.983333,
      "lng": 8.066667
    },
    {
      "cityName": "Cortiglione",
      "lat": 44.816667,
      "lng": 8.366667
    },
    {
      "cityName": "Cossato",
      "lat": 45.566667,
      "lng": 8.166667
    },
    {
      "cityName": "Cossombrato",
      "lat": 45,
      "lng": 8.133333
    },
    {
      "cityName": "Costanzana",
      "lat": 45.233333,
      "lng": 8.366667
    },
    {
      "cityName": "Costigliole",
      "lat": 44.783333,
      "lng": 8.183333
    },
    {
      "cityName": "Costigliole Saluzzo",
      "lat": 44.566667,
      "lng": 7.483333
    },
    {
      "cityName": "Cozzo",
      "lat": 45.2,
      "lng": 8.616667
    },
    {
      "cityName": "Crescentino",
      "lat": 45.183333,
      "lng": 8.1
    },
    {
      "cityName": "Cressa",
      "lat": 45.65,
      "lng": 8.5
    },
    {
      "cityName": "Crevacuore",
      "lat": 45.683333,
      "lng": 8.25
    },
    {
      "cityName": "Crissolo",
      "lat": 44.7,
      "lng": 7.15
    },
    {
      "cityName": "Crocetta",
      "lat": 44.916667,
      "lng": 8.016667
    },
    {
      "cityName": "Crosa",
      "lat": 45.6,
      "lng": 8.183333
    },
    {
      "cityName": "Crotte",
      "lat": 45.383333,
      "lng": 7.9
    },
    {
      "cityName": "Crova",
      "lat": 45.333333,
      "lng": 8.2
    },
    {
      "cityName": "Cuceglio",
      "lat": 45.366667,
      "lng": 7.816667
    },
    {
      "cityName": "Cuggiono",
      "lat": 45.516667,
      "lng": 8.816667
    },
    {
      "cityName": "Cumiana",
      "lat": 44.983333,
      "lng": 7.366667
    },
    {
      "cityName": "Cunico",
      "lat": 45.033333,
      "lng": 8.1
    },
    {
      "cityName": "Cuorgnè",
      "lat": 45.383333,
      "lng": 7.65
    },
    {
      "cityName": "Del Agnello",
      "lat": 44.666667,
      "lng": 6.983333
    },
    {
      "cityName": "Demonte",
      "lat": 44.316667,
      "lng": 7.283333
    },
    {
      "cityName": "Desana",
      "lat": 45.266667,
      "lng": 8.35
    },
    {
      "cityName": "Desertes",
      "lat": 44.983333,
      "lng": 6.783333
    },
    {
      "cityName": "Deveys",
      "lat": 45.1,
      "lng": 6.916667
    },
    {
      "cityName": "Diano d'Alba",
      "lat": 44.65,
      "lng": 8.016667
    },
    {
      "cityName": "Di Mezzo",
      "lat": 44.483333,
      "lng": 6.983333
    },
    {
      "cityName": "Divignano",
      "lat": 45.65,
      "lng": 8.6
    },
    {
      "cityName": "Dogana",
      "lat": 45.166667,
      "lng": 7
    },
    {
      "cityName": "Dogliani",
      "lat": 44.533333,
      "lng": 7.933333
    },
    {
      "cityName": "Droneretto",
      "lat": 44.533333,
      "lng": 7.216667
    },
    {
      "cityName": "Dronero",
      "lat": 44.466667,
      "lng": 7.366667
    },
    {
      "cityName": "Druento",
      "lat": 45.133333,
      "lng": 7.583333
    },
    {
      "cityName": "Dusino",
      "lat": 44.933333,
      "lng": 7.966667
    },
    {
      "cityName": "Eclause",
      "lat": 45.083333,
      "lng": 6.9
    },
    {
      "cityName": "Elva",
      "lat": 44.533333,
      "lng": 7.083333
    },
    {
      "cityName": "Entracque",
      "lat": 44.233333,
      "lng": 7.4
    },
    {
      "cityName": "Envie",
      "lat": 44.683333,
      "lng": 7.366667
    },
    {
      "cityName": "Esille",
      "lat": 45.1,
      "lng": 6.933333
    },
    {
      "cityName": "Fabiano",
      "lat": 45.133333,
      "lng": 8.283333
    },
    {
      "cityName": "Falchera",
      "lat": 45.116667,
      "lng": 7.7
    },
    {
      "cityName": "Fara",
      "lat": 45.55,
      "lng": 8.45
    },
    {
      "cityName": "Favaro",
      "lat": 45.6,
      "lng": 8
    },
    {
      "cityName": "Favria",
      "lat": 45.333333,
      "lng": 7.683333
    },
    {
      "cityName": "Feletto",
      "lat": 45.3,
      "lng": 7.75
    },
    {
      "cityName": "Felizzano",
      "lat": 44.9,
      "lng": 8.433333
    },
    {
      "cityName": "Fenestrelle",
      "lat": 45.033333,
      "lng": 7.05
    },
    {
      "cityName": "Ferrera Cenisio",
      "lat": 45.2,
      "lng": 6.983333
    },
    {
      "cityName": "Ferrera",
      "lat": 44.35,
      "lng": 7.316667
    },
    {
      "cityName": "Ferrero",
      "lat": 45.45,
      "lng": 7.883333
    },
    {
      "cityName": "Fiano",
      "lat": 45.216667,
      "lng": 7.516667
    },
    {
      "cityName": "Foglizzo",
      "lat": 45.266667,
      "lng": 7.816667
    },
    {
      "cityName": "Fontane",
      "lat": 44.233333,
      "lng": 7.85
    },
    {
      "cityName": "Fontaneto d'Agogna",
      "lat": 45.633333,
      "lng": 8.483333
    },
    {
      "cityName": "Fontaneto",
      "lat": 45.2,
      "lng": 8.183333
    },
    {
      "cityName": "Fontanile",
      "lat": 44.75,
      "lng": 8.416667
    },
    {
      "cityName": "Foresto",
      "lat": 44.733333,
      "lng": 7.733333
    },
    {
      "cityName": "Formigliana",
      "lat": 45.433333,
      "lng": 8.283333
    },
    {
      "cityName": "Fornetti",
      "lat": 45.433333,
      "lng": 7.383333
    },
    {
      "cityName": "Forno Alpi Graie",
      "lat": 45.366667,
      "lng": 7.216667
    },
    {
      "cityName": "Forno Canavese",
      "lat": 45.35,
      "lng": 7.583333
    },
    {
      "cityName": "Fossano",
      "lat": 44.55,
      "lng": 7.716667
    },
    {
      "cityName": "Frabosa Soprana",
      "lat": 44.283333,
      "lng": 7.8
    },
    {
      "cityName": "Fraisse",
      "lat": 45.016667,
      "lng": 6.983333
    },
    {
      "cityName": "Frassinello",
      "lat": 45.033333,
      "lng": 8.383333
    },
    {
      "cityName": "Frassineto",
      "lat": 45.433333,
      "lng": 7.6
    },
    {
      "cityName": "Frassineto Po",
      "lat": 45.133333,
      "lng": 8.533333
    },
    {
      "cityName": "Frassino",
      "lat": 44.566667,
      "lng": 7.266667
    },
    {
      "cityName": "Front",
      "lat": 45.283333,
      "lng": 7.666667
    },
    {
      "cityName": "Frugarolo",
      "lat": 44.833333,
      "lng": 8.683333
    },
    {
      "cityName": "Fubine",
      "lat": 44.966667,
      "lng": 8.433333
    },
    {
      "cityName": "Gabiano",
      "lat": 45.15,
      "lng": 8.2
    },
    {
      "cityName": "Gad",
      "lat": 45.033333,
      "lng": 6.85
    },
    {
      "cityName": "Gaglianico",
      "lat": 45.533333,
      "lng": 8.066667
    },
    {
      "cityName": "Gaiola",
      "lat": 44.333333,
      "lng": 7.4
    },
    {
      "cityName": "Gallareto",
      "lat": 45.05,
      "lng": 8.033333
    },
    {
      "cityName": "Galliate",
      "lat": 45.483333,
      "lng": 8.7
    },
    {
      "cityName": "Gamalero",
      "lat": 44.816667,
      "lng": 8.533333
    },
    {
      "cityName": "Gambarana",
      "lat": 45.033333,
      "lng": 8.716667
    },
    {
      "cityName": "Gambasca",
      "lat": 44.633333,
      "lng": 7.35
    },
    {
      "cityName": "Gássino",
      "lat": 45.133333,
      "lng": 7.816667
    },
    {
      "cityName": "Gattinara",
      "lat": 45.616667,
      "lng": 8.366667
    },
    {
      "cityName": "Genola",
      "lat": 44.583333,
      "lng": 7.65
    },
    {
      "cityName": "Gerbolina",
      "lat": 44.683333,
      "lng": 7.533333
    },
    {
      "cityName": "Gerinagnano",
      "lat": 45.25,
      "lng": 7.466667
    },
    {
      "cityName": "Ghemme",
      "lat": 45.6,
      "lng": 8.416667
    },
    {
      "cityName": "Ghigo",
      "lat": 44.883333,
      "lng": 7.05
    },
    {
      "cityName": "Ghislarengo",
      "lat": 45.533333,
      "lng": 8.383333
    },
    {
      "cityName": "Gianona",
      "lat": 45.55,
      "lng": 8.65
    },
    {
      "cityName": "Giarole",
      "lat": 45.05,
      "lng": 8.566667
    },
    {
      "cityName": "Gias della Casa",
      "lat": 44.166667,
      "lng": 7.266667
    },
    {
      "cityName": "Gias delle Lose",
      "lat": 44.383333,
      "lng": 6.916667
    },
    {
      "cityName": "Giaveno",
      "lat": 45.033333,
      "lng": 7.35
    },
    {
      "cityName": "Gilba Superiore",
      "lat": 44.6,
      "lng": 7.283333
    },
    {
      "cityName": "Gionzana",
      "lat": 45.433333,
      "lng": 8.533333
    },
    {
      "cityName": "Giraudo",
      "lat": 44.3,
      "lng": 7.45
    },
    {
      "cityName": "Gorgia",
      "lat": 44.883333,
      "lng": 6.95
    },
    {
      "cityName": "Gouthier",
      "lat": 45.066667,
      "lng": 6.783333
    },
    {
      "cityName": "Graglia",
      "lat": 45.55,
      "lng": 7.983333
    },
    {
      "cityName": "Grande Suppas",
      "lat": 45.066667,
      "lng": 6.75
    },
    {
      "cityName": "Grange Cassin",
      "lat": 44.433333,
      "lng": 6.983333
    },
    {
      "cityName": "Grange Cautun",
      "lat": 44.5,
      "lng": 6.966667
    },
    {
      "cityName": "Grange Cruset",
      "lat": 44.566667,
      "lng": 6.95
    },
    {
      "cityName": "Grange della Rho",
      "lat": 45.083333,
      "lng": 6.683333
    },
    {
      "cityName": "Grange Giacomarda",
      "lat": 44.516667,
      "lng": 6.966667
    },
    {
      "cityName": "Grange Pieccia",
      "lat": 44.416667,
      "lng": 7.1
    },
    {
      "cityName": "Grange Pie sotto Bianca",
      "lat": 44.65,
      "lng": 6.966667
    },
    {
      "cityName": "Grange Rosano",
      "lat": 44.45,
      "lng": 6.966667
    },
    {
      "cityName": "Grange Sarmicel",
      "lat": 44.583333,
      "lng": 6.95
    },
    {
      "cityName": "Grange Verzio",
      "lat": 44.5,
      "lng": 6.983333
    },
    {
      "cityName": "Grangia Rosano",
      "lat": 44.416667,
      "lng": 6.966667
    },
    {
      "cityName": "Granozzo con Monticello",
      "lat": 45.366667,
      "lng": 8.583333
    },
    {
      "cityName": "Gravellino",
      "lat": 45.4,
      "lng": 7.933333
    },
    {
      "cityName": "Gravellona",
      "lat": 45.333333,
      "lng": 8.766667
    },
    {
      "cityName": "Grazzano Badoglio",
      "lat": 45.05,
      "lng": 8.316667
    },
    {
      "cityName": "Greggio",
      "lat": 45.45,
      "lng": 8.383333
    },
    {
      "cityName": "Grignasco",
      "lat": 45.683333,
      "lng": 8.333333
    },
    {
      "cityName": "Groscavallo",
      "lat": 45.366667,
      "lng": 7.25
    },
    {
      "cityName": "Grugliasco",
      "lat": 45.066667,
      "lng": 7.583333
    },
    {
      "cityName": "Guazzora",
      "lat": 45.016667,
      "lng": 8.85
    },
    {
      "cityName": "Il Trucco",
      "lat": 45.15,
      "lng": 6.983333
    },
    {
      "cityName": "Ingria",
      "lat": 45.466667,
      "lng": 7.566667
    },
    {
      "cityName": "Inveruno",
      "lat": 45.516667,
      "lng": 8.85
    },
    {
      "cityName": "Ivrea",
      "lat": 45.466667,
      "lng": 7.866667
    },
    {
      "cityName": "Joussand",
      "lat": 44.983333,
      "lng": 6.916667
    },
    {
      "cityName": "Lachelle",
      "lat": 45.266667,
      "lng": 8.25
    },
    {
      "cityName": "La Loggia",
      "lat": 44.95,
      "lng": 7.666667
    },
    {
      "cityName": "La Miniera",
      "lat": 44.366667,
      "lng": 7.266667
    },
    {
      "cityName": "La Morra",
      "lat": 44.633333,
      "lng": 7.933333
    },
    {
      "cityName": "Lamporo",
      "lat": 45.233333,
      "lng": 8.1
    },
    {
      "cityName": "Landiona",
      "lat": 45.5,
      "lng": 8.416667
    },
    {
      "cityName": "L'Angolo",
      "lat": 44.95,
      "lng": 6.966667
    },
    {
      "cityName": "Langosco",
      "lat": 45.216667,
      "lng": 8.566667
    },
    {
      "cityName": "Lanzo Torinese",
      "lat": 45.266667,
      "lng": 7.466667
    },
    {
      "cityName": "Larizzate",
      "lat": 45.3,
      "lng": 8.383333
    },
    {
      "cityName": "Lauriano",
      "lat": 45.15,
      "lng": 7.983333
    },
    {
      "cityName": "Laval",
      "lat": 44.966667,
      "lng": 6.916667
    },
    {
      "cityName": "Leinì",
      "lat": 45.183333,
      "lng": 7.716667
    },
    {
      "cityName": "Lemie",
      "lat": 45.233333,
      "lng": 7.283333
    },
    {
      "cityName": "Lenta",
      "lat": 45.55,
      "lng": 8.383333
    },
    {
      "cityName": "L'Eremo",
      "lat": 45.05,
      "lng": 7.716667
    },
    {
      "cityName": "Leri",
      "lat": 45.25,
      "lng": 8.2
    },
    {
      "cityName": "Le Rocchette",
      "lat": 44.35,
      "lng": 7.833333
    },
    {
      "cityName": "Le Salse",
      "lat": 44.116667,
      "lng": 7.733333
    },
    {
      "cityName": "Les Granges",
      "lat": 45.1,
      "lng": 6.683333
    },
    {
      "cityName": "Lessolo",
      "lat": 45.483333,
      "lng": 7.816667
    },
    {
      "cityName": "Lessona",
      "lat": 45.583333,
      "lng": 8.2
    },
    {
      "cityName": "Levaldigi",
      "lat": 44.55,
      "lng": 7.616667
    },
    {
      "cityName": "Levata",
      "lat": 44.4,
      "lng": 7.316667
    },
    {
      "cityName": "Lignana",
      "lat": 45.283333,
      "lng": 8.35
    },
    {
      "cityName": "Lilliana",
      "lat": 45.633333,
      "lng": 7.85
    },
    {
      "cityName": "Limone Piemonte",
      "lat": 44.2,
      "lng": 7.566667
    },
    {
      "cityName": "Lingotto",
      "lat": 45.033333,
      "lng": 7.65
    },
    {
      "cityName": "Livorno Ferraris",
      "lat": 45.283333,
      "lng": 8.083333
    },
    {
      "cityName": "Locana",
      "lat": 45.416667,
      "lng": 7.45
    },
    {
      "cityName": "Lombardore",
      "lat": 45.233333,
      "lng": 7.733333
    },
    {
      "cityName": "Lonate Pozzolo",
      "lat": 45.6,
      "lng": 8.75
    },
    {
      "cityName": "Lottulo",
      "lat": 44.5,
      "lng": 7.216667
    },
    {
      "cityName": "Lozzolo",
      "lat": 45.616667,
      "lng": 8.316667
    },
    {
      "cityName": "Lu",
      "lat": 45,
      "lng": 8.483333
    },
    {
      "cityName": "Lumellogno",
      "lat": 45.416667,
      "lng": 8.583333
    },
    {
      "cityName": "Lurisia",
      "lat": 44.3,
      "lng": 7.7
    },
    {
      "cityName": "Luserna",
      "lat": 44.8,
      "lng": 7.25
    },
    {
      "cityName": "Madonna della Losa",
      "lat": 45.116667,
      "lng": 7.033333
    },
    {
      "cityName": "Madonna della Scala",
      "lat": 45,
      "lng": 7.783333
    },
    {
      "cityName": "Magliano Alpi",
      "lat": 44.45,
      "lng": 7.783333
    },
    {
      "cityName": "Magnago",
      "lat": 45.583333,
      "lng": 8.8
    },
    {
      "cityName": "Malandre",
      "lat": 44.3,
      "lng": 7.55
    },
    {
      "cityName": "Malanoce",
      "lat": 44.25,
      "lng": 7.466667
    },
    {
      "cityName": "Mango",
      "lat": 44.683333,
      "lng": 8.15
    },
    {
      "cityName": "Manta",
      "lat": 44.616667,
      "lng": 7.483333
    },
    {
      "cityName": "Marano Ticino",
      "lat": 45.633333,
      "lng": 8.633333
    },
    {
      "cityName": "Marene",
      "lat": 44.65,
      "lng": 7.733333
    },
    {
      "cityName": "Margarita",
      "lat": 44.4,
      "lng": 7.666667
    },
    {
      "cityName": "Margherie del Seu",
      "lat": 45.05,
      "lng": 6.916667
    },
    {
      "cityName": "Margone",
      "lat": 45.216667,
      "lng": 7.183333
    },
    {
      "cityName": "Mariondo Torinese",
      "lat": 45.033333,
      "lng": 7.95
    },
    {
      "cityName": "Marsola",
      "lat": 44.25,
      "lng": 7.55
    },
    {
      "cityName": "Martiniana Po",
      "lat": 44.633333,
      "lng": 7.366667
    },
    {
      "cityName": "Massazza",
      "lat": 45.483333,
      "lng": 8.166667
    },
    {
      "cityName": "Massello",
      "lat": 44.95,
      "lng": 7.066667
    },
    {
      "cityName": "Mathi",
      "lat": 45.25,
      "lng": 7.533333
    },
    {
      "cityName": "Mazzè",
      "lat": 45.3,
      "lng": 7.933333
    },
    {
      "cityName": "Mede",
      "lat": 45.1,
      "lng": 8.733333
    },
    {
      "cityName": "Meira Prini",
      "lat": 44.583333,
      "lng": 7.283333
    },
    {
      "cityName": "Melene",
      "lat": 44.566667,
      "lng": 6.983333
    },
    {
      "cityName": "Melle",
      "lat": 44.566667,
      "lng": 7.316667
    },
    {
      "cityName": "Mercenasco",
      "lat": 45.366667,
      "lng": 7.883333
    },
    {
      "cityName": "Mezzomerico",
      "lat": 45.616667,
      "lng": 8.6
    },
    {
      "cityName": "Milanere",
      "lat": 45.1,
      "lng": 7.416667
    },
    {
      "cityName": "Millefonti",
      "lat": 45.033333,
      "lng": 7.666667
    },
    {
      "cityName": "Mirabello",
      "lat": 45.033333,
      "lng": 8.516667
    },
    {
      "cityName": "Mirafiori",
      "lat": 45.016667,
      "lng": 7.633333
    },
    {
      "cityName": "Miroglio",
      "lat": 44.283333,
      "lng": 7.766667
    },
    {
      "cityName": "Missirola",
      "lat": 45.366667,
      "lng": 7.316667
    },
    {
      "cityName": "Molini",
      "lat": 44.866667,
      "lng": 7.483333
    },
    {
      "cityName": "Molino del Conte",
      "lat": 45.35,
      "lng": 8.816667
    },
    {
      "cityName": "Mollia",
      "lat": 45.816667,
      "lng": 8.033333
    },
    {
      "cityName": "Mollières",
      "lat": 44.966667,
      "lng": 6.8
    },
    {
      "cityName": "Momo",
      "lat": 45.566667,
      "lng": 8.55
    },
    {
      "cityName": "Moncalieri",
      "lat": 45,
      "lng": 7.683333
    },
    {
      "cityName": "Moncalvo",
      "lat": 45.05,
      "lng": 8.266667
    },
    {
      "cityName": "Moncellier",
      "lat": 45.083333,
      "lng": 6.883333
    },
    {
      "cityName": "Monchiero",
      "lat": 44.566667,
      "lng": 7.916667
    },
    {
      "cityName": "Moncucco Torinese",
      "lat": 45.066667,
      "lng": 7.933333
    },
    {
      "cityName": "Mondovì",
      "lat": 44.383333,
      "lng": 7.816667
    },
    {
      "cityName": "Monferrato",
      "lat": 44.766667,
      "lng": 8.35
    },
    {
      "cityName": "Monfol",
      "lat": 45.05,
      "lng": 6.883333
    },
    {
      "cityName": "Monforte d'Alba",
      "lat": 44.583333,
      "lng": 7.966667
    },
    {
      "cityName": "Mongardino",
      "lat": 44.85,
      "lng": 8.216667
    },
    {
      "cityName": "Mongrando",
      "lat": 45.516667,
      "lng": 8
    },
    {
      "cityName": "Montalenghe",
      "lat": 45.333333,
      "lng": 7.833333
    },
    {
      "cityName": "Montalto Dora",
      "lat": 45.5,
      "lng": 7.866667
    },
    {
      "cityName": "Montà",
      "lat": 44.8,
      "lng": 7.95
    },
    {
      "cityName": "Montanaro",
      "lat": 45.233333,
      "lng": 7.85
    },
    {
      "cityName": "Montechiaro d'Asti",
      "lat": 45.016667,
      "lng": 8.116667
    },
    {
      "cityName": "Monte da Po",
      "lat": 45.15,
      "lng": 8.016667
    },
    {
      "cityName": "Montegrosso d'Asti",
      "lat": 44.816667,
      "lng": 8.233333
    },
    {
      "cityName": "Monteiup Albese",
      "lat": 44.65,
      "lng": 8.033333
    },
    {
      "cityName": "Montemagno",
      "lat": 44.983333,
      "lng": 8.333333
    },
    {
      "cityName": "Monteu",
      "lat": 44.783333,
      "lng": 7.933333
    },
    {
      "cityName": "Monticello",
      "lat": 45.383333,
      "lng": 8.6
    },
    {
      "cityName": "Montigli",
      "lat": 45.416667,
      "lng": 7.433333
    },
    {
      "cityName": "Montiglio",
      "lat": 45.066667,
      "lng": 8.1
    },
    {
      "cityName": "Morano",
      "lat": 45.166667,
      "lng": 8.366667
    },
    {
      "cityName": "Moretta",
      "lat": 44.766667,
      "lng": 7.533333
    },
    {
      "cityName": "Morozzo",
      "lat": 44.416667,
      "lng": 7.7
    },
    {
      "cityName": "Moschini",
      "lat": 44.883333,
      "lng": 8.75
    },
    {
      "cityName": "Mosso Santa Maria",
      "lat": 45.633333,
      "lng": 8.133333
    },
    {
      "cityName": "Motta de'Conti",
      "lat": 45.183333,
      "lng": 8.516667
    },
    {
      "cityName": "Mottalciata",
      "lat": 45.5,
      "lng": 8.216667
    },
    {
      "cityName": "Murasso",
      "lat": 44.483333,
      "lng": 7.65
    },
    {
      "cityName": "Murenca",
      "lat": 44.316667,
      "lng": 7.866667
    },
    {
      "cityName": "Muriaglio",
      "lat": 45.433333,
      "lng": 7.716667
    },
    {
      "cityName": "Murisengo",
      "lat": 45.083333,
      "lng": 8.133333
    },
    {
      "cityName": "Narzole",
      "lat": 44.583333,
      "lng": 7.866667
    },
    {
      "cityName": "Nebbione",
      "lat": 45.416667,
      "lng": 8.183333
    },
    {
      "cityName": "Neive",
      "lat": 44.733333,
      "lng": 8.116667
    },
    {
      "cityName": "Netro",
      "lat": 45.533333,
      "lng": 7.95
    },
    {
      "cityName": "Nichelino",
      "lat": 44.983333,
      "lng": 7.633333
    },
    {
      "cityName": "Nole Canavese",
      "lat": 45.25,
      "lng": 7.583333
    },
    {
      "cityName": "Nomaglio",
      "lat": 45.533333,
      "lng": 7.866667
    },
    {
      "cityName": "None",
      "lat": 44.933333,
      "lng": 7.533333
    },
    {
      "cityName": "Nosate",
      "lat": 45.55,
      "lng": 8.733333
    },
    {
      "cityName": "Novalesa",
      "lat": 45.183333,
      "lng": 7.016667
    },
    {
      "cityName": "Novara",
      "lat": 45.466667,
      "lng": 8.633333
    },
    {
      "cityName": "Novello",
      "lat": 44.583333,
      "lng": 7.933333
    },
    {
      "cityName": "Occhieppo Inferiore",
      "lat": 45.55,
      "lng": 8.016667
    },
    {
      "cityName": "Occhieppo Superiore",
      "lat": 45.566667,
      "lng": 8
    },
    {
      "cityName": "Occimiano",
      "lat": 45.05,
      "lng": 8.5
    },
    {
      "cityName": "Oglianico",
      "lat": 45.35,
      "lng": 7.683333
    },
    {
      "cityName": "Oia",
      "lat": 44.8,
      "lng": 7.7
    },
    {
      "cityName": "Olcenengo",
      "lat": 45.366667,
      "lng": 8.316667
    },
    {
      "cityName": "Oldenico",
      "lat": 45.4,
      "lng": 8.383333
    },
    {
      "cityName": "Oleggio",
      "lat": 45.6,
      "lng": 8.633333
    },
    {
      "cityName": "Olengo",
      "lat": 45.416667,
      "lng": 8.666667
    },
    {
      "cityName": "Orbassano",
      "lat": 45.016667,
      "lng": 7.533333
    },
    {
      "cityName": "Orio Canavese",
      "lat": 45.333333,
      "lng": 7.866667
    },
    {
      "cityName": "Ottiglio",
      "lat": 45.05,
      "lng": 8.333333
    },
    {
      "cityName": "Ozegna",
      "lat": 45.35,
      "lng": 7.75
    },
    {
      "cityName": "Ozzano Monferrato",
      "lat": 45.1,
      "lng": 8.383333
    },
    {
      "cityName": "Paesana",
      "lat": 44.683333,
      "lng": 7.266667
    },
    {
      "cityName": "Palanfrè",
      "lat": 44.2,
      "lng": 7.483333
    },
    {
      "cityName": "Palazzo Canavese",
      "lat": 45.45,
      "lng": 7.966667
    },
    {
      "cityName": "Palazzolo",
      "lat": 45.183333,
      "lng": 8.233333
    },
    {
      "cityName": "Palestro",
      "lat": 45.3,
      "lng": 8.533333
    },
    {
      "cityName": "Pamparato",
      "lat": 44.283333,
      "lng": 7.916667
    },
    {
      "cityName": "Pancalieri",
      "lat": 44.833333,
      "lng": 7.583333
    },
    {
      "cityName": "Paolorio",
      "lat": 44.766667,
      "lng": 7.833333
    },
    {
      "cityName": "Parella",
      "lat": 45.433333,
      "lng": 7.783333
    },
    {
      "cityName": "Parona",
      "lat": 45.283333,
      "lng": 8.75
    },
    {
      "cityName": "Paschero",
      "lat": 44.516667,
      "lng": 7.133333
    },
    {
      "cityName": "Passatore",
      "lat": 44.433333,
      "lng": 7.5
    },
    {
      "cityName": "Pavarolo",
      "lat": 45.066667,
      "lng": 7.833333
    },
    {
      "cityName": "Pavone Canavese",
      "lat": 45.433333,
      "lng": 7.866667
    },
    {
      "cityName": "Pavone d'Alessandria",
      "lat": 44.933333,
      "lng": 8.666667
    },
    {
      "cityName": "Pecetto di Valenza",
      "lat": 44.983333,
      "lng": 8.666667
    },
    {
      "cityName": "Pecetto",
      "lat": 45.016667,
      "lng": 7.75
    },
    {
      "cityName": "Pernate",
      "lat": 45.466667,
      "lng": 8.666667
    },
    {
      "cityName": "Perosa Argentina",
      "lat": 44.966667,
      "lng": 7.166667
    },
    {
      "cityName": "Perrero",
      "lat": 44.933333,
      "lng": 7.083333
    },
    {
      "cityName": "Pertengo",
      "lat": 45.233333,
      "lng": 8.416667
    },
    {
      "cityName": "Perucca",
      "lat": 44.466667,
      "lng": 7.766667
    },
    {
      "cityName": "Pessinetto",
      "lat": 45.283333,
      "lng": 7.4
    },
    {
      "cityName": "Pessione",
      "lat": 44.95,
      "lng": 7.833333
    },
    {
      "cityName": "Pettinengo",
      "lat": 45.616667,
      "lng": 8.1
    },
    {
      "cityName": "Peveragno",
      "lat": 44.333333,
      "lng": 7.616667
    },
    {
      "cityName": "Pezzana",
      "lat": 45.266667,
      "lng": 8.483333
    },
    {
      "cityName": "Pianche",
      "lat": 44.3,
      "lng": 7.116667
    },
    {
      "cityName": "Piandema",
      "lat": 45.4,
      "lng": 7.466667
    },
    {
      "cityName": "Pianezza",
      "lat": 45.1,
      "lng": 7.55
    },
    {
      "cityName": "Piano",
      "lat": 44.833333,
      "lng": 8.166667
    },
    {
      "cityName": "Piasco",
      "lat": 44.566667,
      "lng": 7.466667
    },
    {
      "cityName": "Piea",
      "lat": 45.016667,
      "lng": 8.066667
    },
    {
      "cityName": "Piedicavallo",
      "lat": 45.7,
      "lng": 7.95
    },
    {
      "cityName": "Pietraporzio",
      "lat": 44.333333,
      "lng": 7.033333
    },
    {
      "cityName": "Pieve del Cairo",
      "lat": 45.05,
      "lng": 8.8
    },
    {
      "cityName": "Pinerolo",
      "lat": 44.883333,
      "lng": 7.35
    },
    {
      "cityName": "Pino Troinese",
      "lat": 45.05,
      "lng": 7.783333
    },
    {
      "cityName": "Piobesi d'Alba",
      "lat": 44.733333,
      "lng": 7.983333
    },
    {
      "cityName": "Piobesi Torinese",
      "lat": 44.766667,
      "lng": 7.616667
    },
    {
      "cityName": "Piode",
      "lat": 45.766667,
      "lng": 8.05
    },
    {
      "cityName": "Piossasco",
      "lat": 44.983333,
      "lng": 7.466667
    },
    {
      "cityName": "Plagnals",
      "lat": 44.95,
      "lng": 6.866667
    },
    {
      "cityName": "Poirino",
      "lat": 44.916667,
      "lng": 7.85
    },
    {
      "cityName": "Pollone",
      "lat": 45.583333,
      "lng": 8
    },
    {
      "cityName": "Pomaretto",
      "lat": 44.966667,
      "lng": 7.15
    },
    {
      "cityName": "Pombia",
      "lat": 45.65,
      "lng": 8.633333
    },
    {
      "cityName": "Pomerolo",
      "lat": 44.583333,
      "lng": 7.566667
    },
    {
      "cityName": "Pont Canavese",
      "lat": 45.416667,
      "lng": 7.6
    },
    {
      "cityName": "Ponte Blaize",
      "lat": 44.933333,
      "lng": 6.833333
    },
    {
      "cityName": "Ponte della Rovina",
      "lat": 44.2,
      "lng": 7.366667
    },
    {
      "cityName": "Ponte Maira",
      "lat": 44.466667,
      "lng": 6.95
    },
    {
      "cityName": "Pontestura",
      "lat": 45.133333,
      "lng": 8.333333
    },
    {
      "cityName": "Ponzana",
      "lat": 45.4,
      "lng": 8.516667
    },
    {
      "cityName": "Poracchia",
      "lat": 44.333333,
      "lng": 7.233333
    },
    {
      "cityName": "Postua",
      "lat": 45.716667,
      "lng": 8.233333
    },
    {
      "cityName": "Pourrières",
      "lat": 45.05,
      "lng": 7
    },
    {
      "cityName": "Pra del Torno",
      "lat": 44.866667,
      "lng": 7.166667
    },
    {
      "cityName": "Pradleve",
      "lat": 44.416667,
      "lng": 7.283333
    },
    {
      "cityName": "Pragelato",
      "lat": 45.016667,
      "lng": 6.95
    },
    {
      "cityName": "Praie",
      "lat": 45.4,
      "lng": 7.5
    },
    {
      "cityName": "Prali",
      "lat": 44.9,
      "lng": 7.05
    },
    {
      "cityName": "Pralormo",
      "lat": 44.866667,
      "lng": 7.9
    },
    {
      "cityName": "Pralungo",
      "lat": 45.583333,
      "lng": 8.033333
    },
    {
      "cityName": "Prarolo",
      "lat": 45.283333,
      "lng": 8.483333
    },
    {
      "cityName": "Prascorsano",
      "lat": 45.366667,
      "lng": 7.616667
    },
    {
      "cityName": "Pratolungo",
      "lat": 44.3,
      "lng": 7.15
    },
    {
      "cityName": "Prato Sesia",
      "lat": 45.65,
      "lng": 8.366667
    },
    {
      "cityName": "Pray",
      "lat": 45.683333,
      "lng": 8.216667
    },
    {
      "cityName": "Prazzo Inferiore",
      "lat": 44.483333,
      "lng": 7.066667
    },
    {
      "cityName": "Preinardo",
      "lat": 44.366667,
      "lng": 6.983333
    },
    {
      "cityName": "Puys",
      "lat": 45.05,
      "lng": 6.733333
    },
    {
      "cityName": "Quagliuzzo",
      "lat": 45.416667,
      "lng": 7.766667
    },
    {
      "cityName": "Quargnento",
      "lat": 44.95,
      "lng": 8.5
    },
    {
      "cityName": "Quarto d'Asti",
      "lat": 44.9,
      "lng": 8.3
    },
    {
      "cityName": "Quassolo",
      "lat": 45.516667,
      "lng": 7.833333
    },
    {
      "cityName": "Quattordio",
      "lat": 44.9,
      "lng": 8.4
    },
    {
      "cityName": "Quincinetto",
      "lat": 45.566667,
      "lng": 7.8
    },
    {
      "cityName": "Quinto",
      "lat": 45.366667,
      "lng": 8.366667
    },
    {
      "cityName": "Racconigi",
      "lat": 44.766667,
      "lng": 7.766667
    },
    {
      "cityName": "Reale Casa di Caccia",
      "lat": 44.2,
      "lng": 7.233333
    },
    {
      "cityName": "Reano",
      "lat": 45.05,
      "lng": 7.433333
    },
    {
      "cityName": "Recetto",
      "lat": 45.466667,
      "lng": 8.433333
    },
    {
      "cityName": "Revello",
      "lat": 44.65,
      "lng": 7.383333
    },
    {
      "cityName": "Revigliasco",
      "lat": 45.016667,
      "lng": 7.733333
    },
    {
      "cityName": "Richardet",
      "lat": 45.033333,
      "lng": 6.883333
    },
    {
      "cityName": "Riclaretto",
      "lat": 44.933333,
      "lng": 7.15
    },
    {
      "cityName": "Riforano",
      "lat": 44.416667,
      "lng": 7.65
    },
    {
      "cityName": "Rima",
      "lat": 45.866667,
      "lng": 8
    },
    {
      "cityName": "Riva di Chieri",
      "lat": 44.983333,
      "lng": 7.866667
    },
    {
      "cityName": "Rivalba",
      "lat": 45.116667,
      "lng": 7.883333
    },
    {
      "cityName": "Rivalta di Torino",
      "lat": 45.033333,
      "lng": 7.516667
    },
    {
      "cityName": "Rivalta Scrivia",
      "lat": 44.85,
      "lng": 8.816667
    },
    {
      "cityName": "Rivara",
      "lat": 45.333333,
      "lng": 7.616667
    },
    {
      "cityName": "Rivarolo Canavese",
      "lat": 45.316667,
      "lng": 7.716667
    },
    {
      "cityName": "Rivera",
      "lat": 45.116667,
      "lng": 7.4
    },
    {
      "cityName": "Rive",
      "lat": 45.216667,
      "lng": 8.416667
    },
    {
      "cityName": "Rivoira",
      "lat": 44.5,
      "lng": 7.4
    },
    {
      "cityName": "Rivoli",
      "lat": 45.066667,
      "lng": 7.516667
    },
    {
      "cityName": "Roasio",
      "lat": 45.6,
      "lng": 8.283333
    },
    {
      "cityName": "Robassomero",
      "lat": 45.2,
      "lng": 7.566667
    },
    {
      "cityName": "Robbio",
      "lat": 45.283333,
      "lng": 8.583333
    },
    {
      "cityName": "Robecchetto con Induno",
      "lat": 45.55,
      "lng": 8.766667
    },
    {
      "cityName": "Robella",
      "lat": 44.65,
      "lng": 7.3
    },
    {
      "cityName": "Robilante",
      "lat": 44.3,
      "lng": 7.516667
    },
    {
      "cityName": "Rocca Canavese",
      "lat": 45.316667,
      "lng": 7.566667
    },
    {
      "cityName": "Roccaforte Mondovì",
      "lat": 44.316667,
      "lng": 7.733333
    },
    {
      "cityName": "Roccavione",
      "lat": 44.316667,
      "lng": 7.483333
    },
    {
      "cityName": "Rodallo",
      "lat": 45.283333,
      "lng": 7.866667
    },
    {
      "cityName": "Romagnano",
      "lat": 45.633333,
      "lng": 8.383333
    },
    {
      "cityName": "Romano Canavese",
      "lat": 45.383333,
      "lng": 7.866667
    },
    {
      "cityName": "Romentino",
      "lat": 45.466667,
      "lng": 8.7
    },
    {
      "cityName": "Roncaglia",
      "lat": 44.783333,
      "lng": 7.55
    },
    {
      "cityName": "Rondissone",
      "lat": 45.25,
      "lng": 7.966667
    },
    {
      "cityName": "Ronsecco",
      "lat": 45.25,
      "lng": 8.266667
    },
    {
      "cityName": "Rore",
      "lat": 44.583333,
      "lng": 7.216667
    },
    {
      "cityName": "Rosasco",
      "lat": 45.25,
      "lng": 8.583333
    },
    {
      "cityName": "Rosei",
      "lat": 45.683333,
      "lng": 7.95
    },
    {
      "cityName": "Rossana",
      "lat": 44.533333,
      "lng": 7.433333
    },
    {
      "cityName": "Rubiana",
      "lat": 45.133333,
      "lng": 7.383333
    },
    {
      "cityName": "Ruffia",
      "lat": 44.7,
      "lng": 7.6
    },
    {
      "cityName": "Salabertano",
      "lat": 45.066667,
      "lng": 6.883333
    },
    {
      "cityName": "Sala Biellese",
      "lat": 45.5,
      "lng": 7.966667
    },
    {
      "cityName": "Sala Monferrato",
      "lat": 45.083333,
      "lng": 8.35
    },
    {
      "cityName": "Salassa",
      "lat": 45.366667,
      "lng": 7.683333
    },
    {
      "cityName": "Sala Vercellese",
      "lat": 45.3,
      "lng": 8.333333
    },
    {
      "cityName": "Sale",
      "lat": 44.983333,
      "lng": 8.8
    },
    {
      "cityName": "Salice d'Ulzio",
      "lat": 45.033333,
      "lng": 6.866667
    },
    {
      "cityName": "Salmore",
      "lat": 44.583333,
      "lng": 7.8
    },
    {
      "cityName": "Saluggia",
      "lat": 45.233333,
      "lng": 8
    },
    {
      "cityName": "Salussola",
      "lat": 45.45,
      "lng": 8.116667
    },
    {
      "cityName": "Saluzzo",
      "lat": 44.65,
      "lng": 7.483333
    },
    {
      "cityName": "Sambuco",
      "lat": 44.333333,
      "lng": 7.066667
    },
    {
      "cityName": "Samone",
      "lat": 45.45,
      "lng": 7.85
    },
    {
      "cityName": "Sampeire",
      "lat": 44.566667,
      "lng": 7.183333
    },
    {
      "cityName": "San Ambrogio di Torino",
      "lat": 45.1,
      "lng": 7.35
    },
    {
      "cityName": "San Bartolomeo",
      "lat": 44.266667,
      "lng": 7.666667
    },
    {
      "cityName": "San Benigno Canavese",
      "lat": 45.216667,
      "lng": 7.766667
    },
    {
      "cityName": "San Bernardo",
      "lat": 45.433333,
      "lng": 7.883333
    },
    {
      "cityName": "San Damiano d'Asti",
      "lat": 44.833333,
      "lng": 8.066667
    },
    {
      "cityName": "San Damiano Macra",
      "lat": 44.483333,
      "lng": 7.266667
    },
    {
      "cityName": "Sandighano",
      "lat": 45.516667,
      "lng": 8.066667
    },
    {
      "cityName": "San Francesco al Campo",
      "lat": 45.233333,
      "lng": 7.666667
    },
    {
      "cityName": "Sanfrè",
      "lat": 44.75,
      "lng": 7.816667
    },
    {
      "cityName": "Sanfront",
      "lat": 44.633333,
      "lng": 7.316667
    },
    {
      "cityName": "Sangano",
      "lat": 45.033333,
      "lng": 7.45
    },
    {
      "cityName": "San Gennario",
      "lat": 45.216667,
      "lng": 8.15
    },
    {
      "cityName": "San Germano",
      "lat": 45.35,
      "lng": 8.25
    },
    {
      "cityName": "San Gillio",
      "lat": 45.133333,
      "lng": 7.533333
    },
    {
      "cityName": "San Giopanni",
      "lat": 44.2,
      "lng": 7.266667
    },
    {
      "cityName": "San Giorgio Canavese",
      "lat": 45.333333,
      "lng": 7.8
    },
    {
      "cityName": "San Giorio",
      "lat": 45.133333,
      "lng": 7.166667
    },
    {
      "cityName": "San Giuliano",
      "lat": 45.133333,
      "lng": 7.083333
    },
    {
      "cityName": "San Giuliano Vecchio",
      "lat": 44.883333,
      "lng": 8.733333
    },
    {
      "cityName": "San Giusto Canavese",
      "lat": 45.316667,
      "lng": 7.816667
    },
    {
      "cityName": "San Lorenzo",
      "lat": 44.25,
      "lng": 7.35
    },
    {
      "cityName": "San Martino Canavese",
      "lat": 45.4,
      "lng": 7.816667
    },
    {
      "cityName": "San Maurizio Canavese",
      "lat": 45.216667,
      "lng": 7.633333
    },
    {
      "cityName": "San Maurizio",
      "lat": 44.55,
      "lng": 7.283333
    },
    {
      "cityName": "San Mauro Torinese",
      "lat": 45.1,
      "lng": 7.766667
    },
    {
      "cityName": "San Michele Mondovì",
      "lat": 44.383333,
      "lng": 7.9
    },
    {
      "cityName": "San Nazzaro Sesia",
      "lat": 45.45,
      "lng": 8.433333
    },
    {
      "cityName": "San Paolo",
      "lat": 45.05,
      "lng": 7.633333
    },
    {
      "cityName": "San Pietro Mosezzo",
      "lat": 45.45,
      "lng": 8.533333
    },
    {
      "cityName": "San Ponso",
      "lat": 45.35,
      "lng": 7.666667
    },
    {
      "cityName": "San Salvatore Monferrato",
      "lat": 44.983333,
      "lng": 8.566667
    },
    {
      "cityName": "San Sicario",
      "lat": 44.95,
      "lng": 6.8
    },
    {
      "cityName": "Sant'Albano Stura",
      "lat": 44.516667,
      "lng": 7.716667
    },
    {
      "cityName": "Santa Maria Rocca",
      "lat": 44.366667,
      "lng": 7.683333
    },
    {
      "cityName": "Santa Maria",
      "lat": 45.366667,
      "lng": 7.8
    },
    {
      "cityName": "Sant'Angelo di Lomellino",
      "lat": 45.25,
      "lng": 8.633333
    },
    {
      "cityName": "Sant'Anna di Valdieri",
      "lat": 44.233333,
      "lng": 7.316667
    },
    {
      "cityName": "Sant'Antonino di Susa",
      "lat": 45.1,
      "lng": 7.283333
    },
    {
      "cityName": "Santa Vittoria d'Alba",
      "lat": 44.7,
      "lng": 7.933333
    },
    {
      "cityName": "Santhià",
      "lat": 45.366667,
      "lng": 8.166667
    },
    {
      "cityName": "Santo Stefano Belbo",
      "lat": 44.716667,
      "lng": 8.233333
    },
    {
      "cityName": "Santo Stefano",
      "lat": 44.383333,
      "lng": 7.466667
    },
    {
      "cityName": "Saretto",
      "lat": 44.466667,
      "lng": 6.933333
    },
    {
      "cityName": "Sartirana Lomellina",
      "lat": 45.116667,
      "lng": 8.65
    },
    {
      "cityName": "Sassi",
      "lat": 45.083333,
      "lng": 7.733333
    },
    {
      "cityName": "Savigliano",
      "lat": 44.633333,
      "lng": 7.666667
    },
    {
      "cityName": "Savoule",
      "lat": 45.05,
      "lng": 6.783333
    },
    {
      "cityName": "Scalenghe",
      "lat": 44.883333,
      "lng": 7.483333
    },
    {
      "cityName": "Scandeluzza",
      "lat": 45.05,
      "lng": 8.133333
    },
    {
      "cityName": "Scarmagno",
      "lat": 45.383333,
      "lng": 7.833333
    },
    {
      "cityName": "Scarnafigi",
      "lat": 44.683333,
      "lng": 7.566667
    },
    {
      "cityName": "Sciolze",
      "lat": 45.1,
      "lng": 7.883333
    },
    {
      "cityName": "Scopello",
      "lat": 45.766667,
      "lng": 8.1
    },
    {
      "cityName": "Sella della Turra",
      "lat": 44.25,
      "lng": 7.733333
    },
    {
      "cityName": "Serra dei Turchi",
      "lat": 44.65,
      "lng": 7.966667
    },
    {
      "cityName": "Serralunga di Crea",
      "lat": 45.1,
      "lng": 8.283333
    },
    {
      "cityName": "Serravalle d'Asti",
      "lat": 44.95,
      "lng": 8.133333
    },
    {
      "cityName": "Serravalle Sesia",
      "lat": 45.683333,
      "lng": 8.316667
    },
    {
      "cityName": "Sessant",
      "lat": 44.933333,
      "lng": 8.166667
    },
    {
      "cityName": "Settimo Bottaro",
      "lat": 45.4,
      "lng": 7.983333
    },
    {
      "cityName": "Settimo",
      "lat": 45.15,
      "lng": 7.766667
    },
    {
      "cityName": "Settimo Tavagnasco",
      "lat": 45.533333,
      "lng": 7.816667
    },
    {
      "cityName": "Settimo Vittone",
      "lat": 45.55,
      "lng": 7.833333
    },
    {
      "cityName": "Seytes",
      "lat": 44.966667,
      "lng": 6.933333
    },
    {
      "cityName": "Sillavengo",
      "lat": 45.516667,
      "lng": 8.45
    },
    {
      "cityName": "Sizzano",
      "lat": 45.583333,
      "lng": 8.433333
    },
    {
      "cityName": "Solero",
      "lat": 44.916667,
      "lng": 8.5
    },
    {
      "cityName": "Sologno",
      "lat": 45.533333,
      "lng": 8.566667
    },
    {
      "cityName": "Solomiac",
      "lat": 44.983333,
      "lng": 6.8
    },
    {
      "cityName": "Sommariva Bosco",
      "lat": 44.766667,
      "lng": 7.783333
    },
    {
      "cityName": "Sommariva Perno",
      "lat": 44.75,
      "lng": 7.9
    },
    {
      "cityName": "Sorano",
      "lat": 44.633333,
      "lng": 8
    },
    {
      "cityName": "Sordevolo",
      "lat": 45.566667,
      "lng": 7.983333
    },
    {
      "cityName": "Souchères Basses",
      "lat": 45.033333,
      "lng": 6.966667
    },
    {
      "cityName": "Sozzago",
      "lat": 45.4,
      "lng": 8.716667
    },
    {
      "cityName": "Spagna",
      "lat": 45.216667,
      "lng": 7.5
    },
    {
      "cityName": "Sparone",
      "lat": 45.416667,
      "lng": 7.533333
    },
    {
      "cityName": "Spinetta Marengo",
      "lat": 44.883333,
      "lng": 8.683333
    },
    {
      "cityName": "Strambinello",
      "lat": 45.416667,
      "lng": 7
    },
    {
      "cityName": "Strambino Romano",
      "lat": 45.383333,
      "lng": 7.883333
    },
    {
      "cityName": "Strona",
      "lat": 45.616667,
      "lng": 8.166667
    },
    {
      "cityName": "Stroppiana",
      "lat": 45.233333,
      "lng": 8.45
    },
    {
      "cityName": "Stroppo",
      "lat": 44.5,
      "lng": 7.1
    },
    {
      "cityName": "Stupinigi",
      "lat": 44.983333,
      "lng": 7.6
    },
    {
      "cityName": "Stura",
      "lat": 45.083333,
      "lng": 8.116667
    },
    {
      "cityName": "Suardi",
      "lat": 45.033333,
      "lng": 8.733333
    },
    {
      "cityName": "Suno",
      "lat": 45.633333,
      "lng": 8.533333
    },
    {
      "cityName": "Superga",
      "lat": 45.083333,
      "lng": 7.766667
    },
    {
      "cityName": "Susa",
      "lat": 45.133333,
      "lng": 7.05
    },
    {
      "cityName": "Tarantasca",
      "lat": 44.5,
      "lng": 7.55
    },
    {
      "cityName": "Tavernette",
      "lat": 44.95,
      "lng": 7.366667
    },
    {
      "cityName": "Terdobbiate",
      "lat": 45.383333,
      "lng": 8.7
    },
    {
      "cityName": "Terranova",
      "lat": 45.166667,
      "lng": 8.516667
    },
    {
      "cityName": "Terruggia",
      "lat": 45.083333,
      "lng": 8.45
    },
    {
      "cityName": "Tetti Lumignon",
      "lat": 44.233333,
      "lng": 7.3
    },
    {
      "cityName": "Thuras",
      "lat": 44.883333,
      "lng": 6.85
    },
    {
      "cityName": "Thures Gorlier",
      "lat": 44.916667,
      "lng": 6.816667
    },
    {
      "cityName": "Ticineto",
      "lat": 45.1,
      "lng": 8.55
    },
    {
      "cityName": "Tina",
      "lat": 45.416667,
      "lng": 7.933333
    },
    {
      "cityName": "Tiraculo",
      "lat": 45.15,
      "lng": 6.95
    },
    {
      "cityName": "Tivoli",
      "lat": 44.683333,
      "lng": 7.166667
    },
    {
      "cityName": "Tollegno",
      "lat": 45.583333,
      "lng": 8.05
    },
    {
      "cityName": "Tonco",
      "lat": 45.016667,
      "lng": 8.183333
    },
    {
      "cityName": "Tornaco",
      "lat": 45.35,
      "lng": 8.716667
    },
    {
      "cityName": "Tornavento",
      "lat": 45.583333,
      "lng": 8.716667
    },
    {
      "cityName": "Torre Benetti",
      "lat": 45.066667,
      "lng": 8.666667
    },
    {
      "cityName": "Torre Garofoli",
      "lat": 44.9,
      "lng": 8.8
    },
    {
      "cityName": "Torre Pellice",
      "lat": 44.816667,
      "lng": 7.216667
    },
    {
      "cityName": "Torrione",
      "lat": 45.316667,
      "lng": 8.466667
    },
    {
      "cityName": "Tortona",
      "lat": 44.9,
      "lng": 8.866667
    },
    {
      "cityName": "Trana",
      "lat": 45.033333,
      "lng": 7.416667
    },
    {
      "cityName": "Traversella",
      "lat": 45.5,
      "lng": 7.75
    },
    {
      "cityName": "Trecate",
      "lat": 45.433333,
      "lng": 8.733333
    },
    {
      "cityName": "Tricerro",
      "lat": 45.233333,
      "lng": 8.316667
    },
    {
      "cityName": "Trinità",
      "lat": 44.5,
      "lng": 7.75
    },
    {
      "cityName": "Trino",
      "lat": 45.2,
      "lng": 8.3
    },
    {
      "cityName": "Trivero",
      "lat": 45.666667,
      "lng": 8.166667
    },
    {
      "cityName": "Trofarello",
      "lat": 44.983333,
      "lng": 7.733333
    },
    {
      "cityName": "Troncea",
      "lat": 44.95,
      "lng": 6.95
    },
    {
      "cityName": "Tronzano",
      "lat": 45.35,
      "lng": 8.166667
    },
    {
      "cityName": "Turbigo",
      "lat": 45.533333,
      "lng": 8.733333
    },
    {
      "cityName": "Usseglio",
      "lat": 45.233333,
      "lng": 7.216667
    },
    {
      "cityName": "Uvert",
      "lat": 44.75,
      "lng": 7.166667
    },
    {
      "cityName": "Valdieri",
      "lat": 44.283333,
      "lng": 7.4
    },
    {
      "cityName": "Valenza",
      "lat": 45.016667,
      "lng": 8.633333
    },
    {
      "cityName": "Valfenera",
      "lat": 44.9,
      "lng": 7.966667
    },
    {
      "cityName": "Valgioie",
      "lat": 45.066667,
      "lng": 7.35
    },
    {
      "cityName": "Valgrana",
      "lat": 44.4,
      "lng": 7.383333
    },
    {
      "cityName": "Valle Lomellina",
      "lat": 45.15,
      "lng": 8.666667
    },
    {
      "cityName": "Valle Mosso",
      "lat": 45.633333,
      "lng": 8.15
    },
    {
      "cityName": "Valle San Nicolao",
      "lat": 45.6,
      "lng": 8.133333
    },
    {
      "cityName": "Vallo",
      "lat": 45.283333,
      "lng": 7.883333
    },
    {
      "cityName": "Valmacca",
      "lat": 45.1,
      "lng": 8.583333
    },
    {
      "cityName": "Valperga",
      "lat": 45.366667,
      "lng": 7.65
    },
    {
      "cityName": "Vanchiglia",
      "lat": 45.066667,
      "lng": 7.716667
    },
    {
      "cityName": "Vanzaghello",
      "lat": 45.583333,
      "lng": 8.783333
    },
    {
      "cityName": "Vaprio d'Agogna",
      "lat": 45.6,
      "lng": 8.55
    },
    {
      "cityName": "Venalzio",
      "lat": 45.15,
      "lng": 7.016667
    },
    {
      "cityName": "Venaria Reale",
      "lat": 45.133333,
      "lng": 7.633333
    },
    {
      "cityName": "Venasca",
      "lat": 44.55,
      "lng": 7.4
    },
    {
      "cityName": "Vercelli",
      "lat": 45.316667,
      "lng": 8.416667
    },
    {
      "cityName": "Vernante",
      "lat": 44.25,
      "lng": 7.533333
    },
    {
      "cityName": "Vernets",
      "lat": 45.1,
      "lng": 6.7
    },
    {
      "cityName": "Verolengo",
      "lat": 45.183333,
      "lng": 7.966667
    },
    {
      "cityName": "Verrone",
      "lat": 45.5,
      "lng": 8.116667
    },
    {
      "cityName": "Verzuolo",
      "lat": 44.6,
      "lng": 7.483333
    },
    {
      "cityName": "Vespolate",
      "lat": 45.35,
      "lng": 8.666667
    },
    {
      "cityName": "Vestignè",
      "lat": 45.383333,
      "lng": 7.95
    },
    {
      "cityName": "Vico Canavese",
      "lat": 45.5,
      "lng": 7.783333
    },
    {
      "cityName": "Vicolungo",
      "lat": 45.483333,
      "lng": 8.466667
    },
    {
      "cityName": "Vigliano Biellese",
      "lat": 45.566667,
      "lng": 8.116667
    },
    {
      "cityName": "Vignale",
      "lat": 45.016667,
      "lng": 8.4
    },
    {
      "cityName": "Vignarello",
      "lat": 45.35,
      "lng": 8.75
    },
    {
      "cityName": "Vignolo",
      "lat": 44.366667,
      "lng": 7.466667
    },
    {
      "cityName": "Vigone",
      "lat": 44.85,
      "lng": 7.5
    },
    {
      "cityName": "Villabella",
      "lat": 45.033333,
      "lng": 8.566667
    },
    {
      "cityName": "Villa del Bosco",
      "lat": 45.616667,
      "lng": 8.283333
    },
    {
      "cityName": "Villafalletto",
      "lat": 44.55,
      "lng": 7.533333
    },
    {
      "cityName": "Villafranca d'Asti",
      "lat": 44.916667,
      "lng": 8.033333
    },
    {
      "cityName": "Villanova d'Asti",
      "lat": 44.95,
      "lng": 7.933333
    },
    {
      "cityName": "Villanova Mondovì",
      "lat": 44.35,
      "lng": 7.75
    },
    {
      "cityName": "Villanova Monferrato",
      "lat": 45.183333,
      "lng": 8.466667
    },
    {
      "cityName": "Villa Perosa",
      "lat": 44.933333,
      "lng": 7.25
    },
    {
      "cityName": "Villarboit",
      "lat": 45.433333,
      "lng": 8.333333
    },
    {
      "cityName": "Villareggia",
      "lat": 45.316667,
      "lng": 7.983333
    },
    {
      "cityName": "Villaretto di Roreto Chisone",
      "lat": 45.016667,
      "lng": 7.116667
    },
    {
      "cityName": "Villar Focchiardo",
      "lat": 45.116667,
      "lng": 7.233333
    },
    {
      "cityName": "Villaro",
      "lat": 44.466667,
      "lng": 6.966667
    },
    {
      "cityName": "Villar Pellice",
      "lat": 44.8,
      "lng": 7.15
    },
    {
      "cityName": "Villastellone",
      "lat": 44.916667,
      "lng": 7.733333
    },
    {
      "cityName": "Villata",
      "lat": 44.866667,
      "lng": 7.966667
    },
    {
      "cityName": "Villate",
      "lat": 45.35,
      "lng": 7.833333
    },
    {
      "cityName": "Vinadio",
      "lat": 44.3,
      "lng": 7.166667
    },
    {
      "cityName": "Vinzaglio",
      "lat": 45.316667,
      "lng": 8.516667
    },
    {
      "cityName": "Virle Piemonte",
      "lat": 44.866667,
      "lng": 7.566667
    },
    {
      "cityName": "Viscarda",
      "lat": 44.933333,
      "lng": 8.816667
    },
    {
      "cityName": "Vistrorio",
      "lat": 45.433333,
      "lng": 7.766667
    },
    {
      "cityName": "Viù",
      "lat": 45.233333,
      "lng": 7.366667
    },
    {
      "cityName": "Vizzola Ticino",
      "lat": 45.633333,
      "lng": 8.683333
    },
    {
      "cityName": "Volpiano",
      "lat": 45.2,
      "lng": 7.766667
    },
    {
      "cityName": "Volvera",
      "lat": 44.966667,
      "lng": 7.516667
    },
    {
      "cityName": "Zeme",
      "lat": 45.2,
      "lng": 8.666667
    },
    {
      "cityName": "Zimone",
      "lat": 45.45,
      "lng": 8.033333
    }
  ]
}