{
  "name": "Baoruco",
  "cities": [
    {
      "cityName": "Angelina",
      "lat": 18.4333333,
      "lng": -71.2333333
    },
    {
      "cityName": "Apolinar Perdomo",
      "lat": 18.5833333,
      "lng": -71.4166667
    },
    {
      "cityName": "Arroyo Seco",
      "lat": 18.45,
      "lng": -71.1166667
    },
    {
      "cityName": "Baltasar",
      "lat": 18.4666667,
      "lng": -71.1166667
    },
    {
      "cityName": "Bao",
      "lat": 18.4833333,
      "lng": -71.05
    },
    {
      "cityName": "Barranca",
      "lat": 18.45,
      "lng": -71.1333333
    },
    {
      "cityName": "Batey 1",
      "lat": 18.4333333,
      "lng": -71.2166667
    },
    {
      "cityName": "Batey 2",
      "lat": 18.4333333,
      "lng": -71.2666667
    },
    {
      "cityName": "Batey 3",
      "lat": 18.4166667,
      "lng": -71.25
    },
    {
      "cityName": "Batey 4",
      "lat": 18.3833333,
      "lng": -71.25
    },
    {
      "cityName": "Batey 5",
      "lat": 18.3666667,
      "lng": -71.25
    },
    {
      "cityName": "Batey 6",
      "lat": 18.35,
      "lng": -71.2333333
    },
    {
      "cityName": "Batey Cuchilla",
      "lat": 18.3833333,
      "lng": -71.2666667
    },
    {
      "cityName": "Batey Isabella",
      "lat": 18.45,
      "lng": -71.25
    },
    {
      "cityName": "Bayahonda Alto",
      "lat": 18.4166667,
      "lng": -71.2166667
    },
    {
      "cityName": "Boca del Palmar",
      "lat": 18.4833333,
      "lng": -71.3333333
    },
    {
      "cityName": "Cabeza de Toro",
      "lat": 18.6,
      "lng": -71.2333333
    },
    {
      "cityName": "Cabirmar",
      "lat": 18.5166667,
      "lng": -71.3333333
    },
    {
      "cityName": "Cachimba",
      "lat": 18.4166667,
      "lng": -71.2
    },
    {
      "cityName": "Cachón Seco",
      "lat": 18.4666667,
      "lng": -71.4333333
    },
    {
      "cityName": "Cambronal",
      "lat": 18.45,
      "lng": -71.35
    },
    {
      "cityName": "Cerro al Medio",
      "lat": 18.4833333,
      "lng": -71.4
    },
    {
      "cityName": "Clavellina",
      "lat": 18.5166667,
      "lng": -71.5666667
    },
    {
      "cityName": "Colonia Japonesa",
      "lat": 18.5166667,
      "lng": -71.4333333
    },
    {
      "cityName": "Conuquitos",
      "lat": 18.4166667,
      "lng": -71.1666667
    },
    {
      "cityName": "Dos Brazos",
      "lat": 18.55,
      "lng": -71.4
    },
    {
      "cityName": "Dos Ranchos",
      "lat": 18.5666667,
      "lng": -71.55
    },
    {
      "cityName": "El Anón",
      "lat": 18.3833333,
      "lng": -71.2
    },
    {
      "cityName": "El Botado",
      "lat": 18.5666667,
      "lng": -71.4166667
    },
    {
      "cityName": "El Cerro",
      "lat": 18.4666667,
      "lng": -71.0833333
    },
    {
      "cityName": "El Estero",
      "lat": 18.4833333,
      "lng": -71.45
    },
    {
      "cityName": "El Fodito",
      "lat": 18.5666667,
      "lng": -71.3666667
    },
    {
      "cityName": "El Gajo",
      "lat": 18.5833333,
      "lng": -71.3666667
    },
    {
      "cityName": "El Granado",
      "lat": 18.5333333,
      "lng": -71.2
    },
    {
      "cityName": "El Guanarate",
      "lat": 18.5,
      "lng": -71.1833333
    },
    {
      "cityName": "El Hato",
      "lat": 18.6166667,
      "lng": -71.4166667
    },
    {
      "cityName": "El Higo",
      "lat": 18.5,
      "lng": -71.3
    },
    {
      "cityName": "El Hoyazo",
      "lat": 18.6333333,
      "lng": -71.55
    },
    {
      "cityName": "El Hoyo",
      "lat": 18.6,
      "lng": -71.5166667
    },
    {
      "cityName": "El Iguanal",
      "lat": 18.4666667,
      "lng": -71.1
    },
    {
      "cityName": "El Jobo",
      "lat": 18.35,
      "lng": -71.2
    },
    {
      "cityName": "El Mamón",
      "lat": 18.5,
      "lng": -71.35
    },
    {
      "cityName": "El Millo",
      "lat": 18.55,
      "lng": -71.35
    },
    {
      "cityName": "El Naranjal",
      "lat": 18.5166667,
      "lng": -71.4
    },
    {
      "cityName": "El Palmar",
      "lat": 18.4166667,
      "lng": -71.2333333
    },
    {
      "cityName": "El Pie de la Loma",
      "lat": 18.5333333,
      "lng": -71.45
    },
    {
      "cityName": "El Tamarindo",
      "lat": 18.4833333,
      "lng": -71.35
    },
    {
      "cityName": "El Tanque",
      "lat": 18.4666667,
      "lng": -71.4
    },
    {
      "cityName": "Esperanza",
      "lat": 18.5833333,
      "lng": -71.5166667
    },
    {
      "cityName": "Galváh",
      "lat": 18.5,
      "lng": -71.3333333
    },
    {
      "cityName": "Hato Nuevo",
      "lat": 18.4,
      "lng": -71.2
    },
    {
      "cityName": "Higo de la Cruz",
      "lat": 18.5833333,
      "lng": -71.55
    },
    {
      "cityName": "Jaragua",
      "lat": 18.4833333,
      "lng": -71.5
    },
    {
      "cityName": "La Cidra",
      "lat": 18.5666667,
      "lng": -71.5
    },
    {
      "cityName": "La Cuaba",
      "lat": 18.4,
      "lng": -71.2166667
    },
    {
      "cityName": "La Higüera",
      "lat": 18.4166667,
      "lng": -71.1333333
    },
    {
      "cityName": "La Isleta",
      "lat": 18.5166667,
      "lng": -71.05
    },
    {
      "cityName": "La Plena",
      "lat": 18.5666667,
      "lng": -71.3333333
    },
    {
      "cityName": "La Punta del Cerro",
      "lat": 18.5,
      "lng": -71.4166667
    },
    {
      "cityName": "La Rosa",
      "lat": 18.6,
      "lng": -71.35
    },
    {
      "cityName": "Las Angelitas",
      "lat": 18.5333333,
      "lng": -71.35
    },
    {
      "cityName": "Las Cañitas",
      "lat": 18.6,
      "lng": -71.5
    },
    {
      "cityName": "Las Palmitas",
      "lat": 18.6166667,
      "lng": -71.5333333
    },
    {
      "cityName": "Las Tejas",
      "lat": 18.5166667,
      "lng": -71.3166667
    },
    {
      "cityName": "La Talla",
      "lat": 18.5,
      "lng": -71.3166667
    },
    {
      "cityName": "La Uvilla",
      "lat": 18.3666667,
      "lng": -71.2166667
    },
    {
      "cityName": "Los Dos Brazos",
      "lat": 18.5833333,
      "lng": -71.3
    },
    {
      "cityName": "Los Florián",
      "lat": 18.5833333,
      "lng": -71.4
    },
    {
      "cityName": "Los Guineos",
      "lat": 18.6,
      "lng": -71.4333333
    },
    {
      "cityName": "Los Ríos",
      "lat": 18.5166667,
      "lng": -71.5833333
    },
    {
      "cityName": "Monserrate",
      "lat": 18.3833333,
      "lng": -71.2333333
    },
    {
      "cityName": "Neiba",
      "lat": 18.4666667,
      "lng": -71.4166667
    },
    {
      "cityName": "Palmar Bonito",
      "lat": 18.5666667,
      "lng": -71.4
    },
    {
      "cityName": "Preparo",
      "lat": 18.4666667,
      "lng": -71.35
    },
    {
      "cityName": "Rancho de Marcos",
      "lat": 18.55,
      "lng": -71.3666667
    },
    {
      "cityName": "Salori",
      "lat": 18.8166667,
      "lng": -71.2166667
    },
    {
      "cityName": "Santana",
      "lat": 18.4166667,
      "lng": -71.1833333
    },
    {
      "cityName": "Vuelta Grande",
      "lat": 18.5333333,
      "lng": -71.0333333
    }
  ]
}