{
  "name": "Sanchez Ramirez",
  "cities": [
    {
      "cityName": "Abadesa",
      "lat": 19.0166667,
      "lng": -69.9333333
    },
    {
      "cityName": "Abajo Caballero",
      "lat": 18.9833333,
      "lng": -70.3333333
    },
    {
      "cityName": "Agua Sarca",
      "lat": 19.0833333,
      "lng": -70.2166667
    },
    {
      "cityName": "Aguirre",
      "lat": 19.1333333,
      "lng": -70.15
    },
    {
      "cityName": "Algarrobal",
      "lat": 18.9333333,
      "lng": -70.1
    },
    {
      "cityName": "Alto de Pino",
      "lat": 19.1166667,
      "lng": -70.3
    },
    {
      "cityName": "Angelina",
      "lat": 19.1333333,
      "lng": -70.2333333
    },
    {
      "cityName": "Arenoso",
      "lat": 18.9166667,
      "lng": -69.9666667
    },
    {
      "cityName": "Arroyo Laja",
      "lat": 18.9666667,
      "lng": -70.3333333
    },
    {
      "cityName": "Atalaya",
      "lat": 18.9833333,
      "lng": -70.2833333
    },
    {
      "cityName": "Bacomí",
      "lat": 19.15,
      "lng": -70.25
    },
    {
      "cityName": "Barico",
      "lat": 19.1333333,
      "lng": -70.1
    },
    {
      "cityName": "Barrio La Esperanza",
      "lat": 19.05,
      "lng": -70.15
    },
    {
      "cityName": "Batero",
      "lat": 19.05,
      "lng": -69.9666667
    },
    {
      "cityName": "Batey Doña María",
      "lat": 18.9666667,
      "lng": -69.9333333
    },
    {
      "cityName": "Batey Jabonico",
      "lat": 18.9333333,
      "lng": -69.95
    },
    {
      "cityName": "Batey Las Arenas",
      "lat": 18.95,
      "lng": -69.9333333
    },
    {
      "cityName": "Blanco",
      "lat": 19.05,
      "lng": -70.0166667
    },
    {
      "cityName": "Boca de Camú",
      "lat": 19.15,
      "lng": -70.1166667
    },
    {
      "cityName": "Boma",
      "lat": 19.1,
      "lng": -70.2333333
    },
    {
      "cityName": "Cabeza de Vaca",
      "lat": 19,
      "lng": -70.3166667
    },
    {
      "cityName": "Cabilmal",
      "lat": 18.9666667,
      "lng": -70.2666667
    },
    {
      "cityName": "Cascajal",
      "lat": 19.0333333,
      "lng": -70.3
    },
    {
      "cityName": "Cerro Gordo",
      "lat": 19.1,
      "lng": -70.3666667
    },
    {
      "cityName": "Cevicos Arriba",
      "lat": 18.95,
      "lng": -69.9833333
    },
    {
      "cityName": "Cevicos",
      "lat": 19,
      "lng": -69.9833333
    },
    {
      "cityName": "Chacuey Abajo",
      "lat": 19.0833333,
      "lng": -70.1166667
    },
    {
      "cityName": "Chacuey Maldonado",
      "lat": 18.9666667,
      "lng": -70.0666667
    },
    {
      "cityName": "Cojobal",
      "lat": 18.95,
      "lng": -70.1
    },
    {
      "cityName": "Colesita Arriba",
      "lat": 19.05,
      "lng": -70.0333333
    },
    {
      "cityName": "Colonia Juan Sánchez Ramírez",
      "lat": 19.05,
      "lng": -70.1333333
    },
    {
      "cityName": "Colorado",
      "lat": 18.95,
      "lng": -70.2166667
    },
    {
      "cityName": "Comedero Abajo",
      "lat": 19.0833333,
      "lng": -70.3
    },
    {
      "cityName": "Comedero Arriba",
      "lat": 19.05,
      "lng": -70.3166667
    },
    {
      "cityName": "Consumidero",
      "lat": 19.1,
      "lng": -69.9666667
    },
    {
      "cityName": "Corbanos",
      "lat": 18.9833333,
      "lng": -69.95
    },
    {
      "cityName": "Cruce de Angelina",
      "lat": 19.1333333,
      "lng": -70.2
    },
    {
      "cityName": "Cruce de la Jagua",
      "lat": 19,
      "lng": -69.95
    },
    {
      "cityName": "Cruz de Angelina",
      "lat": 19.1333333,
      "lng": -70.2166667
    },
    {
      "cityName": "Cuaya",
      "lat": 19.1333333,
      "lng": -70.2833333
    },
    {
      "cityName": "Cuesta Blanca",
      "lat": 18.95,
      "lng": -69.95
    },
    {
      "cityName": "Cumba",
      "lat": 18.9833333,
      "lng": -70.1666667
    },
    {
      "cityName": "Dubijitos",
      "lat": 18.9166667,
      "lng": -70.05
    },
    {
      "cityName": "Duey",
      "lat": 18.9666667,
      "lng": -70.0166667
    },
    {
      "cityName": "El Aguacate",
      "lat": 19.0333333,
      "lng": -70.2666667
    },
    {
      "cityName": "El Aguacatico",
      "lat": 19.0833333,
      "lng": -70.0833333
    },
    {
      "cityName": "El Callejón",
      "lat": 18.9166667,
      "lng": -70.1666667
    },
    {
      "cityName": "El Caño",
      "lat": 19.05,
      "lng": -70
    },
    {
      "cityName": "El Charco",
      "lat": 19.1333333,
      "lng": -70.1166667
    },
    {
      "cityName": "El Ciguar",
      "lat": 19.0666667,
      "lng": -69.95
    },
    {
      "cityName": "El Cruce de Segundo",
      "lat": 19.0333333,
      "lng": -70.0333333
    },
    {
      "cityName": "El Cruce de Vásquez",
      "lat": 19.0333333,
      "lng": -70.0666667
    },
    {
      "cityName": "El Cruce",
      "lat": 19.0833333,
      "lng": -70.2833333
    },
    {
      "cityName": "El Diviso",
      "lat": 19.0166667,
      "lng": -70.2833333
    },
    {
      "cityName": "El Gramal",
      "lat": 18.9166667,
      "lng": -69.9833333
    },
    {
      "cityName": "El Hatillo",
      "lat": 18.95,
      "lng": -70.25
    },
    {
      "cityName": "El Hato",
      "lat": 19.05,
      "lng": -70.25
    },
    {
      "cityName": "El Higo",
      "lat": 18.8833333,
      "lng": -70.15
    },
    {
      "cityName": "El Higo Gordo",
      "lat": 19.05,
      "lng": -70.3
    },
    {
      "cityName": "El Higüeral",
      "lat": 19.1,
      "lng": -70.15
    },
    {
      "cityName": "El Hoyo",
      "lat": 19.0666667,
      "lng": -70.3333333
    },
    {
      "cityName": "El Hundidero",
      "lat": 19.0333333,
      "lng": -70.25
    },
    {
      "cityName": "El Jagual",
      "lat": 19.1333333,
      "lng": -70.05
    },
    {
      "cityName": "El Limón",
      "lat": 18.9833333,
      "lng": -70.0833333
    },
    {
      "cityName": "El Limpio",
      "lat": 19.1333333,
      "lng": -70.1333333
    },
    {
      "cityName": "El Llagal",
      "lat": 18.8833333,
      "lng": -70.1666667
    },
    {
      "cityName": "El Llano",
      "lat": 18.95,
      "lng": -70.3
    },
    {
      "cityName": "El Mogote",
      "lat": 18.95,
      "lng": -70.2833333
    },
    {
      "cityName": "El Papayo",
      "lat": 18.9,
      "lng": -70.1
    },
    {
      "cityName": "El Paso Chiquién",
      "lat": 18.9333333,
      "lng": -70.1333333
    },
    {
      "cityName": "El Pelú",
      "lat": 19.0666667,
      "lng": -70.0333333
    },
    {
      "cityName": "El Peñón",
      "lat": 19,
      "lng": -70.2333333
    },
    {
      "cityName": "El Platanal",
      "lat": 19,
      "lng": -70.2166667
    },
    {
      "cityName": "El Pozo de la Ceiba",
      "lat": 19.0666667,
      "lng": -70.0166667
    },
    {
      "cityName": "El Pozo",
      "lat": 19.0833333,
      "lng": -70.2
    },
    {
      "cityName": "El Rancho",
      "lat": 19.1,
      "lng": -70.1166667
    },
    {
      "cityName": "El Remolino",
      "lat": 19.15,
      "lng": -70.2333333
    },
    {
      "cityName": "El Rodeo",
      "lat": 19.05,
      "lng": -70.2833333
    },
    {
      "cityName": "Extremadura",
      "lat": 18.9666667,
      "lng": -69.9833333
    },
    {
      "cityName": "Fátima",
      "lat": 18.8666667,
      "lng": -70.1833333
    },
    {
      "cityName": "Guanábano",
      "lat": 19.05,
      "lng": -70.1
    },
    {
      "cityName": "Guardianon",
      "lat": 18.9666667,
      "lng": -70.15
    },
    {
      "cityName": "Gurabo",
      "lat": 19,
      "lng": -70.15
    },
    {
      "cityName": "Hato Mayor",
      "lat": 19.1,
      "lng": -70.2833333
    },
    {
      "cityName": "Hato Viejo",
      "lat": 19.15,
      "lng": -70.15
    },
    {
      "cityName": "Hojancha",
      "lat": 19.0333333,
      "lng": -70.15
    },
    {
      "cityName": "Hoya Larga",
      "lat": 19.0833333,
      "lng": -70.0166667
    },
    {
      "cityName": "Hoyo de Luis",
      "lat": 19.0333333,
      "lng": -70.05
    },
    {
      "cityName": "Jabonico",
      "lat": 18.9166667,
      "lng": -69.95
    },
    {
      "cityName": "Jagua Mocha",
      "lat": 18.9,
      "lng": -70.1333333
    },
    {
      "cityName": "Jibe",
      "lat": 19.0333333,
      "lng": -70.1166667
    },
    {
      "cityName": "Jobo Claro",
      "lat": 18.95,
      "lng": -70.15
    },
    {
      "cityName": "Jobo Macho",
      "lat": 19.15,
      "lng": -70.1333333
    },
    {
      "cityName": "La Amarga",
      "lat": 19,
      "lng": -70.1666667
    },
    {
      "cityName": "La Atravesada",
      "lat": 18.9833333,
      "lng": -70.1166667
    },
    {
      "cityName": "La Bija",
      "lat": 19.1166667,
      "lng": -70.15
    },
    {
      "cityName": "La Bosúa",
      "lat": 18.8833333,
      "lng": -70.1833333
    },
    {
      "cityName": "La Cabilma",
      "lat": 18.9833333,
      "lng": -70.1333333
    },
    {
      "cityName": "La Cana",
      "lat": 19.1,
      "lng": -70.25
    },
    {
      "cityName": "La Ceiba",
      "lat": 19.0833333,
      "lng": -69.95
    },
    {
      "cityName": "La Ceibita",
      "lat": 19.0833333,
      "lng": -69.9666667
    },
    {
      "cityName": "La Cidra",
      "lat": 19.0666667,
      "lng": -70.3
    },
    {
      "cityName": "La Colesita",
      "lat": 19.0333333,
      "lng": -70.0166667
    },
    {
      "cityName": "La Cuesta Blanca",
      "lat": 18.95,
      "lng": -69.9666667
    },
    {
      "cityName": "La Culebra",
      "lat": 19.1333333,
      "lng": -70.0833333
    },
    {
      "cityName": "La Esperanza",
      "lat": 19.0666667,
      "lng": -70.1333333
    },
    {
      "cityName": "La Factoría",
      "lat": 19.1166667,
      "lng": -70.1833333
    },
    {
      "cityName": "La Guamita",
      "lat": 19.0666667,
      "lng": -70.2333333
    },
    {
      "cityName": "La Guáyiga",
      "lat": 19.0166667,
      "lng": -69.9666667
    },
    {
      "cityName": "Laguna Grande",
      "lat": 19.0333333,
      "lng": -69.9833333
    },
    {
      "cityName": "La Hondonada",
      "lat": 18.9333333,
      "lng": -70.05
    },
    {
      "cityName": "La Jabilla",
      "lat": 18.9333333,
      "lng": -70.0666667
    },
    {
      "cityName": "Lajas",
      "lat": 18.9,
      "lng": -70.15
    },
    {
      "cityName": "La Labranza",
      "lat": 19.0166667,
      "lng": -70.0666667
    },
    {
      "cityName": "La Lechoza",
      "lat": 19.0166667,
      "lng": -70.15
    },
    {
      "cityName": "La Lisa Arriba",
      "lat": 18.9166667,
      "lng": -70
    },
    {
      "cityName": "La Llanada",
      "lat": 18.9333333,
      "lng": -70.0166667
    },
    {
      "cityName": "La Mata",
      "lat": 19.1,
      "lng": -70.1666667
    },
    {
      "cityName": "La Mora",
      "lat": 19.0166667,
      "lng": -70.0333333
    },
    {
      "cityName": "La Piña",
      "lat": 19.05,
      "lng": -70.1666667
    },
    {
      "cityName": "La Piñita",
      "lat": 18.9166667,
      "lng": -70.1833333
    },
    {
      "cityName": "La Pinta",
      "lat": 19.0666667,
      "lng": -70.2
    },
    {
      "cityName": "La Pocilga",
      "lat": 19.0166667,
      "lng": -70.2166667
    },
    {
      "cityName": "La Quebradilla",
      "lat": 18.8833333,
      "lng": -70.2166667
    },
    {
      "cityName": "La Recta",
      "lat": 19.0833333,
      "lng": -70.1833333
    },
    {
      "cityName": "La Resbalosa",
      "lat": 18.9833333,
      "lng": -70.2666667
    },
    {
      "cityName": "La Romana",
      "lat": 19.0666667,
      "lng": -70.35
    },
    {
      "cityName": "La Sabana",
      "lat": 19,
      "lng": -70.3
    },
    {
      "cityName": "Las Cien Tareas",
      "lat": 19.1166667,
      "lng": -70.05
    },
    {
      "cityName": "Las Cruces",
      "lat": 19.05,
      "lng": -70.2
    },
    {
      "cityName": "Las Dos Palmas",
      "lat": 18.9166667,
      "lng": -70.1166667
    },
    {
      "cityName": "La Soledad",
      "lat": 19.1166667,
      "lng": -70.1166667
    },
    {
      "cityName": "Las Palmillas",
      "lat": 19.0666667,
      "lng": -70.1166667
    },
    {
      "cityName": "Las Tres Bocas",
      "lat": 18.8833333,
      "lng": -70.1333333
    },
    {
      "cityName": "Las Tres Ceibas",
      "lat": 18.9833333,
      "lng": -70.3
    },
    {
      "cityName": "Las Yayas",
      "lat": 19,
      "lng": -70.0833333
    },
    {
      "cityName": "La Trinchera",
      "lat": 18.9666667,
      "lng": -70.2333333
    },
    {
      "cityName": "La Tusa",
      "lat": 19.0666667,
      "lng": -70.0666667
    },
    {
      "cityName": "La Vuelta",
      "lat": 19.0833333,
      "lng": -70.1
    },
    {
      "cityName": "La Yautía",
      "lat": 18.9333333,
      "lng": -70.2833333
    },
    {
      "cityName": "La Zambrana",
      "lat": 18.9666667,
      "lng": -70.1333333
    },
    {
      "cityName": "La Zumbadora",
      "lat": 19.05,
      "lng": -70.05
    },
    {
      "cityName": "Limoncito",
      "lat": 19.1333333,
      "lng": -70.25
    },
    {
      "cityName": "Los Botados",
      "lat": 19,
      "lng": -70.25
    },
    {
      "cityName": "Los Brazos",
      "lat": 19,
      "lng": -70.2666667
    },
    {
      "cityName": "Los Caboríes",
      "lat": 19.0333333,
      "lng": -70.3166667
    },
    {
      "cityName": "Los Cacaos",
      "lat": 18.9333333,
      "lng": -70.0833333
    },
    {
      "cityName": "Los Caguelles",
      "lat": 19.0833333,
      "lng": -70.2333333
    },
    {
      "cityName": "Los Cajuiles",
      "lat": 19,
      "lng": -69.9666667
    },
    {
      "cityName": "Los Callejones",
      "lat": 19,
      "lng": -70.0666667
    },
    {
      "cityName": "Los Capaces",
      "lat": 18.9666667,
      "lng": -70.1
    },
    {
      "cityName": "Los Catuanes",
      "lat": 19.0166667,
      "lng": -70.3
    },
    {
      "cityName": "Los Conucones",
      "lat": 19.0333333,
      "lng": -70.2333333
    },
    {
      "cityName": "Los Higos",
      "lat": 18.9333333,
      "lng": -70
    },
    {
      "cityName": "Los Jaguales",
      "lat": 19,
      "lng": -70.2833333
    },
    {
      "cityName": "Los Palmaritos",
      "lat": 19.0166667,
      "lng": -70.2666667
    },
    {
      "cityName": "Los Peralejos",
      "lat": 19.0166667,
      "lng": -70
    },
    {
      "cityName": "Los Ranchos",
      "lat": 19,
      "lng": -70.2
    },
    {
      "cityName": "Los Tres Pasos",
      "lat": 18.9666667,
      "lng": -70.0833333
    },
    {
      "cityName": "Monte Claro",
      "lat": 19.0666667,
      "lng": -70.05
    },
    {
      "cityName": "Monte Negro",
      "lat": 18.9666667,
      "lng": -70.1833333
    },
    {
      "cityName": "Paradero",
      "lat": 18.9333333,
      "lng": -70.15
    },
    {
      "cityName": "Peñalejos",
      "lat": 19.0666667,
      "lng": -70.0833333
    },
    {
      "cityName": "Pisaña",
      "lat": 19.0333333,
      "lng": -70.2166667
    },
    {
      "cityName": "Pueblo Viejo",
      "lat": 18.9333333,
      "lng": -70.1833333
    },
    {
      "cityName": "Quiña Sueño",
      "lat": 19.05,
      "lng": -70.1833333
    },
    {
      "cityName": "Río Viejo",
      "lat": 19.15,
      "lng": -70.1833333
    },
    {
      "cityName": "Sabana Abajo",
      "lat": 19.05,
      "lng": -69.9833333
    },
    {
      "cityName": "Sabana Chiquita",
      "lat": 19.0666667,
      "lng": -70
    },
    {
      "cityName": "Sabana del Maricao",
      "lat": 19.0166667,
      "lng": -69.9833333
    },
    {
      "cityName": "Sabana del Meladito",
      "lat": 19.0166667,
      "lng": -70.2333333
    },
    {
      "cityName": "Sabana Grande Abajo",
      "lat": 19.0333333,
      "lng": -70.0833333
    },
    {
      "cityName": "Sabana Larga",
      "lat": 19.0166667,
      "lng": -70.1166667
    },
    {
      "cityName": "Sabana Verde",
      "lat": 18.9333333,
      "lng": -70.2166667
    },
    {
      "cityName": "San Juan",
      "lat": 18.9333333,
      "lng": -70.2
    },
    {
      "cityName": "Sonador",
      "lat": 18.9833333,
      "lng": -70
    },
    {
      "cityName": "Tocoa",
      "lat": 18.9,
      "lng": -70.2
    },
    {
      "cityName": "Valle Grande",
      "lat": 19.0333333,
      "lng": -69.9333333
    },
    {
      "cityName": "Villa Raza",
      "lat": 19.0166667,
      "lng": -70.1
    },
    {
      "cityName": "Yujo Abajo",
      "lat": 18.95,
      "lng": -70.3166667
    },
    {
      "cityName": "Yunita",
      "lat": 19.0666667,
      "lng": -69.9666667
    },
    {
      "cityName": "Zambrana Arriba",
      "lat": 18.9333333,
      "lng": -70.1166667
    }
  ]
}