{
  "name": "Splitsko-Dalmatinska",
  "cities": [
    {
      "cityName": "Abram",
      "lat": 43.7263889,
      "lng": 16.6313889
    },
    {
      "cityName": "Abramovici",
      "lat": 43.5488889,
      "lng": 16.8411111
    },
    {
      "cityName": "Akrap",
      "lat": 43.5722222,
      "lng": 16.6841667
    },
    {
      "cityName": "Almissa",
      "lat": 43.4447222,
      "lng": 16.6886111
    },
    {
      "cityName": "Amizici",
      "lat": 43.5255556,
      "lng": 16.5702778
    },
    {
      "cityName": "Ancici",
      "lat": 43.5652778,
      "lng": 16.9002778
    },
    {
      "cityName": "Apatija",
      "lat": 43.5,
      "lng": 16.1
    },
    {
      "cityName": "Arbanija",
      "lat": 43.5122222,
      "lng": 16.2922222
    },
    {
      "cityName": "Arzano",
      "lat": 43.5908333,
      "lng": 16.9844444
    },
    {
      "cityName": "Babajici",
      "lat": 43.45,
      "lng": 16.85
    },
    {
      "cityName": "Babici",
      "lat": 43.5477778,
      "lng": 16.7866667
    },
    {
      "cityName": "Bajagic",
      "lat": 43.7566667,
      "lng": 16.6666667
    },
    {
      "cityName": "Bajica Glavica",
      "lat": 43.6158333,
      "lng": 16.6869444
    },
    {
      "cityName": "Bajici",
      "lat": 43.5041667,
      "lng": 16.9391667
    },
    {
      "cityName": "Bajlo",
      "lat": 43.5855556,
      "lng": 16.9505556
    },
    {
      "cityName": "Bajnice",
      "lat": 43.4708333,
      "lng": 16.5788889
    },
    {
      "cityName": "Bakovici",
      "lat": 43.7544444,
      "lng": 16.6694444
    },
    {
      "cityName": "Balajic Marmun",
      "lat": 43.7447222,
      "lng": 16.6875
    },
    {
      "cityName": "Balici",
      "lat": 43.5766667,
      "lng": 16.5716667
    },
    {
      "cityName": "Balte",
      "lat": 43.575,
      "lng": 16.8852778
    },
    {
      "cityName": "Bandica",
      "lat": 43.8691667,
      "lng": 16.5952778
    },
    {
      "cityName": "Bandici",
      "lat": 43.8361111,
      "lng": 16.5713889
    },
    {
      "cityName": "Bandove",
      "lat": 43.6038889,
      "lng": 16.8086111
    },
    {
      "cityName": "Bandovi",
      "lat": 43.6333333,
      "lng": 16.9
    },
    {
      "cityName": "Bani",
      "lat": 43.5697222,
      "lng": 16.7452778
    },
    {
      "cityName": "Banici",
      "lat": 43.69,
      "lng": 16.7236111
    },
    {
      "cityName": "Banj",
      "lat": 43.5844444,
      "lng": 16.5669444
    },
    {
      "cityName": "Banovici",
      "lat": 43.7716667,
      "lng": 16.6088889
    },
    {
      "cityName": "Baraci",
      "lat": 43.7266667,
      "lng": 16.5905556
    },
    {
      "cityName": "Baren",
      "lat": 43.6308333,
      "lng": 16.7608333
    },
    {
      "cityName": "Barutana",
      "lat": 43.5072222,
      "lng": 16.5147222
    },
    {
      "cityName": "Basici",
      "lat": 43.5011111,
      "lng": 16.6425
    },
    {
      "cityName": "Basina",
      "lat": 43.2002778,
      "lng": 16.6625
    },
    {
      "cityName": "Basinci",
      "lat": 43.4875,
      "lng": 16.2672222
    },
    {
      "cityName": "Basini",
      "lat": 43.5275,
      "lng": 16.5022222
    },
    {
      "cityName": "Baska Voda",
      "lat": 43.3569444,
      "lng": 16.9502778
    },
    {
      "cityName": "Batalici",
      "lat": 43.5205556,
      "lng": 17.0136111
    },
    {
      "cityName": "Batarali",
      "lat": 43.6197222,
      "lng": 16.6311111
    },
    {
      "cityName": "Batarelo",
      "lat": 43.7202778,
      "lng": 16.5883333
    },
    {
      "cityName": "Batinici",
      "lat": 43.5219444,
      "lng": 17.0366667
    },
    {
      "cityName": "Batlan",
      "lat": 43.7005556,
      "lng": 16.7358333
    },
    {
      "cityName": "Bazici",
      "lat": 43.67,
      "lng": 16.7580556
    },
    {
      "cityName": "Beare",
      "lat": 43.7316667,
      "lng": 16.54
    },
    {
      "cityName": "Begove Drage",
      "lat": 43.7658333,
      "lng": 16.7238889
    },
    {
      "cityName": "Belandzic",
      "lat": 43.8230556,
      "lng": 16.5097222
    },
    {
      "cityName": "Belinovaca",
      "lat": 43.5672222,
      "lng": 16.5283333
    },
    {
      "cityName": "Bezina",
      "lat": 43.6130556,
      "lng": 16.5033333
    },
    {
      "cityName": "Bijader",
      "lat": 43.545,
      "lng": 16.9597222
    },
    {
      "cityName": "Bili Brig",
      "lat": 43.7655556,
      "lng": 16.7338889
    },
    {
      "cityName": "Bilica Gradina",
      "lat": 43.5355556,
      "lng": 17.0397222
    },
    {
      "cityName": "Bilin",
      "lat": 43.7972222,
      "lng": 16.7130556
    },
    {
      "cityName": "Bilokapici",
      "lat": 43.6705556,
      "lng": 16.7358333
    },
    {
      "cityName": "Bilusic",
      "lat": 43.785,
      "lng": 16.7116667
    },
    {
      "cityName": "Biorine",
      "lat": 43.5530556,
      "lng": 16.8291667
    },
    {
      "cityName": "Bisevo",
      "lat": 42.9833333,
      "lng": 16.0166667
    },
    {
      "cityName": "Bisko",
      "lat": 43.5802778,
      "lng": 16.6819444
    },
    {
      "cityName": "Bitelic",
      "lat": 43.8152778,
      "lng": 16.6427778
    },
    {
      "cityName": "Bitunjac",
      "lat": 43.6852778,
      "lng": 16.7725
    },
    {
      "cityName": "Bitunjski Pod",
      "lat": 43.6997222,
      "lng": 16.8422222
    },
    {
      "cityName": "Blaca",
      "lat": 43.7161111,
      "lng": 16.8122222
    },
    {
      "cityName": "Blato",
      "lat": 43.5030556,
      "lng": 16.8227778
    },
    {
      "cityName": "Blazevici",
      "lat": 43.6302778,
      "lng": 16.8869444
    },
    {
      "cityName": "Blebici",
      "lat": 43.5116667,
      "lng": 16.9466667
    },
    {
      "cityName": "Boban",
      "lat": 43.59,
      "lng": 16.5205556
    },
    {
      "cityName": "Bobani",
      "lat": 43.5683333,
      "lng": 16.5002778
    },
    {
      "cityName": "Bobovisca",
      "lat": 43.3522222,
      "lng": 16.4647222
    },
    {
      "cityName": "Bodrozici",
      "lat": 43.5525,
      "lng": 16.9658333
    },
    {
      "cityName": "Bogdani",
      "lat": 43.7125,
      "lng": 16.6483333
    },
    {
      "cityName": "Bojana",
      "lat": 43.5252778,
      "lng": 16.7763889
    },
    {
      "cityName": "Bojic",
      "lat": 43.6013889,
      "lng": 16.6252778
    },
    {
      "cityName": "Boko",
      "lat": 43.7186111,
      "lng": 16.6436111
    },
    {
      "cityName": "Bol",
      "lat": 43.2619444,
      "lng": 16.655
    },
    {
      "cityName": "Borkovici",
      "lat": 43.7155556,
      "lng": 16.6041667
    },
    {
      "cityName": "Borovci",
      "lat": 43.5013889,
      "lng": 16.8305556
    },
    {
      "cityName": "Bosancici",
      "lat": 43.585,
      "lng": 16.5780556
    },
    {
      "cityName": "Bosnjaci",
      "lat": 43.7680556,
      "lng": 16.6180556
    },
    {
      "cityName": "Bossoglina",
      "lat": 43.5147222,
      "lng": 16.1063889
    },
    {
      "cityName": "Bote",
      "lat": 43.5825,
      "lng": 16.8908333
    },
    {
      "cityName": "Botic",
      "lat": 43.6177778,
      "lng": 16.6355556
    },
    {
      "cityName": "Botice",
      "lat": 43.6625,
      "lng": 16.8097222
    },
    {
      "cityName": "Botici",
      "lat": 43.6113889,
      "lng": 16.6488889
    },
    {
      "cityName": "Boticin Dol",
      "lat": 43.6802778,
      "lng": 16.8752778
    },
    {
      "cityName": "Bozinovici",
      "lat": 43.7586111,
      "lng": 16.6133333
    },
    {
      "cityName": "Bracevic",
      "lat": 43.75,
      "lng": 16.4
    },
    {
      "cityName": "Braculji",
      "lat": 43.8094444,
      "lng": 16.6513889
    },
    {
      "cityName": "Bradarici",
      "lat": 43.5391667,
      "lng": 16.7505556
    },
    {
      "cityName": "Bralici",
      "lat": 43.6291667,
      "lng": 16.6094444
    },
    {
      "cityName": "Bralusa",
      "lat": 43.7427778,
      "lng": 16.7908333
    },
    {
      "cityName": "Brana",
      "lat": 43.5461111,
      "lng": 16.7383333
    },
    {
      "cityName": "Braovici",
      "lat": 43.5258333,
      "lng": 16.6791667
    },
    {
      "cityName": "Bravcev Dolac",
      "lat": 43.8902778,
      "lng": 16.5697222
    },
    {
      "cityName": "Bravici",
      "lat": 43.6011111,
      "lng": 16.9047222
    },
    {
      "cityName": "Brcici",
      "lat": 43.6197222,
      "lng": 16.935
    },
    {
      "cityName": "Brdari",
      "lat": 43.5533333,
      "lng": 16.9575
    },
    {
      "cityName": "Brela",
      "lat": 43.3688889,
      "lng": 16.9341667
    },
    {
      "cityName": "Brela Gornja",
      "lat": 43.4,
      "lng": 16.9166667
    },
    {
      "cityName": "Brkici",
      "lat": 43.6241667,
      "lng": 16.5816667
    },
    {
      "cityName": "Brkljacici",
      "lat": 43.8338889,
      "lng": 16.5922222
    },
    {
      "cityName": "Brnasi",
      "lat": 43.575,
      "lng": 16.7625
    },
    {
      "cityName": "Brnaze",
      "lat": 43.68,
      "lng": 16.6497222
    },
    {
      "cityName": "Brocanac",
      "lat": 43.6166667,
      "lng": 16.4833333
    },
    {
      "cityName": "Brstanovo",
      "lat": 43.6666667,
      "lng": 16.4166667
    },
    {
      "cityName": "Brusje",
      "lat": 43.1927778,
      "lng": 16.4908333
    },
    {
      "cityName": "Bucani",
      "lat": 43.5283333,
      "lng": 16.5169444
    },
    {
      "cityName": "Budici",
      "lat": 43.5705556,
      "lng": 16.8075
    },
    {
      "cityName": "Budimir Bekan",
      "lat": 43.6475,
      "lng": 16.6694444
    },
    {
      "cityName": "Budimir",
      "lat": 43.565,
      "lng": 16.8125
    },
    {
      "cityName": "Bugarini",
      "lat": 43.6447222,
      "lng": 16.7933333
    },
    {
      "cityName": "Bulati",
      "lat": 43.5786111,
      "lng": 16.6730556
    },
    {
      "cityName": "Buliga",
      "lat": 43.58,
      "lng": 16.5147222
    },
    {
      "cityName": "Bulja",
      "lat": 43.7136111,
      "lng": 16.6338889
    },
    {
      "cityName": "Buljani",
      "lat": 43.855,
      "lng": 16.6391667
    },
    {
      "cityName": "Bulovici",
      "lat": 43.8033333,
      "lng": 16.6558333
    },
    {
      "cityName": "Bunja",
      "lat": 43.5169444,
      "lng": 16.7533333
    },
    {
      "cityName": "Burazin Donji",
      "lat": 43.5186111,
      "lng": 16.8913889
    },
    {
      "cityName": "Burazin Gornji",
      "lat": 43.5213889,
      "lng": 16.9183333
    },
    {
      "cityName": "Burici",
      "lat": 43.5763889,
      "lng": 16.5311111
    },
    {
      "cityName": "Butige",
      "lat": 43.6166667,
      "lng": 16.5972222
    },
    {
      "cityName": "Buzdovacici",
      "lat": 43.6277778,
      "lng": 16.5708333
    },
    {
      "cityName": "Cacijin Dolac",
      "lat": 43.7644444,
      "lng": 16.6822222
    },
    {
      "cityName": "Cacvina",
      "lat": 43.6122222,
      "lng": 16.7888889
    },
    {
      "cityName": "Calete",
      "lat": 43.6608333,
      "lng": 16.9044444
    },
    {
      "cityName": "Caporice",
      "lat": 43.5947222,
      "lng": 16.7313889
    },
    {
      "cityName": "Carevici",
      "lat": 43.3852778,
      "lng": 16.9138889
    },
    {
      "cityName": "Carici",
      "lat": 43.6758333,
      "lng": 16.6491667
    },
    {
      "cityName": "Castello Sucurac",
      "lat": 43.5502778,
      "lng": 16.4263889
    },
    {
      "cityName": "Castel-Stafileo",
      "lat": 43.55,
      "lng": 16.3333333
    },
    {
      "cityName": "Castel Vecchio",
      "lat": 43.55,
      "lng": 16.35
    },
    {
      "cityName": "Catrnja",
      "lat": 43.7319444,
      "lng": 16.7916667
    },
    {
      "cityName": "Cavaglovi",
      "lat": 43.7836111,
      "lng": 16.3372222
    },
    {
      "cityName": "Cavri",
      "lat": 43.5694444,
      "lng": 16.8163889
    },
    {
      "cityName": "Cekolici",
      "lat": 43.5305556,
      "lng": 16.7577778
    },
    {
      "cityName": "Celani",
      "lat": 43.5258333,
      "lng": 16.9144444
    },
    {
      "cityName": "Celari",
      "lat": 43.5505556,
      "lng": 16.9680556
    },
    {
      "cityName": "Celina",
      "lat": 43.4166667,
      "lng": 16.7277778
    },
    {
      "cityName": "Celine",
      "lat": 43.6430556,
      "lng": 16.5702778
    },
    {
      "cityName": "Cerenpolje",
      "lat": 43.5402778,
      "lng": 16.8
    },
    {
      "cityName": "Cidovic",
      "lat": 43.6419444,
      "lng": 16.6361111
    },
    {
      "cityName": "Cikota",
      "lat": 43.5313889,
      "lng": 16.7519444
    },
    {
      "cityName": "Ciovo",
      "lat": 43.5166667,
      "lng": 16.2583333
    },
    {
      "cityName": "Cisla",
      "lat": 43.45,
      "lng": 16.7333333
    },
    {
      "cityName": "Cista Provo",
      "lat": 43.5033333,
      "lng": 16.9477778
    },
    {
      "cityName": "Cista Velika",
      "lat": 43.5361111,
      "lng": 16.8916667
    },
    {
      "cityName": "Citluk",
      "lat": 43.7536111,
      "lng": 16.6441667
    },
    {
      "cityName": "Cittavecchia",
      "lat": 43.1847222,
      "lng": 16.5952778
    },
    {
      "cityName": "Clissa",
      "lat": 43.5594444,
      "lng": 16.5194444
    },
    {
      "cityName": "Comisa",
      "lat": 43.0430556,
      "lng": 16.0930556
    },
    {
      "cityName": "Corici",
      "lat": 43.5291667,
      "lng": 16.7633333
    },
    {
      "cityName": "Cosici",
      "lat": 43.55,
      "lng": 16.6544444
    },
    {
      "cityName": "Coso",
      "lat": 43.5375,
      "lng": 16.8738889
    },
    {
      "cityName": "Covic",
      "lat": 43.5922222,
      "lng": 16.7291667
    },
    {
      "cityName": "Covici",
      "lat": 43.6030556,
      "lng": 16.7294444
    },
    {
      "cityName": "Crivac",
      "lat": 43.7666667,
      "lng": 16.3666667
    },
    {
      "cityName": "Crljeni",
      "lat": 43.6794444,
      "lng": 16.8
    },
    {
      "cityName": "Cubelici",
      "lat": 43.5525,
      "lng": 16.9122222
    },
    {
      "cityName": "Cubici",
      "lat": 43.5061111,
      "lng": 16.9305556
    },
    {
      "cityName": "Cubrice",
      "lat": 43.9069444,
      "lng": 16.5191667
    },
    {
      "cityName": "Cuci",
      "lat": 43.6891667,
      "lng": 16.5
    },
    {
      "cityName": "Cugura",
      "lat": 43.7702778,
      "lng": 16.6533333
    },
    {
      "cityName": "Cukusici",
      "lat": 43.6636111,
      "lng": 16.6527778
    },
    {
      "cityName": "Culici",
      "lat": 43.5205556,
      "lng": 16.7686111
    },
    {
      "cityName": "Curkovici",
      "lat": 43.7186111,
      "lng": 16.6355556
    },
    {
      "cityName": "Curlini",
      "lat": 43.5738889,
      "lng": 16.8216667
    },
    {
      "cityName": "Curlinova Ograda",
      "lat": 43.5966667,
      "lng": 16.8047222
    },
    {
      "cityName": "Cvijici",
      "lat": 43.5463889,
      "lng": 16.9677778
    },
    {
      "cityName": "Cvitanovici",
      "lat": 43.6097222,
      "lng": 16.7497222
    },
    {
      "cityName": "Cvitkovici",
      "lat": 43.7541667,
      "lng": 16.6183333
    },
    {
      "cityName": "Cvrljevo",
      "lat": 43.7,
      "lng": 16.3166667
    },
    {
      "cityName": "Dabar",
      "lat": 43.8308333,
      "lng": 16.5569444
    },
    {
      "cityName": "Dadici",
      "lat": 43.7891667,
      "lng": 16.6172222
    },
    {
      "cityName": "Dajaci",
      "lat": 43.5408333,
      "lng": 16.8519444
    },
    {
      "cityName": "Danojlici",
      "lat": 43.58,
      "lng": 16.8911111
    },
    {
      "cityName": "Desisevici",
      "lat": 43.5202778,
      "lng": 16.6772222
    },
    {
      "cityName": "Dicmo Kraj",
      "lat": 43.6375,
      "lng": 16.5819444
    },
    {
      "cityName": "Din",
      "lat": 43.5486111,
      "lng": 16.7402778
    },
    {
      "cityName": "Ðipalo",
      "lat": 43.7130556,
      "lng": 16.5830556
    },
    {
      "cityName": "Dipalo",
      "lat": 43.7205556,
      "lng": 16.5855556
    },
    {
      "cityName": "Divljakinja",
      "lat": 43.6941667,
      "lng": 16.8405556
    },
    {
      "cityName": "Divojevic",
      "lat": 43.6666667,
      "lng": 16.25
    },
    {
      "cityName": "Divulje",
      "lat": 43.5272222,
      "lng": 16.2947222
    },
    {
      "cityName": "Dobranje",
      "lat": 43.5586111,
      "lng": 16.9138889
    },
    {
      "cityName": "Doci",
      "lat": 43.5105556,
      "lng": 16.6675
    },
    {
      "cityName": "Dodig",
      "lat": 43.6375,
      "lng": 16.6908333
    },
    {
      "cityName": "Doija Rosca",
      "lat": 43.5597222,
      "lng": 16.7069444
    },
    {
      "cityName": "Dolac",
      "lat": 43.6775,
      "lng": 16.8055556
    },
    {
      "cityName": "Dolac Donji",
      "lat": 43.5286111,
      "lng": 16.6991667
    },
    {
      "cityName": "Dolac Gornji",
      "lat": 43.5030556,
      "lng": 16.7625
    },
    {
      "cityName": "Dol",
      "lat": 43.1680556,
      "lng": 16.6166667
    },
    {
      "cityName": "Dolic",
      "lat": 43.45,
      "lng": 16.0833333
    },
    {
      "cityName": "Doljani",
      "lat": 43.7613889,
      "lng": 16.6125
    },
    {
      "cityName": "Ðolonga",
      "lat": 43.6055556,
      "lng": 16.5547222
    },
    {
      "cityName": "Dolovi",
      "lat": 43.5497222,
      "lng": 16.7188889
    },
    {
      "cityName": "Domazeti",
      "lat": 43.7530556,
      "lng": 16.5491667
    },
    {
      "cityName": "Domjanovici",
      "lat": 43.8252778,
      "lng": 16.5811111
    },
    {
      "cityName": "Donja Korita",
      "lat": 43.7036111,
      "lng": 16.8052778
    },
    {
      "cityName": "Donja Mala",
      "lat": 43.6761111,
      "lng": 16.5236111
    },
    {
      "cityName": "Donja Tijarica",
      "lat": 43.6063889,
      "lng": 16.8669444
    },
    {
      "cityName": "Donje Ogorje",
      "lat": 43.7441667,
      "lng": 16.435
    },
    {
      "cityName": "Donje Postinje",
      "lat": 43.7166667,
      "lng": 16.4
    },
    {
      "cityName": "Donje Prugodo",
      "lat": 43.6227778,
      "lng": 16.5
    },
    {
      "cityName": "Donje Selo",
      "lat": 43.4008333,
      "lng": 16.2616667
    },
    {
      "cityName": "Donje Sitno",
      "lat": 43.5077778,
      "lng": 16.5955556
    },
    {
      "cityName": "Donji Alebici",
      "lat": 43.7719444,
      "lng": 16.6041667
    },
    {
      "cityName": "Donji Bilandzici",
      "lat": 43.8188889,
      "lng": 16.5208333
    },
    {
      "cityName": "Donji Buljani",
      "lat": 43.7927778,
      "lng": 16.6191667
    },
    {
      "cityName": "Donji Dapici",
      "lat": 43.7875,
      "lng": 16.6247222
    },
    {
      "cityName": "Donji Galici",
      "lat": 43.5347222,
      "lng": 16.9319444
    },
    {
      "cityName": "Donji Gornjani",
      "lat": 43.5233333,
      "lng": 16.6925
    },
    {
      "cityName": "Donji Humac",
      "lat": 43.3422222,
      "lng": 16.5558333
    },
    {
      "cityName": "Donji Jukici",
      "lat": 43.7952778,
      "lng": 16.6138889
    },
    {
      "cityName": "Donji Jurisici",
      "lat": 43.5455556,
      "lng": 16.8397222
    },
    {
      "cityName": "Donji Katuni",
      "lat": 43.4641667,
      "lng": 16.8969444
    },
    {
      "cityName": "Donji Kraj",
      "lat": 43.5711111,
      "lng": 16.6783333
    },
    {
      "cityName": "Donji Kunci",
      "lat": 43.7880556,
      "lng": 16.5480556
    },
    {
      "cityName": "Donji Muc",
      "lat": 43.7261111,
      "lng": 16.5
    },
    {
      "cityName": "Donji Okrug",
      "lat": 43.4955556,
      "lng": 16.2069444
    },
    {
      "cityName": "Donji Radmani",
      "lat": 43.5686111,
      "lng": 16.7883333
    },
    {
      "cityName": "Donji Radosic",
      "lat": 43.6802778,
      "lng": 16.6255556
    },
    {
      "cityName": "Donji Seget",
      "lat": 43.5166667,
      "lng": 16.2333333
    },
    {
      "cityName": "Donji Tabak",
      "lat": 43.6141667,
      "lng": 16.9630556
    },
    {
      "cityName": "Donji Zmiric",
      "lat": 43.7377778,
      "lng": 16.6394444
    },
    {
      "cityName": "Dracevica",
      "lat": 43.3344444,
      "lng": 16.5302778
    },
    {
      "cityName": "Dragani",
      "lat": 43.6586111,
      "lng": 16.7775
    },
    {
      "cityName": "Drivenik",
      "lat": 43.45,
      "lng": 16.15
    },
    {
      "cityName": "Drsci",
      "lat": 43.7016667,
      "lng": 16.5902778
    },
    {
      "cityName": "Duare",
      "lat": 43.4313889,
      "lng": 16.8897222
    },
    {
      "cityName": "Dubrava",
      "lat": 43.5030556,
      "lng": 16.6311111
    },
    {
      "cityName": "Duce",
      "lat": 43.4427778,
      "lng": 16.6683333
    },
    {
      "cityName": "Dugi Rat",
      "lat": 43.4461111,
      "lng": 16.6397222
    },
    {
      "cityName": "Dugobabe",
      "lat": 43.6225,
      "lng": 16.4244444
    },
    {
      "cityName": "Dugopolje",
      "lat": 43.5805556,
      "lng": 16.6027778
    },
    {
      "cityName": "Dujkici",
      "lat": 43.5791667,
      "lng": 16.8513889
    },
    {
      "cityName": "Dujmici",
      "lat": 43.5938889,
      "lng": 16.9827778
    },
    {
      "cityName": "Dujmina",
      "lat": 43.565,
      "lng": 16.7230556
    },
    {
      "cityName": "Dukici",
      "lat": 43.6244444,
      "lng": 16.7019444
    },
    {
      "cityName": "Duvnjacke Cubrice",
      "lat": 43.9002778,
      "lng": 16.5147222
    },
    {
      "cityName": "Dvori",
      "lat": 43.5205556,
      "lng": 16.5727778
    },
    {
      "cityName": "Dvorine",
      "lat": 43.54,
      "lng": 17.0366667
    },
    {
      "cityName": "Dvozderi",
      "lat": 43.5611111,
      "lng": 16.8066667
    },
    {
      "cityName": "Dzaja",
      "lat": 43.6708333,
      "lng": 16.7416667
    },
    {
      "cityName": "Dzolici",
      "lat": 43.6330556,
      "lng": 16.6927778
    },
    {
      "cityName": "Dzudzelici",
      "lat": 43.8402778,
      "lng": 16.6811111
    },
    {
      "cityName": "Ercegovci",
      "lat": 43.5963889,
      "lng": 16.6372222
    },
    {
      "cityName": "Ezgete",
      "lat": 43.8075,
      "lng": 16.6513889
    },
    {
      "cityName": "Fistanici",
      "lat": 43.4030556,
      "lng": 16.8613889
    },
    {
      "cityName": "Gabricevic",
      "lat": 43.6216667,
      "lng": 16.7094444
    },
    {
      "cityName": "Gabrici",
      "lat": 43.5191667,
      "lng": 16.605
    },
    {
      "cityName": "Gacici",
      "lat": 43.5936111,
      "lng": 16.6769444
    },
    {
      "cityName": "Gaci",
      "lat": 43.8155556,
      "lng": 16.6386111
    },
    {
      "cityName": "Gala",
      "lat": 43.715,
      "lng": 16.7269444
    },
    {
      "cityName": "Galici",
      "lat": 43.5775,
      "lng": 16.5122222
    },
    {
      "cityName": "Galinicici",
      "lat": 43.5447222,
      "lng": 16.9652778
    },
    {
      "cityName": "Galzina",
      "lat": 43.7352778,
      "lng": 16.6816667
    },
    {
      "cityName": "Gardun",
      "lat": 43.6116667,
      "lng": 16.7180556
    },
    {
      "cityName": "Garista",
      "lat": 43.7463889,
      "lng": 16.7775
    },
    {
      "cityName": "Garjak",
      "lat": 43.9,
      "lng": 16.4833333
    },
    {
      "cityName": "Gaspari",
      "lat": 43.7983333,
      "lng": 16.5486111
    },
    {
      "cityName": "Gata",
      "lat": 43.4666667,
      "lng": 16.7
    },
    {
      "cityName": "Gavranovici",
      "lat": 43.5725,
      "lng": 16.6152778
    },
    {
      "cityName": "Gilici",
      "lat": 43.6422222,
      "lng": 16.8252778
    },
    {
      "cityName": "Gizdavac",
      "lat": 43.65,
      "lng": 16.4833333
    },
    {
      "cityName": "Gizdici",
      "lat": 43.5547222,
      "lng": 16.5025
    },
    {
      "cityName": "Glaurdici",
      "lat": 43.7663889,
      "lng": 16.5519444
    },
    {
      "cityName": "Glavica",
      "lat": 43.5347222,
      "lng": 17.0252778
    },
    {
      "cityName": "Glavice",
      "lat": 43.7141667,
      "lng": 16.6855556
    },
    {
      "cityName": "Glavina",
      "lat": 43.545,
      "lng": 16.5136111
    },
    {
      "cityName": "Glavurdici",
      "lat": 43.8394444,
      "lng": 16.5852778
    },
    {
      "cityName": "Gljev",
      "lat": 43.7352778,
      "lng": 16.7613889
    },
    {
      "cityName": "Gljevske Staje",
      "lat": 43.7380556,
      "lng": 16.8
    },
    {
      "cityName": "Gluvici",
      "lat": 43.5461111,
      "lng": 16.9547222
    },
    {
      "cityName": "Golemi",
      "lat": 43.595,
      "lng": 16.5066667
    },
    {
      "cityName": "Golinjevo",
      "lat": 43.6077778,
      "lng": 16.7141667
    },
    {
      "cityName": "Gomilica",
      "lat": 43.55,
      "lng": 16.4
    },
    {
      "cityName": "Gornja Korita",
      "lat": 43.7113889,
      "lng": 16.8363889
    },
    {
      "cityName": "Gornja Mala",
      "lat": 43.4111111,
      "lng": 16.915
    },
    {
      "cityName": "Gornja Rosca",
      "lat": 43.5586111,
      "lng": 16.7027778
    },
    {
      "cityName": "Gornja Strazbenica",
      "lat": 43.7202778,
      "lng": 16.7838889
    },
    {
      "cityName": "Gornja Tijarica",
      "lat": 43.5841667,
      "lng": 16.94
    },
    {
      "cityName": "Gornje Ogorje",
      "lat": 43.7422222,
      "lng": 16.5
    },
    {
      "cityName": "Gornje Postinje",
      "lat": 43.7086111,
      "lng": 16.3961111
    },
    {
      "cityName": "Gornje Selo",
      "lat": 43.3552778,
      "lng": 16.3411111
    },
    {
      "cityName": "Gornje Sitno",
      "lat": 43.5172222,
      "lng": 16.6102778
    },
    {
      "cityName": "Gornje Utore",
      "lat": 43.7166667,
      "lng": 16.2833333
    },
    {
      "cityName": "Gornje Vinovo",
      "lat": 43.7333333,
      "lng": 16.2666667
    },
    {
      "cityName": "Gornji Alebici",
      "lat": 43.7747222,
      "lng": 16.6069444
    },
    {
      "cityName": "Gornji Bilandzici",
      "lat": 43.8177778,
      "lng": 16.5116667
    },
    {
      "cityName": "Gornji Bitelic",
      "lat": 43.7936111,
      "lng": 16.63
    },
    {
      "cityName": "Gornji Buljani",
      "lat": 43.8041667,
      "lng": 16.6205556
    },
    {
      "cityName": "Gornji Dapici",
      "lat": 43.8144444,
      "lng": 16.65
    },
    {
      "cityName": "Gornji Galici",
      "lat": 43.55,
      "lng": 16.9438889
    },
    {
      "cityName": "Gornji Gornjani",
      "lat": 43.5216667,
      "lng": 16.7005556
    },
    {
      "cityName": "Gornji Humac",
      "lat": 43.2963889,
      "lng": 16.7211111
    },
    {
      "cityName": "Gornji Jukici",
      "lat": 43.8191667,
      "lng": 16.6172222
    },
    {
      "cityName": "Gornji Jurisici",
      "lat": 43.5427778,
      "lng": 16.8366667
    },
    {
      "cityName": "Gornji Kraj",
      "lat": 43.5783333,
      "lng": 16.6852778
    },
    {
      "cityName": "Gornji Kunci",
      "lat": 43.7986111,
      "lng": 16.5188889
    },
    {
      "cityName": "Gornji Muc",
      "lat": 43.6888889,
      "lng": 16.5
    },
    {
      "cityName": "Gornji Muslimi",
      "lat": 43.7461111,
      "lng": 16.5094444
    },
    {
      "cityName": "Gornji Okrug",
      "lat": 43.4972222,
      "lng": 16.2216667
    },
    {
      "cityName": "Gornji Radmani",
      "lat": 43.5733333,
      "lng": 16.79
    },
    {
      "cityName": "Gornji Radosic",
      "lat": 43.6991667,
      "lng": 16.6025
    },
    {
      "cityName": "Gornji Seget",
      "lat": 43.55,
      "lng": 16.2166667
    },
    {
      "cityName": "Gornji Tabak",
      "lat": 43.6183333,
      "lng": 16.9530556
    },
    {
      "cityName": "Grab",
      "lat": 43.6469444,
      "lng": 16.7613889
    },
    {
      "cityName": "Grabovac",
      "lat": 43.4308333,
      "lng": 16.9866667
    },
    {
      "cityName": "Grabovica",
      "lat": 43.7511111,
      "lng": 16.8058333
    },
    {
      "cityName": "Grad",
      "lat": 43.5177778,
      "lng": 16.7030556
    },
    {
      "cityName": "Grbava",
      "lat": 43.5519444,
      "lng": 16.7430556
    },
    {
      "cityName": "Grcici",
      "lat": 43.6319444,
      "lng": 16.605
    },
    {
      "cityName": "Greda",
      "lat": 43.6152778,
      "lng": 16.6936111
    },
    {
      "cityName": "Grepcine",
      "lat": 43.6822222,
      "lng": 16.8194444
    },
    {
      "cityName": "Grgetici",
      "lat": 43.6783333,
      "lng": 16.7411111
    },
    {
      "cityName": "Grgici",
      "lat": 43.6416667,
      "lng": 16.6755556
    },
    {
      "cityName": "Grhhote",
      "lat": 43.3916667,
      "lng": 16.2872222
    },
    {
      "cityName": "Grio-Klis",
      "lat": 43.5713889,
      "lng": 16.5341667
    },
    {
      "cityName": "Griva",
      "lat": 43.5394444,
      "lng": 16.8538889
    },
    {
      "cityName": "Grmljani",
      "lat": 43.5825,
      "lng": 16.6841667
    },
    {
      "cityName": "Grubisici",
      "lat": 43.6416667,
      "lng": 16.8763889
    },
    {
      "cityName": "Gubavica",
      "lat": 43.6280556,
      "lng": 16.7405556
    },
    {
      "cityName": "Gugici",
      "lat": 43.6752778,
      "lng": 16.6302778
    },
    {
      "cityName": "Gulici",
      "lat": 43.7316667,
      "lng": 16.7661111
    },
    {
      "cityName": "Gunjace",
      "lat": 43.5425,
      "lng": 16.8066667
    },
    {
      "cityName": "Gusici",
      "lat": 43.6452778,
      "lng": 16.8141667
    },
    {
      "cityName": "Gutici",
      "lat": 43.5141667,
      "lng": 17.0322222
    },
    {
      "cityName": "Gvozdeni Brodaric Most",
      "lat": 43.6263889,
      "lng": 16.7097222
    },
    {
      "cityName": "Hajduk",
      "lat": 43.5058333,
      "lng": 16.9561111
    },
    {
      "cityName": "Hajdukovici",
      "lat": 43.6830556,
      "lng": 16.6247222
    },
    {
      "cityName": "Han",
      "lat": 43.7308333,
      "lng": 16.6952778
    },
    {
      "cityName": "Hrgovici",
      "lat": 43.7827778,
      "lng": 16.5788889
    },
    {
      "cityName": "Hristici",
      "lat": 43.6958333,
      "lng": 16.6172222
    },
    {
      "cityName": "Hrvace",
      "lat": 43.7633333,
      "lng": 16.615
    },
    {
      "cityName": "Hvar",
      "lat": 43.1725,
      "lng": 16.4427778
    },
    {
      "cityName": "Isola",
      "lat": 43.6913889,
      "lng": 16.7383333
    },
    {
      "cityName": "Ispod Crkve",
      "lat": 43.61,
      "lng": 16.7169444
    },
    {
      "cityName": "Ivacici",
      "lat": 43.7213889,
      "lng": 16.6977778
    },
    {
      "cityName": "Ivandici",
      "lat": 43.7925,
      "lng": 16.655
    },
    {
      "cityName": "Ivan Dolac",
      "lat": 43.13,
      "lng": 16.6402778
    },
    {
      "cityName": "Ivankovici",
      "lat": 43.5594444,
      "lng": 16.9119444
    },
    {
      "cityName": "Jabuka",
      "lat": 43.6330556,
      "lng": 16.7561111
    },
    {
      "cityName": "Jadrici",
      "lat": 43.6241667,
      "lng": 16.5736111
    },
    {
      "cityName": "Jadrijevici",
      "lat": 43.7130556,
      "lng": 16.6652778
    },
    {
      "cityName": "Jagnjici",
      "lat": 43.6786111,
      "lng": 16.6575
    },
    {
      "cityName": "Jankovici",
      "lat": 43.5775,
      "lng": 16.8597222
    },
    {
      "cityName": "Jarkoviste",
      "lat": 43.6708333,
      "lng": 16.8911111
    },
    {
      "cityName": "Jasensko",
      "lat": 43.73,
      "lng": 16.6544444
    },
    {
      "cityName": "Jelasci",
      "lat": 43.6813889,
      "lng": 16.7391667
    },
    {
      "cityName": "Jelavici",
      "lat": 43.7430556,
      "lng": 16.5322222
    },
    {
      "cityName": "Jelicici",
      "lat": 43.7338889,
      "lng": 16.5283333
    },
    {
      "cityName": "Jelincici",
      "lat": 43.7055556,
      "lng": 16.6744444
    },
    {
      "cityName": "Jelsa",
      "lat": 43.1613889,
      "lng": 16.6930556
    },
    {
      "cityName": "Jerkovic",
      "lat": 43.6036111,
      "lng": 16.7102778
    },
    {
      "cityName": "Jesenice",
      "lat": 43.4666667,
      "lng": 16.6166667
    },
    {
      "cityName": "Jezevic",
      "lat": 43.9166667,
      "lng": 16.4666667
    },
    {
      "cityName": "Jovici",
      "lat": 43.8188889,
      "lng": 16.6297222
    },
    {
      "cityName": "Jukica Kotlina",
      "lat": 43.8383333,
      "lng": 16.6163889
    },
    {
      "cityName": "Jukici",
      "lat": 43.5794444,
      "lng": 16.9383333
    },
    {
      "cityName": "Jurcevici",
      "lat": 43.5783333,
      "lng": 16.9936111
    },
    {
      "cityName": "Jurele",
      "lat": 43.7605556,
      "lng": 16.6630556
    },
    {
      "cityName": "Jurici",
      "lat": 43.6997222,
      "lng": 16.5266667
    },
    {
      "cityName": "Jurisici",
      "lat": 43.53,
      "lng": 16.8130556
    },
    {
      "cityName": "Jurkove",
      "lat": 43.5997222,
      "lng": 16.6980556
    },
    {
      "cityName": "Kacunko",
      "lat": 43.555,
      "lng": 16.7108333
    },
    {
      "cityName": "Kalina",
      "lat": 43.6366667,
      "lng": 16.7019444
    },
    {
      "cityName": "Kambelovac",
      "lat": 43.55,
      "lng": 16.3833333
    },
    {
      "cityName": "Kamber",
      "lat": 43.6838889,
      "lng": 16.7816667
    },
    {
      "cityName": "Kamen",
      "lat": 43.5141667,
      "lng": 16.5147222
    },
    {
      "cityName": "Kamensko",
      "lat": 43.6169444,
      "lng": 16.9530556
    },
    {
      "cityName": "Kanaeti",
      "lat": 43.8022222,
      "lng": 16.5411111
    },
    {
      "cityName": "Kapela",
      "lat": 43.5994444,
      "lng": 16.5908333
    },
    {
      "cityName": "Kapuilice",
      "lat": 43.5352778,
      "lng": 16.8805556
    },
    {
      "cityName": "Karadze",
      "lat": 43.5555556,
      "lng": 16.8133333
    },
    {
      "cityName": "Karakasica",
      "lat": 43.7347222,
      "lng": 16.6369444
    },
    {
      "cityName": "Karamanovac",
      "lat": 43.5402778,
      "lng": 16.72
    },
    {
      "cityName": "Kasin Okrajak",
      "lat": 43.5416667,
      "lng": 17.0225
    },
    {
      "cityName": "Kastel Kamblelovac",
      "lat": 43.5505556,
      "lng": 16.4005556
    },
    {
      "cityName": "Kastel Luksic",
      "lat": 43.5552778,
      "lng": 16.3675
    },
    {
      "cityName": "Katici",
      "lat": 43.6888889,
      "lng": 16.7463889
    },
    {
      "cityName": "Keglji",
      "lat": 43.5272222,
      "lng": 16.9105556
    },
    {
      "cityName": "Kelave",
      "lat": 43.8202778,
      "lng": 16.6238889
    },
    {
      "cityName": "Kevici",
      "lat": 43.6805556,
      "lng": 16.7225
    },
    {
      "cityName": "Kila",
      "lat": 43.5169444,
      "lng": 16.5047222
    },
    {
      "cityName": "Kiso",
      "lat": 43.5983333,
      "lng": 16.8563889
    },
    {
      "cityName": "Kladnice",
      "lat": 43.6833333,
      "lng": 16.3
    },
    {
      "cityName": "Klanac",
      "lat": 43.6372222,
      "lng": 16.5963889
    },
    {
      "cityName": "Klarici",
      "lat": 43.5261111,
      "lng": 16.9030556
    },
    {
      "cityName": "Klaric Kukuz",
      "lat": 43.66,
      "lng": 16.6538889
    },
    {
      "cityName": "Klima",
      "lat": 43.7116667,
      "lng": 16.7988889
    },
    {
      "cityName": "Klis Kosa",
      "lat": 43.5513889,
      "lng": 16.5322222
    },
    {
      "cityName": "Klis Varos",
      "lat": 43.5561111,
      "lng": 16.5255556
    },
    {
      "cityName": "Kljaci",
      "lat": 43.7833333,
      "lng": 16.3333333
    },
    {
      "cityName": "Knezice",
      "lat": 43.76,
      "lng": 16.7255556
    },
    {
      "cityName": "Knez",
      "lat": 43.65,
      "lng": 16.8277778
    },
    {
      "cityName": "Knezovici",
      "lat": 43.5711111,
      "lng": 16.7652778
    },
    {
      "cityName": "Kodzomani",
      "lat": 43.7488889,
      "lng": 16.6166667
    },
    {
      "cityName": "Kokani",
      "lat": 43.725,
      "lng": 16.5291667
    },
    {
      "cityName": "Kokan",
      "lat": 43.6477778,
      "lng": 16.6175
    },
    {
      "cityName": "Kolic",
      "lat": 43.6047222,
      "lng": 16.5822222
    },
    {
      "cityName": "Koljane",
      "lat": 43.8772222,
      "lng": 16.5111111
    },
    {
      "cityName": "Koncul",
      "lat": 43.5138889,
      "lng": 16.7186111
    },
    {
      "cityName": "Konjicici",
      "lat": 43.7658333,
      "lng": 16.5436111
    },
    {
      "cityName": "Konjsko",
      "lat": 43.5919444,
      "lng": 16.5
    },
    {
      "cityName": "Koprivno",
      "lat": 43.6027778,
      "lng": 16.5494444
    },
    {
      "cityName": "Koresnica",
      "lat": 43.5208333,
      "lng": 16.5397222
    },
    {
      "cityName": "Korita",
      "lat": 43.6477778,
      "lng": 16.5366667
    },
    {
      "cityName": "Korusca",
      "lat": 43.6333333,
      "lng": 16.3833333
    },
    {
      "cityName": "Kosiri",
      "lat": 43.555,
      "lng": 16.84
    },
    {
      "cityName": "Kostanje",
      "lat": 43.45,
      "lng": 16.8333333
    },
    {
      "cityName": "Kosute",
      "lat": 43.6308333,
      "lng": 16.695
    },
    {
      "cityName": "Kotarci",
      "lat": 43.5955556,
      "lng": 16.9691667
    },
    {
      "cityName": "Kotlenice",
      "lat": 43.5672222,
      "lng": 16.6452778
    },
    {
      "cityName": "Kotlic",
      "lat": 43.6705556,
      "lng": 16.7922222
    },
    {
      "cityName": "Kovacevici",
      "lat": 43.5266667,
      "lng": 16.5572222
    },
    {
      "cityName": "Kovacevic",
      "lat": 43.4825,
      "lng": 16.8855556
    },
    {
      "cityName": "Kovaci",
      "lat": 43.8852778,
      "lng": 16.5666667
    },
    {
      "cityName": "Kovacine",
      "lat": 43.6455556,
      "lng": 16.8458333
    },
    {
      "cityName": "Kozina",
      "lat": 43.6263889,
      "lng": 16.7930556
    },
    {
      "cityName": "Kraljevici",
      "lat": 43.5105556,
      "lng": 16.8463889
    },
    {
      "cityName": "Kraljici",
      "lat": 43.6863889,
      "lng": 16.5366667
    },
    {
      "cityName": "Krc",
      "lat": 43.7647222,
      "lng": 16.7161111
    },
    {
      "cityName": "Kresevo",
      "lat": 43.4833333,
      "lng": 16.8666667
    },
    {
      "cityName": "Krilo",
      "lat": 43.4641667,
      "lng": 16.5966667
    },
    {
      "cityName": "Krivi Dolac",
      "lat": 43.675,
      "lng": 16.5372222
    },
    {
      "cityName": "Krivodol",
      "lat": 43.6427778,
      "lng": 16.8144444
    },
    {
      "cityName": "Krizanac",
      "lat": 43.6775,
      "lng": 16.6258333
    },
    {
      "cityName": "Krizani",
      "lat": 43.5702778,
      "lng": 16.6111111
    },
    {
      "cityName": "Krka",
      "lat": 43.6291667,
      "lng": 16.7544444
    },
    {
      "cityName": "Krolo",
      "lat": 43.6022222,
      "lng": 16.7613889
    },
    {
      "cityName": "Krunici",
      "lat": 43.8477778,
      "lng": 16.4511111
    },
    {
      "cityName": "Krusvar",
      "lat": 43.6083333,
      "lng": 16.6505556
    },
    {
      "cityName": "Kucice",
      "lat": 43.4333333,
      "lng": 16.8
    },
    {
      "cityName": "Kucine",
      "lat": 43.5325,
      "lng": 16.5308333
    },
    {
      "cityName": "Kuduzi",
      "lat": 43.7130556,
      "lng": 16.5177778
    },
    {
      "cityName": "Kujici",
      "lat": 43.52,
      "lng": 16.8975
    },
    {
      "cityName": "Kuko",
      "lat": 43.6447222,
      "lng": 16.8308333
    },
    {
      "cityName": "Kula",
      "lat": 43.5922222,
      "lng": 16.5108333
    },
    {
      "cityName": "Kulici",
      "lat": 43.7233333,
      "lng": 16.7197222
    },
    {
      "cityName": "Kuljane",
      "lat": 43.6191667,
      "lng": 16.7011111
    },
    {
      "cityName": "Kuncevi",
      "lat": 43.5361111,
      "lng": 16.5036111
    },
    {
      "cityName": "Kundid",
      "lat": 43.6538889,
      "lng": 16.8025
    },
    {
      "cityName": "Kupris",
      "lat": 43.5038889,
      "lng": 16.7163889
    },
    {
      "cityName": "Kurlani",
      "lat": 43.6663889,
      "lng": 16.8333333
    },
    {
      "cityName": "Kursani",
      "lat": 43.5719444,
      "lng": 16.5713889
    },
    {
      "cityName": "Kurtovici",
      "lat": 43.5288889,
      "lng": 16.9036111
    },
    {
      "cityName": "Kustre",
      "lat": 43.6147222,
      "lng": 16.6477778
    },
    {
      "cityName": "Kute",
      "lat": 43.5794444,
      "lng": 16.6077778
    },
    {
      "cityName": "Kut",
      "lat": 43.0566667,
      "lng": 16.1983333
    },
    {
      "cityName": "Kutlesa",
      "lat": 43.4069444,
      "lng": 16.8088889
    },
    {
      "cityName": "Kutlese",
      "lat": 43.5780556,
      "lng": 16.7219444
    },
    {
      "cityName": "Kuznjak",
      "lat": 43.79,
      "lng": 16.6894444
    },
    {
      "cityName": "Labin kod Trogira",
      "lat": 43.5833333,
      "lng": 16.25
    },
    {
      "cityName": "Labrovici",
      "lat": 43.7155556,
      "lng": 16.6861111
    },
    {
      "cityName": "Lacici",
      "lat": 43.6994444,
      "lng": 16.8027778
    },
    {
      "cityName": "Lagator",
      "lat": 43.6336111,
      "lng": 16.8413889
    },
    {
      "cityName": "Laktac",
      "lat": 43.8516667,
      "lng": 16.5372222
    },
    {
      "cityName": "Latkovici",
      "lat": 43.5152778,
      "lng": 16.6952778
    },
    {
      "cityName": "Lazici",
      "lat": 43.5844444,
      "lng": 16.9533333
    },
    {
      "cityName": "Lecevica",
      "lat": 43.65,
      "lng": 16.35
    },
    {
      "cityName": "Ledinice",
      "lat": 43.8266667,
      "lng": 16.6769444
    },
    {
      "cityName": "Lerotici",
      "lat": 43.5513889,
      "lng": 16.8991667
    },
    {
      "cityName": "Leto",
      "lat": 43.6077778,
      "lng": 16.7880556
    },
    {
      "cityName": "Lijici",
      "lat": 43.785,
      "lng": 16.5647222
    },
    {
      "cityName": "Liovici",
      "lat": 43.8211111,
      "lng": 16.5616667
    },
    {
      "cityName": "Liska",
      "lat": 43.5838889,
      "lng": 16.6641667
    },
    {
      "cityName": "Liskovaca",
      "lat": 43.7386111,
      "lng": 16.7941667
    },
    {
      "cityName": "Lissa",
      "lat": 43.0619444,
      "lng": 16.1830556
    },
    {
      "cityName": "Liveli",
      "lat": 43.4947222,
      "lng": 16.2725
    },
    {
      "cityName": "Ljetiste",
      "lat": 43.8658333,
      "lng": 16.5663889
    },
    {
      "cityName": "Ljubicici",
      "lat": 43.5627778,
      "lng": 16.9877778
    },
    {
      "cityName": "Lokva",
      "lat": 43.415,
      "lng": 16.7675
    },
    {
      "cityName": "Lokvina",
      "lat": 43.5125,
      "lng": 16.7338889
    },
    {
      "cityName": "Lolici",
      "lat": 43.525,
      "lng": 16.5513889
    },
    {
      "cityName": "Loncani",
      "lat": 43.7697222,
      "lng": 16.5819444
    },
    {
      "cityName": "Loncari",
      "lat": 43.545,
      "lng": 16.7561111
    },
    {
      "cityName": "Losischie",
      "lat": 43.3469444,
      "lng": 16.4802778
    },
    {
      "cityName": "Lovrec",
      "lat": 43.5,
      "lng": 17
    },
    {
      "cityName": "Lovrica Dolac",
      "lat": 43.7969444,
      "lng": 16.6733333
    },
    {
      "cityName": "Lovrici",
      "lat": 43.7475,
      "lng": 16.6372222
    },
    {
      "cityName": "Lozancici",
      "lat": 43.5161111,
      "lng": 16.7811111
    },
    {
      "cityName": "Lozici",
      "lat": 43.5752778,
      "lng": 16.9975
    },
    {
      "cityName": "Lucane",
      "lat": 43.7183333,
      "lng": 16.5936111
    },
    {
      "cityName": "Lucici",
      "lat": 43.6402778,
      "lng": 16.6780556
    },
    {
      "cityName": "Lujic",
      "lat": 43.5808333,
      "lng": 16.6697222
    },
    {
      "cityName": "Lukacevici",
      "lat": 43.5186111,
      "lng": 16.7819444
    },
    {
      "cityName": "Luke",
      "lat": 43.5205556,
      "lng": 16.7480556
    },
    {
      "cityName": "Lutovije",
      "lat": 43.5402778,
      "lng": 16.665
    },
    {
      "cityName": "Macani",
      "lat": 43.6980556,
      "lng": 16.6125
    },
    {
      "cityName": "Maganjici",
      "lat": 43.7513889,
      "lng": 16.6491667
    },
    {
      "cityName": "Maglici",
      "lat": 43.5355556,
      "lng": 16.8780556
    },
    {
      "cityName": "Majici",
      "lat": 43.5591667,
      "lng": 16.7636111
    },
    {
      "cityName": "Mala Milesina",
      "lat": 43.7666667,
      "lng": 16.45
    },
    {
      "cityName": "Malesi",
      "lat": 43.7405556,
      "lng": 16.7588889
    },
    {
      "cityName": "Mali Didovici",
      "lat": 43.6383333,
      "lng": 16.6469444
    },
    {
      "cityName": "Mali Drvenik",
      "lat": 43.4494444,
      "lng": 16.0886111
    },
    {
      "cityName": "Maljkovo",
      "lat": 43.8169444,
      "lng": 16.5169444
    },
    {
      "cityName": "Malo Grablje",
      "lat": 43.1666667,
      "lng": 16.5
    },
    {
      "cityName": "Malovani",
      "lat": 43.8341667,
      "lng": 16.7033333
    },
    {
      "cityName": "Mamut",
      "lat": 43.5972222,
      "lng": 16.7066667
    },
    {
      "cityName": "Mandaci",
      "lat": 43.6766667,
      "lng": 16.66
    },
    {
      "cityName": "Mandarici",
      "lat": 43.5244444,
      "lng": 16.8780556
    },
    {
      "cityName": "Mandici",
      "lat": 43.5158333,
      "lng": 16.6869444
    },
    {
      "cityName": "Maovice",
      "lat": 43.8833333,
      "lng": 16.3833333
    },
    {
      "cityName": "Marasi",
      "lat": 43.7088889,
      "lng": 16.6808333
    },
    {
      "cityName": "Maras",
      "lat": 43.72,
      "lng": 16.6852778
    },
    {
      "cityName": "Marasovac",
      "lat": 43.7380556,
      "lng": 16.7505556
    },
    {
      "cityName": "Marasovici",
      "lat": 43.5844444,
      "lng": 16.7641667
    },
    {
      "cityName": "Marceta",
      "lat": 43.6405556,
      "lng": 16.6255556
    },
    {
      "cityName": "Marcetici",
      "lat": 43.6263889,
      "lng": 16.615
    },
    {
      "cityName": "Maretici",
      "lat": 43.6636111,
      "lng": 16.5663889
    },
    {
      "cityName": "Marici",
      "lat": 43.6216667,
      "lng": 16.7994444
    },
    {
      "cityName": "Marina",
      "lat": 43.35,
      "lng": 16.45
    },
    {
      "cityName": "Marinovici",
      "lat": 43.7036111,
      "lng": 16.8075
    },
    {
      "cityName": "Marketici",
      "lat": 43.5588889,
      "lng": 16.9733333
    },
    {
      "cityName": "Markovici",
      "lat": 43.7383333,
      "lng": 16.6580556
    },
    {
      "cityName": "Markulin",
      "lat": 43.7766667,
      "lng": 16.6338889
    },
    {
      "cityName": "Marosi",
      "lat": 43.6158333,
      "lng": 16.7997222
    },
    {
      "cityName": "Marovici",
      "lat": 43.7408333,
      "lng": 16.5547222
    },
    {
      "cityName": "Marunica",
      "lat": 43.8230556,
      "lng": 16.5872222
    },
    {
      "cityName": "Marunice",
      "lat": 43.7702778,
      "lng": 16.6288889
    },
    {
      "cityName": "Marusic",
      "lat": 43.5977778,
      "lng": 16.7027778
    },
    {
      "cityName": "Maslinica",
      "lat": 43.3991667,
      "lng": 16.2075
    },
    {
      "cityName": "Matende",
      "lat": 43.7116667,
      "lng": 16.5083333
    },
    {
      "cityName": "Matici",
      "lat": 43.6186111,
      "lng": 16.9480556
    },
    {
      "cityName": "Matijasevici",
      "lat": 43.6752778,
      "lng": 16.7680556
    },
    {
      "cityName": "Matkovici",
      "lat": 43.8094444,
      "lng": 16.6322222
    },
    {
      "cityName": "Mazurin",
      "lat": 43.6827778,
      "lng": 16.6247222
    },
    {
      "cityName": "Medici",
      "lat": 43.5922222,
      "lng": 16.8355556
    },
    {
      "cityName": "Medugorje",
      "lat": 43.6930556,
      "lng": 16.8808333
    },
    {
      "cityName": "Mestrovici",
      "lat": 43.5230556,
      "lng": 17.0336111
    },
    {
      "cityName": "Mihaljevici",
      "lat": 43.5788889,
      "lng": 16.5327778
    },
    {
      "cityName": "Mijici",
      "lat": 43.6352778,
      "lng": 16.5005556
    },
    {
      "cityName": "Milan",
      "lat": 43.7338889,
      "lng": 16.6983333
    },
    {
      "cityName": "Milanovici",
      "lat": 43.6230556,
      "lng": 16.6247222
    },
    {
      "cityName": "Milanovic",
      "lat": 43.7044444,
      "lng": 16.7344444
    },
    {
      "cityName": "Milardovici",
      "lat": 43.5622222,
      "lng": 16.9252778
    },
    {
      "cityName": "Milhovilovici",
      "lat": 43.5697222,
      "lng": 16.5352778
    },
    {
      "cityName": "Milisinovac",
      "lat": 43.8602778,
      "lng": 16.6091667
    },
    {
      "cityName": "Miljak",
      "lat": 43.5230556,
      "lng": 16.7680556
    },
    {
      "cityName": "Miljci",
      "lat": 43.5905556,
      "lng": 16.9802778
    },
    {
      "cityName": "Miljen",
      "lat": 43.6541667,
      "lng": 16.8622222
    },
    {
      "cityName": "Miljkovici",
      "lat": 43.8738889,
      "lng": 16.5113889
    },
    {
      "cityName": "Milna",
      "lat": 43.1625,
      "lng": 16.4919444
    },
    {
      "cityName": "Milun",
      "lat": 43.6572222,
      "lng": 16.6011111
    },
    {
      "cityName": "Mirca",
      "lat": 43.3775,
      "lng": 16.5244444
    },
    {
      "cityName": "Miric",
      "lat": 43.6005556,
      "lng": 16.6641667
    },
    {
      "cityName": "Mirkovici",
      "lat": 43.6441667,
      "lng": 16.6716667
    },
    {
      "cityName": "Mirlovic-Polje",
      "lat": 43.8113889,
      "lng": 16.3430556
    },
    {
      "cityName": "Mirt",
      "lat": 43.6752778,
      "lng": 16.5108333
    },
    {
      "cityName": "Misetino Selo",
      "lat": 43.5583333,
      "lng": 16.7113889
    },
    {
      "cityName": "Misevac",
      "lat": 43.5125,
      "lng": 16.2772222
    },
    {
      "cityName": "Mladina",
      "lat": 43.5947222,
      "lng": 16.75
    },
    {
      "cityName": "Mladine",
      "lat": 43.5741667,
      "lng": 16.8291667
    },
    {
      "cityName": "Mlikotici",
      "lat": 43.535,
      "lng": 16.8447222
    },
    {
      "cityName": "Mojanka",
      "lat": 43.6430556,
      "lng": 16.6113889
    },
    {
      "cityName": "Moljva",
      "lat": 43.5052778,
      "lng": 16.7130556
    },
    {
      "cityName": "Mravince",
      "lat": 43.5333333,
      "lng": 16.5219444
    },
    {
      "cityName": "Mrcela",
      "lat": 43.6652778,
      "lng": 16.8408333
    },
    {
      "cityName": "Mrvica Jarciste",
      "lat": 43.8480556,
      "lng": 16.5838889
    },
    {
      "cityName": "Mrvici",
      "lat": 43.8172222,
      "lng": 16.5672222
    },
    {
      "cityName": "Mudnici",
      "lat": 43.5722222,
      "lng": 16.7372222
    },
    {
      "cityName": "Munivrane",
      "lat": 43.7175,
      "lng": 16.7305556
    },
    {
      "cityName": "Murati",
      "lat": 43.5041667,
      "lng": 16.8555556
    },
    {
      "cityName": "Murvica",
      "lat": 43.2666667,
      "lng": 16.6
    },
    {
      "cityName": "Musinac",
      "lat": 43.5319444,
      "lng": 17.02
    },
    {
      "cityName": "Mustapici",
      "lat": 43.5019444,
      "lng": 16.9608333
    },
    {
      "cityName": "Musterici",
      "lat": 43.7597222,
      "lng": 16.6186111
    },
    {
      "cityName": "Muzerovici",
      "lat": 43.575,
      "lng": 16.8794444
    },
    {
      "cityName": "Na Stanu",
      "lat": 43.5138889,
      "lng": 16.6194444
    },
    {
      "cityName": "Nazlici",
      "lat": 43.6002778,
      "lng": 16.5344444
    },
    {
      "cityName": "Necaj",
      "lat": 43.5302778,
      "lng": 16.7425
    },
    {
      "cityName": "Necujam",
      "lat": 43.3847222,
      "lng": 16.3280556
    },
    {
      "cityName": "Nenadic",
      "lat": 43.8316667,
      "lng": 16.5611111
    },
    {
      "cityName": "Neoric",
      "lat": 43.6805556,
      "lng": 16.5211111
    },
    {
      "cityName": "Nerezisca",
      "lat": 43.3311111,
      "lng": 16.5786111
    },
    {
      "cityName": "Nerlovici",
      "lat": 43.6594444,
      "lng": 16.5991667
    },
    {
      "cityName": "Nevoljici",
      "lat": 43.5919444,
      "lng": 16.7383333
    },
    {
      "cityName": "Nisko",
      "lat": 43.6666667,
      "lng": 16.3666667
    },
    {
      "cityName": "Njivice",
      "lat": 43.6713889,
      "lng": 16.8272222
    },
    {
      "cityName": "Nova Sela",
      "lat": 43.5269444,
      "lng": 16.7733333
    },
    {
      "cityName": "Novi Stafilic",
      "lat": 43.56,
      "lng": 16.3219444
    },
    {
      "cityName": "Novo Selo",
      "lat": 43.3166667,
      "lng": 16.85
    },
    {
      "cityName": "Obravac",
      "lat": 43.7408333,
      "lng": 16.6797222
    },
    {
      "cityName": "Ocinjak",
      "lat": 43.6069444,
      "lng": 16.6577778
    },
    {
      "cityName": "Odrljani",
      "lat": 43.6211111,
      "lng": 16.6986111
    },
    {
      "cityName": "Odza",
      "lat": 43.5663889,
      "lng": 16.5019444
    },
    {
      "cityName": "Ogrebici",
      "lat": 43.8227778,
      "lng": 16.5561111
    },
    {
      "cityName": "Okljucina",
      "lat": 43.0666667,
      "lng": 16.1333333
    },
    {
      "cityName": "Okruglica",
      "lat": 43.5363889,
      "lng": 16.7075
    },
    {
      "cityName": "Opanci",
      "lat": 43.4833333,
      "lng": 16.9833333
    },
    {
      "cityName": "Opsenjak",
      "lat": 43.8594444,
      "lng": 16.5641667
    },
    {
      "cityName": "Orlovac",
      "lat": 43.4225,
      "lng": 16.8705556
    },
    {
      "cityName": "Osoje",
      "lat": 43.5433333,
      "lng": 16.6816667
    },
    {
      "cityName": "Ostrvica",
      "lat": 43.45,
      "lng": 16.75
    },
    {
      "cityName": "Otisic",
      "lat": 43.8436111,
      "lng": 16.5055556
    },
    {
      "cityName": "Otok Staje",
      "lat": 43.695,
      "lng": 16.7833333
    },
    {
      "cityName": "Ovrlja",
      "lat": 43.6861111,
      "lng": 16.7483333
    },
    {
      "cityName": "Ozrna",
      "lat": 43.5641667,
      "lng": 16.535
    },
    {
      "cityName": "Pajici",
      "lat": 43.6211111,
      "lng": 16.5880556
    },
    {
      "cityName": "Palesko",
      "lat": 43.6747222,
      "lng": 16.8102778
    },
    {
      "cityName": "Pavela",
      "lat": 43.5825,
      "lng": 16.7502778
    },
    {
      "cityName": "Pavicici",
      "lat": 43.6966667,
      "lng": 16.6041667
    },
    {
      "cityName": "Pavici",
      "lat": 43.5666667,
      "lng": 16.7536111
    },
    {
      "cityName": "Pavic",
      "lat": 43.5380556,
      "lng": 16.7358333
    },
    {
      "cityName": "Pavlinusici",
      "lat": 43.6588889,
      "lng": 16.8419444
    },
    {
      "cityName": "Pavlovici",
      "lat": 43.5861111,
      "lng": 16.5
    },
    {
      "cityName": "Pekici",
      "lat": 43.7086111,
      "lng": 16.5172222
    },
    {
      "cityName": "Penici",
      "lat": 43.7669444,
      "lng": 16.66
    },
    {
      "cityName": "Pericici",
      "lat": 43.5155556,
      "lng": 16.6133333
    },
    {
      "cityName": "Perici",
      "lat": 43.5755556,
      "lng": 16.6438889
    },
    {
      "cityName": "Peric",
      "lat": 43.5602778,
      "lng": 16.5080556
    },
    {
      "cityName": "Perisici",
      "lat": 43.5013889,
      "lng": 16.855
    },
    {
      "cityName": "Perisi",
      "lat": 43.57,
      "lng": 16.8019444
    },
    {
      "cityName": "Perkovici",
      "lat": 43.8825,
      "lng": 16.5111111
    },
    {
      "cityName": "Peruca",
      "lat": 43.7886111,
      "lng": 16.5886111
    },
    {
      "cityName": "Perusi",
      "lat": 43.8805556,
      "lng": 16.5044444
    },
    {
      "cityName": "Pervani",
      "lat": 43.5833333,
      "lng": 16.94
    },
    {
      "cityName": "Pesa",
      "lat": 43.5869444,
      "lng": 16.8877778
    },
    {
      "cityName": "Pesici",
      "lat": 43.5788889,
      "lng": 16.7583333
    },
    {
      "cityName": "Petomavar",
      "lat": 43.4419444,
      "lng": 16.0847222
    },
    {
      "cityName": "Petricevici",
      "lat": 43.5127778,
      "lng": 17.0238889
    },
    {
      "cityName": "Pezelj",
      "lat": 43.5191667,
      "lng": 16.6977778
    },
    {
      "cityName": "Pisak",
      "lat": 43.4,
      "lng": 16.85
    },
    {
      "cityName": "Pistelek",
      "lat": 43.5952778,
      "lng": 16.9644444
    },
    {
      "cityName": "Pistet",
      "lat": 43.7861111,
      "lng": 16.6991667
    },
    {
      "cityName": "Pitve",
      "lat": 43.1519444,
      "lng": 16.6694444
    },
    {
      "cityName": "Pivci",
      "lat": 43.5522222,
      "lng": 16.7752778
    },
    {
      "cityName": "Plano",
      "lat": 43.55,
      "lng": 16.2666667
    },
    {
      "cityName": "Plazibat",
      "lat": 43.6177778,
      "lng": 16.8652778
    },
    {
      "cityName": "Pleici",
      "lat": 43.5127778,
      "lng": 16.8025
    },
    {
      "cityName": "Plesteni",
      "lat": 43.555,
      "lng": 16.5125
    },
    {
      "cityName": "Pletikosici",
      "lat": 43.7441667,
      "lng": 16.6191667
    },
    {
      "cityName": "Pletikosic",
      "lat": 43.7413889,
      "lng": 16.605
    },
    {
      "cityName": "Pocrnja",
      "lat": 43.5836111,
      "lng": 16.9611111
    },
    {
      "cityName": "Pocrnje",
      "lat": 43.5227778,
      "lng": 16.7827778
    },
    {
      "cityName": "Podadraga",
      "lat": 43.7575,
      "lng": 16.7527778
    },
    {
      "cityName": "Podgrade",
      "lat": 43.4333333,
      "lng": 16.85
    },
    {
      "cityName": "Podgreda",
      "lat": 43.5425,
      "lng": 17.0377778
    },
    {
      "cityName": "Podi",
      "lat": 43.65,
      "lng": 16.7766667
    },
    {
      "cityName": "Podjaram",
      "lat": 43.5655556,
      "lng": 17.0186111
    },
    {
      "cityName": "Podosoje",
      "lat": 43.9,
      "lng": 16.4333333
    },
    {
      "cityName": "Podrug",
      "lat": 43.6325,
      "lng": 16.5986111
    },
    {
      "cityName": "Podselje",
      "lat": 43.05,
      "lng": 16.1666667
    },
    {
      "cityName": "Podspilje",
      "lat": 43.0333333,
      "lng": 16.15
    },
    {
      "cityName": "Podstrana",
      "lat": 43.4833333,
      "lng": 16.5833333
    },
    {
      "cityName": "Podstrazje",
      "lat": 43.0294444,
      "lng": 16.2102778
    },
    {
      "cityName": "Poduba",
      "lat": 43.6663889,
      "lng": 16.9055556
    },
    {
      "cityName": "Podumac",
      "lat": 43.6147222,
      "lng": 16.5038889
    },
    {
      "cityName": "Pogacici",
      "lat": 43.5825,
      "lng": 16.9005556
    },
    {
      "cityName": "Poljak",
      "lat": 43.7136111,
      "lng": 16.6602778
    },
    {
      "cityName": "Polje",
      "lat": 42.9722222,
      "lng": 16.0094444
    },
    {
      "cityName": "Posrtva",
      "lat": 43.6088889,
      "lng": 16.8080556
    },
    {
      "cityName": "Postira",
      "lat": 43.3763889,
      "lng": 16.6322222
    },
    {
      "cityName": "Potravlje",
      "lat": 43.7911111,
      "lng": 16.5508333
    },
    {
      "cityName": "Povia",
      "lat": 43.3336111,
      "lng": 16.8397222
    },
    {
      "cityName": "Prancevici",
      "lat": 43.5447222,
      "lng": 16.735
    },
    {
      "cityName": "Pranici",
      "lat": 43.6011111,
      "lng": 16.6680556
    },
    {
      "cityName": "Prapatnica",
      "lat": 43.6,
      "lng": 16.2
    },
    {
      "cityName": "Praznica",
      "lat": 43.3202778,
      "lng": 16.6977778
    },
    {
      "cityName": "Prelasi",
      "lat": 43.565,
      "lng": 16.8358333
    },
    {
      "cityName": "Prgomet",
      "lat": 43.6166667,
      "lng": 16.2333333
    },
    {
      "cityName": "Priblace",
      "lat": 43.6822222,
      "lng": 16.7230556
    },
    {
      "cityName": "Pribude",
      "lat": 43.7666667,
      "lng": 16.4
    },
    {
      "cityName": "Primorci",
      "lat": 43.7811111,
      "lng": 16.5611111
    },
    {
      "cityName": "Priorice",
      "lat": 43.7788889,
      "lng": 16.6827778
    },
    {
      "cityName": "Pripuzi",
      "lat": 43.5427778,
      "lng": 17.0455556
    },
    {
      "cityName": "Prisoje",
      "lat": 43.6269444,
      "lng": 16.6127778
    },
    {
      "cityName": "Privor",
      "lat": 43.5283333,
      "lng": 16.5527778
    },
    {
      "cityName": "Prlain",
      "lat": 43.5077778,
      "lng": 16.76
    },
    {
      "cityName": "Progon",
      "lat": 43.5913889,
      "lng": 16.9869444
    },
    {
      "cityName": "Projici",
      "lat": 43.6647222,
      "lng": 16.8066667
    },
    {
      "cityName": "Prolascici",
      "lat": 43.8080556,
      "lng": 16.5330556
    },
    {
      "cityName": "Prolici",
      "lat": 43.7794444,
      "lng": 16.5738889
    },
    {
      "cityName": "Prolosici",
      "lat": 43.8322222,
      "lng": 16.5811111
    },
    {
      "cityName": "Przici",
      "lat": 43.5238889,
      "lng": 17.0019444
    },
    {
      "cityName": "Pucisca",
      "lat": 43.3477778,
      "lng": 16.7338889
    },
    {
      "cityName": "Punde",
      "lat": 43.565,
      "lng": 16.6536111
    },
    {
      "cityName": "Putisic",
      "lat": 43.5097222,
      "lng": 16.7058333
    },
    {
      "cityName": "Putnik",
      "lat": 43.6722222,
      "lng": 16.8091667
    },
    {
      "cityName": "Radani",
      "lat": 43.765,
      "lng": 16.6022222
    },
    {
      "cityName": "Radanovici",
      "lat": 43.6616667,
      "lng": 16.5722222
    },
    {
      "cityName": "Radeni",
      "lat": 43.8355556,
      "lng": 16.5122222
    },
    {
      "cityName": "Radicici",
      "lat": 43.5052778,
      "lng": 16.6313889
    },
    {
      "cityName": "Radici",
      "lat": 43.5625,
      "lng": 16.5211111
    },
    {
      "cityName": "Radic",
      "lat": 43.5497222,
      "lng": 16.5033333
    },
    {
      "cityName": "Radinje",
      "lat": 43.6333333,
      "lng": 16.5336111
    },
    {
      "cityName": "Radosic",
      "lat": 43.6,
      "lng": 16.3166667
    },
    {
      "cityName": "Radovici",
      "lat": 43.5141667,
      "lng": 16.7330556
    },
    {
      "cityName": "Raduna",
      "lat": 43.6291667,
      "lng": 16.8061111
    },
    {
      "cityName": "Radunic",
      "lat": 43.7333333,
      "lng": 16.4333333
    },
    {
      "cityName": "Rajevci",
      "lat": 43.6027778,
      "lng": 16.6627778
    },
    {
      "cityName": "Rajici",
      "lat": 43.5175,
      "lng": 16.9002778
    },
    {
      "cityName": "Rakicani",
      "lat": 43.5980556,
      "lng": 16.7
    },
    {
      "cityName": "Ramljak",
      "lat": 43.6027778,
      "lng": 16.5433333
    },
    {
      "cityName": "Ramljane",
      "lat": 43.7333333,
      "lng": 16.3833333
    },
    {
      "cityName": "Rapovac",
      "lat": 43.5322222,
      "lng": 16.5005556
    },
    {
      "cityName": "Raseljke",
      "lat": 43.7697222,
      "lng": 16.7191667
    },
    {
      "cityName": "Ratalj",
      "lat": 43.6208333,
      "lng": 16.5038889
    },
    {
      "cityName": "Ratkovici",
      "lat": 43.6555556,
      "lng": 16.7919444
    },
    {
      "cityName": "Ravilice",
      "lat": 43.4166667,
      "lng": 16.7
    },
    {
      "cityName": "Ravnik",
      "lat": 43.6269444,
      "lng": 16.7811111
    },
    {
      "cityName": "Razorina",
      "lat": 43.7527778,
      "lng": 16.7941667
    },
    {
      "cityName": "Rebruse",
      "lat": 43.6641667,
      "lng": 16.9130556
    },
    {
      "cityName": "Ribicici",
      "lat": 43.5077778,
      "lng": 16.9533333
    },
    {
      "cityName": "Ripista",
      "lat": 43.7452778,
      "lng": 16.795
    },
    {
      "cityName": "Rogac",
      "lat": 43.3955556,
      "lng": 16.2969444
    },
    {
      "cityName": "Roguljici",
      "lat": 43.6102778,
      "lng": 16.7352778
    },
    {
      "cityName": "Rogulji",
      "lat": 43.6219444,
      "lng": 16.5855556
    },
    {
      "cityName": "Rojnice",
      "lat": 43.5263889,
      "lng": 16.8783333
    },
    {
      "cityName": "Romci",
      "lat": 43.7061111,
      "lng": 16.6622222
    },
    {
      "cityName": "Ronici",
      "lat": 43.7775,
      "lng": 16.6447222
    },
    {
      "cityName": "Rosandici",
      "lat": 43.6833333,
      "lng": 16.7872222
    },
    {
      "cityName": "Rosandic",
      "lat": 43.6836111,
      "lng": 16.8491667
    },
    {
      "cityName": "Rozani",
      "lat": 43.6588889,
      "lng": 16.6630556
    },
    {
      "cityName": "Roze",
      "lat": 43.6575,
      "lng": 16.835
    },
    {
      "cityName": "Rozici",
      "lat": 43.7791667,
      "lng": 16.565
    },
    {
      "cityName": "Ruda",
      "lat": 43.6702778,
      "lng": 16.7983333
    },
    {
      "cityName": "Ruda Staje",
      "lat": 43.6791667,
      "lng": 16.8375
    },
    {
      "cityName": "Rudina",
      "lat": 43.2,
      "lng": 16.6
    },
    {
      "cityName": "Rukavac",
      "lat": 43.0225,
      "lng": 16.2119444
    },
    {
      "cityName": "Rumin",
      "lat": 43.7758333,
      "lng": 16.6375
    },
    {
      "cityName": "Runja",
      "lat": 43.7261111,
      "lng": 16.6466667
    },
    {
      "cityName": "Runjici",
      "lat": 43.7438889,
      "lng": 16.6783333
    },
    {
      "cityName": "Ruscici",
      "lat": 43.5944444,
      "lng": 16.8686111
    },
    {
      "cityName": "Ruscic",
      "lat": 43.555,
      "lng": 16.7436111
    },
    {
      "cityName": "Rusic",
      "lat": 43.6436111,
      "lng": 16.5644444
    },
    {
      "cityName": "Sabici",
      "lat": 43.6927778,
      "lng": 16.6452778
    },
    {
      "cityName": "Sablici",
      "lat": 43.5794444,
      "lng": 16.9413889
    },
    {
      "cityName": "Sakici",
      "lat": 43.5377778,
      "lng": 17.0133333
    },
    {
      "cityName": "Salona",
      "lat": 43.55,
      "lng": 16.5
    },
    {
      "cityName": "Samadan",
      "lat": 43.6061111,
      "lng": 16.5469444
    },
    {
      "cityName": "San Pietro della Brazza",
      "lat": 43.3841667,
      "lng": 16.5508333
    },
    {
      "cityName": "Saraci",
      "lat": 43.5986111,
      "lng": 16.7316667
    },
    {
      "cityName": "Sarici",
      "lat": 43.5291667,
      "lng": 16.7880556
    },
    {
      "cityName": "Satric",
      "lat": 43.78,
      "lng": 16.5822222
    },
    {
      "cityName": "Segovici",
      "lat": 43.6930556,
      "lng": 16.5013889
    },
    {
      "cityName": "Selca kod Starigrada",
      "lat": 43.1666667,
      "lng": 16.5666667
    },
    {
      "cityName": "Selina",
      "lat": 43.6147222,
      "lng": 16.8836111
    },
    {
      "cityName": "Selo Spliska",
      "lat": 43.3752778,
      "lng": 16.6072222
    },
    {
      "cityName": "Selo Vranjic",
      "lat": 43.5333333,
      "lng": 16.4666667
    },
    {
      "cityName": "Senj",
      "lat": 43.5833333,
      "lng": 16.5838889
    },
    {
      "cityName": "Seoca",
      "lat": 43.4666667,
      "lng": 16.8166667
    },
    {
      "cityName": "Sestanovac",
      "lat": 43.4544444,
      "lng": 16.9113889
    },
    {
      "cityName": "Sestinac",
      "lat": 43.6975,
      "lng": 16.7825
    },
    {
      "cityName": "Setka",
      "lat": 43.5408333,
      "lng": 16.8708333
    },
    {
      "cityName": "Sicane",
      "lat": 43.6577778,
      "lng": 16.5891667
    },
    {
      "cityName": "Signo",
      "lat": 43.7036111,
      "lng": 16.6394444
    },
    {
      "cityName": "Sikavice",
      "lat": 43.5697222,
      "lng": 16.7152778
    },
    {
      "cityName": "Silic",
      "lat": 43.6227778,
      "lng": 16.6194444
    },
    {
      "cityName": "Simac",
      "lat": 43.7072222,
      "lng": 16.6302778
    },
    {
      "cityName": "Simlese",
      "lat": 43.7744444,
      "lng": 16.6558333
    },
    {
      "cityName": "Simunici",
      "lat": 43.5180556,
      "lng": 16.6825
    },
    {
      "cityName": "Sine",
      "lat": 43.5097222,
      "lng": 16.5263889
    },
    {
      "cityName": "Sinovcici",
      "lat": 43.5033333,
      "lng": 16.6355556
    },
    {
      "cityName": "Sipici",
      "lat": 43.6252778,
      "lng": 16.7427778
    },
    {
      "cityName": "Situmi",
      "lat": 43.5136111,
      "lng": 16.9422222
    },
    {
      "cityName": "Skarbici",
      "lat": 43.5047222,
      "lng": 16.8225
    },
    {
      "cityName": "Skarici",
      "lat": 43.5502778,
      "lng": 16.8277778
    },
    {
      "cityName": "Skivica Dolac",
      "lat": 43.6597222,
      "lng": 16.8280556
    },
    {
      "cityName": "Skrip",
      "lat": 43.3547222,
      "lng": 16.6038889
    },
    {
      "cityName": "Sladoje",
      "lat": 43.7213889,
      "lng": 16.6161111
    },
    {
      "cityName": "Slatine",
      "lat": 43.4994444,
      "lng": 16.3333333
    },
    {
      "cityName": "Slime",
      "lat": 43.4166667,
      "lng": 16.8666667
    },
    {
      "cityName": "Sliskovici",
      "lat": 43.5505556,
      "lng": 16.7847222
    },
    {
      "cityName": "Sljujici",
      "lat": 43.5686111,
      "lng": 16.7930556
    },
    {
      "cityName": "Smajici",
      "lat": 43.5519444,
      "lng": 16.6569444
    },
    {
      "cityName": "Smodlaka",
      "lat": 43.58,
      "lng": 16.5747222
    },
    {
      "cityName": "Smoljanovici",
      "lat": 43.5122222,
      "lng": 16.8077778
    },
    {
      "cityName": "Smolonje",
      "lat": 43.45,
      "lng": 16.7833333
    },
    {
      "cityName": "Sokici",
      "lat": 43.5372222,
      "lng": 16.8347222
    },
    {
      "cityName": "Soldici",
      "lat": 43.7652778,
      "lng": 16.5883333
    },
    {
      "cityName": "Solici",
      "lat": 43.6930556,
      "lng": 16.5313889
    },
    {
      "cityName": "Solto",
      "lat": 43.7202778,
      "lng": 16.6691667
    },
    {
      "cityName": "Sonjici",
      "lat": 43.5316667,
      "lng": 16.8972222
    },
    {
      "cityName": "Spalato",
      "lat": 43.5138889,
      "lng": 16.4558333
    },
    {
      "cityName": "Srednje Selo na Solti",
      "lat": 43.3986111,
      "lng": 16.2752778
    },
    {
      "cityName": "Srijane",
      "lat": 43.5177778,
      "lng": 16.7280556
    },
    {
      "cityName": "Srinjine",
      "lat": 43.4833333,
      "lng": 16.6
    },
    {
      "cityName": "Stare Kuce",
      "lat": 43.6483333,
      "lng": 16.5538889
    },
    {
      "cityName": "Stari Stafilic",
      "lat": 43.5536111,
      "lng": 16.3386111
    },
    {
      "cityName": "Stiniva",
      "lat": 43.2,
      "lng": 16.4666667
    },
    {
      "cityName": "Stobrec",
      "lat": 43.5025,
      "lng": 16.5222222
    },
    {
      "cityName": "Stojanceva Bozetnica",
      "lat": 43.8491667,
      "lng": 16.5561111
    },
    {
      "cityName": "Stojanci",
      "lat": 43.8338889,
      "lng": 16.5522222
    },
    {
      "cityName": "Stojici",
      "lat": 43.7883333,
      "lng": 16.6291667
    },
    {
      "cityName": "Stomorska",
      "lat": 43.37,
      "lng": 16.3516667
    },
    {
      "cityName": "Stricevici",
      "lat": 43.6952778,
      "lng": 16.5147222
    },
    {
      "cityName": "Strikici",
      "lat": 43.5761111,
      "lng": 16.6763889
    },
    {
      "cityName": "Strizirep",
      "lat": 43.5825,
      "lng": 16.8447222
    },
    {
      "cityName": "Strizrep",
      "lat": 43.6019444,
      "lng": 16.5558333
    },
    {
      "cityName": "Strmen Dolac",
      "lat": 43.5963889,
      "lng": 16.7636111
    },
    {
      "cityName": "Strozanac",
      "lat": 43.5019444,
      "lng": 16.5391667
    },
    {
      "cityName": "Studence",
      "lat": 43.5305556,
      "lng": 17.0305556
    },
    {
      "cityName": "Sucici",
      "lat": 43.5813889,
      "lng": 16.8825
    },
    {
      "cityName": "Suhac",
      "lat": 43.7136111,
      "lng": 16.6411111
    },
    {
      "cityName": "Suljkove Kuce",
      "lat": 43.6075,
      "lng": 16.6211111
    },
    {
      "cityName": "Sumartin",
      "lat": 43.285,
      "lng": 16.8755556
    },
    {
      "cityName": "Sumpetar",
      "lat": 43.4536111,
      "lng": 16.6277778
    },
    {
      "cityName": "Sunici",
      "lat": 43.7416667,
      "lng": 16.5302778
    },
    {
      "cityName": "Susci",
      "lat": 43.635,
      "lng": 16.56
    },
    {
      "cityName": "Suski",
      "lat": 43.5547222,
      "lng": 16.8216667
    },
    {
      "cityName": "Susnjare",
      "lat": 43.6116667,
      "lng": 16.7452778
    },
    {
      "cityName": "Susnjarici",
      "lat": 43.7255556,
      "lng": 16.6555556
    },
    {
      "cityName": "Sute",
      "lat": 43.6786111,
      "lng": 16.5319444
    },
    {
      "cityName": "Sutina",
      "lat": 43.6966667,
      "lng": 16.5475
    },
    {
      "cityName": "Sutivan",
      "lat": 43.3858333,
      "lng": 16.4769444
    },
    {
      "cityName": "Svaline",
      "lat": 43.5827778,
      "lng": 16.7916667
    },
    {
      "cityName": "Sveta Nedelja",
      "lat": 43.1363889,
      "lng": 16.5894444
    },
    {
      "cityName": "Sveti Ante",
      "lat": 43.1833333,
      "lng": 16.55
    },
    {
      "cityName": "Sveti Martin",
      "lat": 43.4666667,
      "lng": 16.5666667
    },
    {
      "cityName": "Svibic",
      "lat": 43.5594444,
      "lng": 16.9983333
    },
    {
      "cityName": "Svib",
      "lat": 43.5516667,
      "lng": 16.9630556
    },
    {
      "cityName": "Svinisce",
      "lat": 43.4333333,
      "lng": 16.7666667
    },
    {
      "cityName": "Svinjaca",
      "lat": 43.6661111,
      "lng": 16.76
    },
    {
      "cityName": "Svirce",
      "lat": 43.1575,
      "lng": 16.6472222
    },
    {
      "cityName": "Tadici",
      "lat": 43.6802778,
      "lng": 16.755
    },
    {
      "cityName": "Tadinac",
      "lat": 43.5258333,
      "lng": 16.7930556
    },
    {
      "cityName": "Tadinci",
      "lat": 43.5002778,
      "lng": 16.7363889
    },
    {
      "cityName": "Tarabnik",
      "lat": 43.5922222,
      "lng": 16.9033333
    },
    {
      "cityName": "Terzici",
      "lat": 43.6188889,
      "lng": 16.6858333
    },
    {
      "cityName": "Tesija",
      "lat": 43.7322222,
      "lng": 16.5133333
    },
    {
      "cityName": "Tice",
      "lat": 43.4238889,
      "lng": 16.7136111
    },
    {
      "cityName": "Tijardovici",
      "lat": 43.5836111,
      "lng": 16.6833333
    },
    {
      "cityName": "Tokici",
      "lat": 43.5211111,
      "lng": 16.8088889
    },
    {
      "cityName": "Tomasevici",
      "lat": 43.7138889,
      "lng": 16.7352778
    },
    {
      "cityName": "Tomici",
      "lat": 43.5086111,
      "lng": 16.7169444
    },
    {
      "cityName": "Topola",
      "lat": 43.6727778,
      "lng": 16.8447222
    },
    {
      "cityName": "Trau",
      "lat": 43.5125,
      "lng": 16.2516667
    },
    {
      "cityName": "Trilj",
      "lat": 43.6183333,
      "lng": 16.7241667
    },
    {
      "cityName": "Trisnjevo",
      "lat": 43.5583333,
      "lng": 16.6830556
    },
    {
      "cityName": "Trnbusi",
      "lat": 43.4833333,
      "lng": 16.7833333
    },
    {
      "cityName": "Trolokve",
      "lat": 43.65,
      "lng": 16.2333333
    },
    {
      "cityName": "Tugare",
      "lat": 43.4666667,
      "lng": 16.6666667
    },
    {
      "cityName": "Tukici",
      "lat": 43.5533333,
      "lng": 16.6530556
    },
    {
      "cityName": "Turjaci",
      "lat": 43.65,
      "lng": 16.6691667
    },
    {
      "cityName": "Tutici",
      "lat": 43.515,
      "lng": 16.9380556
    },
    {
      "cityName": "Udiljci",
      "lat": 43.5219444,
      "lng": 17.0147222
    },
    {
      "cityName": "Udovicici",
      "lat": 43.5463889,
      "lng": 17.0125
    },
    {
      "cityName": "Ugljane",
      "lat": 43.5652778,
      "lng": 16.7869444
    },
    {
      "cityName": "Uvodic",
      "lat": 43.5488889,
      "lng": 16.5380556
    },
    {
      "cityName": "Varaci",
      "lat": 43.5861111,
      "lng": 16.6094444
    },
    {
      "cityName": "Vardici",
      "lat": 43.7711111,
      "lng": 16.5902778
    },
    {
      "cityName": "Varvodici",
      "lat": 43.6255556,
      "lng": 16.5013889
    },
    {
      "cityName": "Vedrine",
      "lat": 43.6227778,
      "lng": 16.7441667
    },
    {
      "cityName": "Velic",
      "lat": 43.6244444,
      "lng": 16.7866667
    },
    {
      "cityName": "Velika Njiva",
      "lat": 43.5391667,
      "lng": 16.7291667
    },
    {
      "cityName": "Veliki Didovici",
      "lat": 43.6438889,
      "lng": 16.6369444
    },
    {
      "cityName": "Veliko Grablje",
      "lat": 43.1722222,
      "lng": 16.5255556
    },
    {
      "cityName": "Verlicca",
      "lat": 43.9125,
      "lng": 16.3988889
    },
    {
      "cityName": "Veroci",
      "lat": 43.5908333,
      "lng": 16.8872222
    },
    {
      "cityName": "Vetma",
      "lat": 43.5616667,
      "lng": 16.5355556
    },
    {
      "cityName": "Videkici",
      "lat": 43.5697222,
      "lng": 16.6830556
    },
    {
      "cityName": "Vidici",
      "lat": 43.7277778,
      "lng": 16.5872222
    },
    {
      "cityName": "Vidisice",
      "lat": 43.6552778,
      "lng": 16.6105556
    },
    {
      "cityName": "Vincici",
      "lat": 43.8536111,
      "lng": 16.5341667
    },
    {
      "cityName": "Vinisce",
      "lat": 43.4897222,
      "lng": 16.1130556
    },
    {
      "cityName": "Viric",
      "lat": 43.6863889,
      "lng": 16.7236111
    },
    {
      "cityName": "Visak",
      "lat": 43.5022222,
      "lng": 16.6013889
    },
    {
      "cityName": "Vitic",
      "lat": 43.7430556,
      "lng": 16.7088889
    },
    {
      "cityName": "Vladovici",
      "lat": 43.5763889,
      "lng": 16.6341667
    },
    {
      "cityName": "Vladovic",
      "lat": 43.5875,
      "lng": 16.6530556
    },
    {
      "cityName": "Vlaka",
      "lat": 43.1638889,
      "lng": 16.3641667
    },
    {
      "cityName": "Vlake",
      "lat": 43.6963889,
      "lng": 16.8591667
    },
    {
      "cityName": "Vlasici",
      "lat": 43.5430556,
      "lng": 16.7586111
    },
    {
      "cityName": "Vojkovici",
      "lat": 43.62,
      "lng": 16.6244444
    },
    {
      "cityName": "Vojnic Sinjski",
      "lat": 43.6141667,
      "lng": 16.6888889
    },
    {
      "cityName": "Voloderi",
      "lat": 43.5947222,
      "lng": 16.9241667
    },
    {
      "cityName": "Voloder",
      "lat": 43.5344444,
      "lng": 16.7708333
    },
    {
      "cityName": "Voluja",
      "lat": 43.4830556,
      "lng": 16.0827778
    },
    {
      "cityName": "Vostane",
      "lat": 43.6613889,
      "lng": 16.9016667
    },
    {
      "cityName": "Vrabac",
      "lat": 43.6563889,
      "lng": 16.7538889
    },
    {
      "cityName": "Vrancici",
      "lat": 43.5997222,
      "lng": 16.875
    },
    {
      "cityName": "Vran Dolac",
      "lat": 43.5986111,
      "lng": 16.8838889
    },
    {
      "cityName": "Vranjca",
      "lat": 43.5127778,
      "lng": 16.1844444
    },
    {
      "cityName": "Vrankovici",
      "lat": 43.5011111,
      "lng": 16.7836111
    },
    {
      "cityName": "Vrbanjske Kuce",
      "lat": 43.165,
      "lng": 16.6455556
    },
    {
      "cityName": "Vrboska",
      "lat": 43.1822222,
      "lng": 16.6708333
    },
    {
      "cityName": "Vrcani",
      "lat": 43.5644444,
      "lng": 16.7625
    },
    {
      "cityName": "Vrdolac",
      "lat": 43.5294444,
      "lng": 17.0369444
    },
    {
      "cityName": "Vrdoljaci",
      "lat": 43.6619444,
      "lng": 16.5236111
    },
    {
      "cityName": "Vrgoci",
      "lat": 43.5802778,
      "lng": 16.8580556
    },
    {
      "cityName": "Vrisnik",
      "lat": 43.1516667,
      "lng": 16.6533333
    },
    {
      "cityName": "Vrizice",
      "lat": 43.5638889,
      "lng": 16.6911111
    },
    {
      "cityName": "Vrkici",
      "lat": 43.5238889,
      "lng": 16.7961111
    },
    {
      "cityName": "Vrlici",
      "lat": 43.5455556,
      "lng": 16.9005556
    },
    {
      "cityName": "Vrlic",
      "lat": 43.5922222,
      "lng": 16.7436111
    },
    {
      "cityName": "Vrpolje",
      "lat": 43.6041667,
      "lng": 16.8297222
    },
    {
      "cityName": "Vrsine",
      "lat": 43.5277778,
      "lng": 16.1472222
    },
    {
      "cityName": "Vucak",
      "lat": 43.5338889,
      "lng": 16.8933333
    },
    {
      "cityName": "Vucemili",
      "lat": 43.7058333,
      "lng": 16.6047222
    },
    {
      "cityName": "Vucevica",
      "lat": 43.6,
      "lng": 16.4
    },
    {
      "cityName": "Vucici",
      "lat": 43.7169444,
      "lng": 16.7008333
    },
    {
      "cityName": "Vucini",
      "lat": 43.6386111,
      "lng": 16.8583333
    },
    {
      "cityName": "Vucipolje",
      "lat": 43.8313889,
      "lng": 16.5819444
    },
    {
      "cityName": "Vuckovici",
      "lat": 43.5894444,
      "lng": 16.6144444
    },
    {
      "cityName": "Vuco",
      "lat": 43.6055556,
      "lng": 16.71
    },
    {
      "cityName": "Vudrag",
      "lat": 43.625,
      "lng": 16.67
    },
    {
      "cityName": "Vugdelici",
      "lat": 43.6802778,
      "lng": 16.7272222
    },
    {
      "cityName": "Vujevic",
      "lat": 43.8288889,
      "lng": 16.5511111
    },
    {
      "cityName": "Vujice",
      "lat": 43.5325,
      "lng": 16.8744444
    },
    {
      "cityName": "Vujovici",
      "lat": 43.56,
      "lng": 16.9058333
    },
    {
      "cityName": "Vukadini",
      "lat": 43.5758333,
      "lng": 16.735
    },
    {
      "cityName": "Vukani",
      "lat": 43.5405556,
      "lng": 16.7586111
    },
    {
      "cityName": "Vukasi",
      "lat": 43.6355556,
      "lng": 16.8777778
    },
    {
      "cityName": "Vukasovici",
      "lat": 43.5855556,
      "lng": 16.615
    },
    {
      "cityName": "Vuka",
      "lat": 43.6227778,
      "lng": 16.5033333
    },
    {
      "cityName": "Vukici",
      "lat": 43.6088889,
      "lng": 16.8544444
    },
    {
      "cityName": "Vukmani",
      "lat": 43.7686111,
      "lng": 16.6116667
    },
    {
      "cityName": "Vukovici",
      "lat": 43.5705556,
      "lng": 16.6427778
    },
    {
      "cityName": "Vulici",
      "lat": 43.81,
      "lng": 16.6230556
    },
    {
      "cityName": "Vuzici",
      "lat": 43.5408333,
      "lng": 17.0305556
    },
    {
      "cityName": "Zabrde",
      "lat": 43.6319444,
      "lng": 16.7491667
    },
    {
      "cityName": "Zakucac",
      "lat": 43.45,
      "lng": 16.7
    },
    {
      "cityName": "Zaljutci",
      "lat": 43.6408333,
      "lng": 16.5694444
    },
    {
      "cityName": "Zanci",
      "lat": 43.7383333,
      "lng": 16.6963889
    },
    {
      "cityName": "Zaper",
      "lat": 43.6011111,
      "lng": 16.835
    },
    {
      "cityName": "Zarace",
      "lat": 43.15,
      "lng": 16.5166667
    },
    {
      "cityName": "Zaradicije",
      "lat": 43.5405556,
      "lng": 16.7086111
    },
    {
      "cityName": "Zasiok",
      "lat": 43.8194444,
      "lng": 16.5655556
    },
    {
      "cityName": "Zedno",
      "lat": 43.5166667,
      "lng": 16.2833333
    },
    {
      "cityName": "Zelevo",
      "lat": 43.7519444,
      "lng": 16.5511111
    },
    {
      "cityName": "Zelici",
      "lat": 43.5441667,
      "lng": 16.7188889
    },
    {
      "cityName": "Zena Glava",
      "lat": 43.0333333,
      "lng": 16.14
    },
    {
      "cityName": "Zezevica",
      "lat": 43.45,
      "lng": 16.9666667
    },
    {
      "cityName": "Zivaljici",
      "lat": 43.5941667,
      "lng": 16.7280556
    },
    {
      "cityName": "Zivinici",
      "lat": 43.7011111,
      "lng": 16.7344444
    },
    {
      "cityName": "Zivulje",
      "lat": 43.7052778,
      "lng": 16.7797222
    },
    {
      "cityName": "Zizanovici",
      "lat": 43.5075,
      "lng": 17.0211111
    },
    {
      "cityName": "Zizica Strazbenica",
      "lat": 43.7016667,
      "lng": 16.7736111
    },
    {
      "cityName": "Zminjevaca",
      "lat": 43.5116667,
      "lng": 16.5405556
    },
    {
      "cityName": "Zorica",
      "lat": 43.7416667,
      "lng": 16.63
    },
    {
      "cityName": "Zrnovnica",
      "lat": 43.5211111,
      "lng": 16.5591667
    },
    {
      "cityName": "Zubarti",
      "lat": 43.6713889,
      "lng": 16.5141667
    },
    {
      "cityName": "Zuljovici",
      "lat": 43.6761111,
      "lng": 16.7577778
    },
    {
      "cityName": "Zupe",
      "lat": 43.6169444,
      "lng": 16.6386111
    },
    {
      "cityName": "Zupici",
      "lat": 43.6875,
      "lng": 16.6236111
    },
    {
      "cityName": "Zura",
      "lat": 43.5566667,
      "lng": 16.5155556
    },
    {
      "cityName": "Zurici",
      "lat": 43.6272222,
      "lng": 16.6988889
    },
    {
      "cityName": "Zuro",
      "lat": 43.6480556,
      "lng": 16.6302778
    },
    {
      "cityName": "Zvecanje",
      "lat": 43.45,
      "lng": 16.7666667
    }
  ]
}