{
  "name": "Brodsko-Posavska",
  "cities": [
    {
      "cityName": "Adzamovci",
      "lat": 45.2477778,
      "lng": 17.465
    },
    {
      "cityName": "Alt-Gradiska",
      "lat": 45.1486111,
      "lng": 17.2466667
    },
    {
      "cityName": "Andrijevci",
      "lat": 45.1836111,
      "lng": 17.8827778
    },
    {
      "cityName": "Arapovac",
      "lat": 45.2563889,
      "lng": 17.5513889
    },
    {
      "cityName": "Babina Greda",
      "lat": 45.1172222,
      "lng": 18.5369444
    },
    {
      "cityName": "Bacin-Dol",
      "lat": 45.3091667,
      "lng": 17.4327778
    },
    {
      "cityName": "Banicevac",
      "lat": 45.3333333,
      "lng": 17.4666667
    },
    {
      "cityName": "Banovci",
      "lat": 45.0822222,
      "lng": 17.8380556
    },
    {
      "cityName": "Bartolovci",
      "lat": 45.1827778,
      "lng": 17.9308333
    },
    {
      "cityName": "Batrina",
      "lat": 45.1894444,
      "lng": 17.6663889
    },
    {
      "cityName": "Bebrina",
      "lat": 45.0983333,
      "lng": 17.8341667
    },
    {
      "cityName": "Becic",
      "lat": 45.1919444,
      "lng": 17.7075
    },
    {
      "cityName": "Belice",
      "lat": 45.2366667,
      "lng": 17.8411111
    },
    {
      "cityName": "Benkovac",
      "lat": 45.3083333,
      "lng": 17.2030556
    },
    {
      "cityName": "Beravci",
      "lat": 45.1513889,
      "lng": 18.4302778
    },
    {
      "cityName": "Bicko Selo",
      "lat": 45.1669444,
      "lng": 18.1913889
    },
    {
      "cityName": "Bili Brig",
      "lat": 45.2105556,
      "lng": 17.6147222
    },
    {
      "cityName": "Blazevica Dol",
      "lat": 45.2366667,
      "lng": 17.5822222
    },
    {
      "cityName": "Bodegraji",
      "lat": 45.2666667,
      "lng": 17.1833333
    },
    {
      "cityName": "Bodovaljci",
      "lat": 45.1983333,
      "lng": 17.4438889
    },
    {
      "cityName": "Bogicevci Gornji",
      "lat": 45.2594444,
      "lng": 17.2361111
    },
    {
      "cityName": "Brdani",
      "lat": 45.2441667,
      "lng": 18.1080556
    },
    {
      "cityName": "Brod",
      "lat": 45.1602778,
      "lng": 18.0155556
    },
    {
      "cityName": "Brodski Stupnik",
      "lat": 45.1677778,
      "lng": 17.8036111
    },
    {
      "cityName": "Brodski Varos",
      "lat": 45.1811111,
      "lng": 17.9786111
    },
    {
      "cityName": "Brodsko Brdo",
      "lat": 45.185,
      "lng": 18.0038889
    },
    {
      "cityName": "Budrovce",
      "lat": 45.2711111,
      "lng": 18.4486111
    },
    {
      "cityName": "Bukovlje",
      "lat": 45.1852778,
      "lng": 18.07
    },
    {
      "cityName": "Cage",
      "lat": 45.2905556,
      "lng": 17.2108333
    },
    {
      "cityName": "Cajkovci",
      "lat": 45.195,
      "lng": 18.3647222
    },
    {
      "cityName": "Caprginci",
      "lat": 45.3166667,
      "lng": 17.2166667
    },
    {
      "cityName": "Cecavac",
      "lat": 45.3852778,
      "lng": 17.4633333
    },
    {
      "cityName": "Celikovici",
      "lat": 45.2402778,
      "lng": 17.8883333
    },
    {
      "cityName": "Celinjaca",
      "lat": 45.1544444,
      "lng": 18.3102778
    },
    {
      "cityName": "Cernicka Sumetlica",
      "lat": 45.3208333,
      "lng": 17.3958333
    },
    {
      "cityName": "Cernik",
      "lat": 45.2886111,
      "lng": 17.3819444
    },
    {
      "cityName": "Ciglenik",
      "lat": 45.1833333,
      "lng": 17.7
    },
    {
      "cityName": "Ciglenik Luzanski",
      "lat": 45.1813889,
      "lng": 17.7061111
    },
    {
      "cityName": "Covac",
      "lat": 45.2355556,
      "lng": 17.1713889
    },
    {
      "cityName": "Crni Potok Brodski",
      "lat": 45.2477778,
      "lng": 18.0691667
    },
    {
      "cityName": "Cuprelije",
      "lat": 45.2375,
      "lng": 17.8533333
    },
    {
      "cityName": "Davor",
      "lat": 45.1152778,
      "lng": 17.5163889
    },
    {
      "cityName": "Divosevci",
      "lat": 45.1572222,
      "lng": 18.3411111
    },
    {
      "cityName": "Dolina",
      "lat": 45.1430556,
      "lng": 17.3875
    },
    {
      "cityName": "Donja Bebrina",
      "lat": 45.0966667,
      "lng": 18.1833333
    },
    {
      "cityName": "Donja Vrba",
      "lat": 45.1658333,
      "lng": 18.1066667
    },
    {
      "cityName": "DonjeRavne",
      "lat": 44.4375,
      "lng": 17.9638889
    },
    {
      "cityName": "Donji Andrijevci",
      "lat": 45.1883333,
      "lng": 18.2997222
    },
    {
      "cityName": "Donji Bogicevci",
      "lat": 45.2283333,
      "lng": 17.2583333
    },
    {
      "cityName": "Donji Crnogovci",
      "lat": 45.2052778,
      "lng": 17.4813889
    },
    {
      "cityName": "Donji Lipovac",
      "lat": 45.2205556,
      "lng": 17.6544444
    },
    {
      "cityName": "Donji Okucani",
      "lat": 45.2483333,
      "lng": 17.1905556
    },
    {
      "cityName": "Donji Slatinik",
      "lat": 45.2541667,
      "lng": 17.9908333
    },
    {
      "cityName": "Donji Vares",
      "lat": 45.1552778,
      "lng": 17.2525
    },
    {
      "cityName": "Dragalci",
      "lat": 45.2441667,
      "lng": 17.2886111
    },
    {
      "cityName": "Dragotin",
      "lat": 45.255,
      "lng": 18.3172222
    },
    {
      "cityName": "Dragovci",
      "lat": 45.2188889,
      "lng": 17.705
    },
    {
      "cityName": "Dreznik",
      "lat": 45.2944444,
      "lng": 17.4655556
    },
    {
      "cityName": "Dubocac",
      "lat": 45.0525,
      "lng": 17.8658333
    },
    {
      "cityName": "Dubovac",
      "lat": 45.2411111,
      "lng": 17.205
    },
    {
      "cityName": "Dubovik",
      "lat": 45.2561111,
      "lng": 18.0111111
    },
    {
      "cityName": "Dugovac",
      "lat": 45.1977778,
      "lng": 17.885
    },
    {
      "cityName": "Gabric Mali",
      "lat": 45.2466667,
      "lng": 17.9830556
    },
    {
      "cityName": "Galicijani",
      "lat": 45.215,
      "lng": 17.9805556
    },
    {
      "cityName": "Garcin",
      "lat": 45.1827778,
      "lng": 18.1830556
    },
    {
      "cityName": "Giletinci",
      "lat": 45.3102778,
      "lng": 17.3647222
    },
    {
      "cityName": "Glogovica",
      "lat": 45.2319444,
      "lng": 17.9738889
    },
    {
      "cityName": "Glozanci",
      "lat": 45.1288889,
      "lng": 18.3044444
    },
    {
      "cityName": "Godinjak",
      "lat": 45.2369444,
      "lng": 17.4958333
    },
    {
      "cityName": "Gorice",
      "lat": 45.2158333,
      "lng": 17.2958333
    },
    {
      "cityName": "Gornja Bebrina",
      "lat": 45.1119444,
      "lng": 18.11
    },
    {
      "cityName": "Gornja Trnava",
      "lat": 45.2736111,
      "lng": 17.2869444
    },
    {
      "cityName": "Gornja Varos",
      "lat": 45.1533333,
      "lng": 17.2133333
    },
    {
      "cityName": "Gornja Vrba",
      "lat": 45.1552778,
      "lng": 18.0655556
    },
    {
      "cityName": "Gornji Crnogovci",
      "lat": 45.2136111,
      "lng": 17.4922222
    },
    {
      "cityName": "Grabarje Brodsko",
      "lat": 45.2175,
      "lng": 18.0288889
    },
    {
      "cityName": "Gredani",
      "lat": 45.2105556,
      "lng": 17.1775
    },
    {
      "cityName": "Gredica",
      "lat": 45.1436111,
      "lng": 17.38
    },
    {
      "cityName": "Grgurevici",
      "lat": 45.2358333,
      "lng": 17.8811111
    },
    {
      "cityName": "Grizici",
      "lat": 45.2236111,
      "lng": 17.8530556
    },
    {
      "cityName": "Gromacnik",
      "lat": 45.1794444,
      "lng": 17.9575
    },
    {
      "cityName": "Gundinci",
      "lat": 45.1583333,
      "lng": 18.4913889
    },
    {
      "cityName": "Gunjavci",
      "lat": 45.2755556,
      "lng": 17.4663889
    },
    {
      "cityName": "Hrkanovci Dakovacki",
      "lat": 45.2666667,
      "lng": 18.1869444
    },
    {
      "cityName": "Ilicani",
      "lat": 44.9530556,
      "lng": 17.4936111
    },
    {
      "cityName": "Ivan-Dol",
      "lat": 45.3333333,
      "lng": 17.4833333
    },
    {
      "cityName": "Jakacina Mala",
      "lat": 45.2255556,
      "lng": 17.8722222
    },
    {
      "cityName": "Jaruge",
      "lat": 45.1158333,
      "lng": 18.4202778
    },
    {
      "cityName": "Jelik",
      "lat": 45.1541667,
      "lng": 17.8802778
    },
    {
      "cityName": "Jezevik",
      "lat": 45.2119444,
      "lng": 18.075
    },
    {
      "cityName": "Kalosevici",
      "lat": 44.65,
      "lng": 17.9
    },
    {
      "cityName": "Kaniza",
      "lat": 45.1080556,
      "lng": 17.8861111
    },
    {
      "cityName": "Kikovac",
      "lat": 45.1966667,
      "lng": 17.9111111
    },
    {
      "cityName": "Kindrovo",
      "lat": 45.2344444,
      "lng": 18.0452778
    },
    {
      "cityName": "Kladovac",
      "lat": 45.1794444,
      "lng": 18.5588889
    },
    {
      "cityName": "Klakar",
      "lat": 45.0986111,
      "lng": 18.1322222
    },
    {
      "cityName": "Klokocevik",
      "lat": 45.2197222,
      "lng": 18.1502778
    },
    {
      "cityName": "Kobas",
      "lat": 45.1063889,
      "lng": 17.7455556
    },
    {
      "cityName": "Kod Topole",
      "lat": 45.2294444,
      "lng": 17.5466667
    },
    {
      "cityName": "Kolonija",
      "lat": 45.0622222,
      "lng": 18.5002778
    },
    {
      "cityName": "Komarnica",
      "lat": 45.1838889,
      "lng": 17.5680556
    },
    {
      "cityName": "Kordusevci",
      "lat": 45.2202778,
      "lng": 18.0902778
    },
    {
      "cityName": "Korenica",
      "lat": 45.2247222,
      "lng": 18.1655556
    },
    {
      "cityName": "Kovacevac",
      "lat": 45.2666667,
      "lng": 17.3666667
    },
    {
      "cityName": "Krajacici",
      "lat": 45.2058333,
      "lng": 17.8452778
    },
    {
      "cityName": "Krusevica",
      "lat": 45.0775,
      "lng": 18.4827778
    },
    {
      "cityName": "Kujnik",
      "lat": 45.1713889,
      "lng": 17.7338889
    },
    {
      "cityName": "Kupina",
      "lat": 45.1375,
      "lng": 18.3386111
    },
    {
      "cityName": "Kuti",
      "lat": 45.1213889,
      "lng": 17.8147222
    },
    {
      "cityName": "Kuti Trnjanski",
      "lat": 45.125,
      "lng": 18.1630556
    },
    {
      "cityName": "Ladevac",
      "lat": 45.2719444,
      "lng": 17.1730556
    },
    {
      "cityName": "Lapovci",
      "lat": 45.2433333,
      "lng": 18.2280556
    },
    {
      "cityName": "Laze",
      "lat": 45.2052778,
      "lng": 17.4683333
    },
    {
      "cityName": "Lazine",
      "lat": 45.1486111,
      "lng": 17.3736111
    },
    {
      "cityName": "Ljupina",
      "lat": 45.2175,
      "lng": 17.3827778
    },
    {
      "cityName": "Lovcic",
      "lat": 45.2047222,
      "lng": 17.8022222
    },
    {
      "cityName": "Luzani",
      "lat": 45.1680556,
      "lng": 17.7069444
    },
    {
      "cityName": "Mackovac",
      "lat": 45.1536111,
      "lng": 17.3377778
    },
    {
      "cityName": "Magic Mala",
      "lat": 45.1738889,
      "lng": 17.6086111
    },
    {
      "cityName": "Makoviste",
      "lat": 45.1202778,
      "lng": 18.3255556
    },
    {
      "cityName": "Mala Kopanica",
      "lat": 45.1463889,
      "lng": 18.37
    },
    {
      "cityName": "Malice",
      "lat": 45.0686111,
      "lng": 18.5261111
    },
    {
      "cityName": "Malino",
      "lat": 45.1716667,
      "lng": 17.7230556
    },
    {
      "cityName": "Marinci",
      "lat": 45.1855556,
      "lng": 17.9855556
    },
    {
      "cityName": "Martinovci",
      "lat": 45.1777778,
      "lng": 17.3130556
    },
    {
      "cityName": "Masic",
      "lat": 45.2663889,
      "lng": 17.3288889
    },
    {
      "cityName": "Medare",
      "lat": 45.2672222,
      "lng": 17.29
    },
    {
      "cityName": "Mikicka",
      "lat": 45.1102778,
      "lng": 18.3208333
    },
    {
      "cityName": "Mlinci",
      "lat": 45.1775,
      "lng": 17.7644444
    },
    {
      "cityName": "Mutnicko",
      "lat": 45.1766667,
      "lng": 17.4752778
    },
    {
      "cityName": "Neu-Gradischka",
      "lat": 45.255,
      "lng": 17.3830556
    },
    {
      "cityName": "Nezice",
      "lat": 45.1444444,
      "lng": 18.5622222
    },
    {
      "cityName": "Nova Kapela",
      "lat": 45.1988889,
      "lng": 17.6391667
    },
    {
      "cityName": "Nova Varos",
      "lat": 45.1947222,
      "lng": 17.2158333
    },
    {
      "cityName": "Novigrad na Savi",
      "lat": 45.1086111,
      "lng": 18.3575
    },
    {
      "cityName": "Novi Hrkanovci",
      "lat": 45.2625,
      "lng": 18.2172222
    },
    {
      "cityName": "Novi Kobas",
      "lat": 45.1166667,
      "lng": 17.7333333
    },
    {
      "cityName": "Novi Perkovci",
      "lat": 45.2522222,
      "lng": 18.3522222
    },
    {
      "cityName": "Novo Topolje",
      "lat": 45.2083333,
      "lng": 18.2408333
    },
    {
      "cityName": "Okucani",
      "lat": 45.2583333,
      "lng": 17.2016667
    },
    {
      "cityName": "Opatovac",
      "lat": 45.3333333,
      "lng": 17.4347222
    },
    {
      "cityName": "Oprisavci",
      "lat": 45.1511111,
      "lng": 18.2297222
    },
    {
      "cityName": "Orbova",
      "lat": 45.2186111,
      "lng": 17.5777778
    },
    {
      "cityName": "Oriovaci",
      "lat": 45.1661111,
      "lng": 17.76
    },
    {
      "cityName": "Oriovcic",
      "lat": 45.2527778,
      "lng": 18.0294444
    },
    {
      "cityName": "Orubica",
      "lat": 45.1477778,
      "lng": 17.4588889
    },
    {
      "cityName": "Ostri Vrh",
      "lat": 45.2444444,
      "lng": 17.5230556
    },
    {
      "cityName": "Paklena",
      "lat": 45.2538889,
      "lng": 17.5497222
    },
    {
      "cityName": "Paklenik",
      "lat": 45.2272222,
      "lng": 17.5361111
    },
    {
      "cityName": "Pavlascak",
      "lat": 45.1797222,
      "lng": 17.7902778
    },
    {
      "cityName": "Perkovci Stari",
      "lat": 45.2175,
      "lng": 18.3486111
    },
    {
      "cityName": "Petrakovi",
      "lat": 45.2372222,
      "lng": 17.9630556
    },
    {
      "cityName": "Piskorevci",
      "lat": 45.2552778,
      "lng": 18.4041667
    },
    {
      "cityName": "Pivare",
      "lat": 45.1947222,
      "lng": 17.2588889
    },
    {
      "cityName": "Podcrkavje",
      "lat": 45.2238889,
      "lng": 18.01
    },
    {
      "cityName": "Podrsko",
      "lat": 45.3627778,
      "lng": 17.4275
    },
    {
      "cityName": "Podvinje",
      "lat": 45.1902778,
      "lng": 18.0269444
    },
    {
      "cityName": "Poljanci",
      "lat": 45.1305556,
      "lng": 18.1961111
    },
    {
      "cityName": "Poljane",
      "lat": 45.2388889,
      "lng": 17.3113889
    },
    {
      "cityName": "Pricac",
      "lat": 45.1361111,
      "lng": 17.6741667
    },
    {
      "cityName": "Prikljucak",
      "lat": 45.2311111,
      "lng": 17.3861111
    },
    {
      "cityName": "Prnjavor",
      "lat": 45.1263889,
      "lng": 18.3427778
    },
    {
      "cityName": "Prvca",
      "lat": 45.2436111,
      "lng": 17.3591667
    },
    {
      "cityName": "Pustara",
      "lat": 45.1955556,
      "lng": 17.3619444
    },
    {
      "cityName": "Radovanje",
      "lat": 45.1591667,
      "lng": 17.7763889
    },
    {
      "cityName": "Rastusje",
      "lat": 45.2047222,
      "lng": 18.0336111
    },
    {
      "cityName": "Ravan",
      "lat": 45.2511111,
      "lng": 17.8797222
    },
    {
      "cityName": "Resetari",
      "lat": 45.2563889,
      "lng": 17.4630556
    },
    {
      "cityName": "Ruscica",
      "lat": 45.1466667,
      "lng": 18.0794444
    },
    {
      "cityName": "Sagovina-Cernicka",
      "lat": 45.3161111,
      "lng": 17.3238889
    },
    {
      "cityName": "Samac",
      "lat": 45.0666667,
      "lng": 18.4888889
    },
    {
      "cityName": "Sapci",
      "lat": 45.1791667,
      "lng": 18.2066667
    },
    {
      "cityName": "Seace",
      "lat": 45.1736111,
      "lng": 17.6444444
    },
    {
      "cityName": "Selna",
      "lat": 45.185,
      "lng": 18.1580556
    },
    {
      "cityName": "Seocina",
      "lat": 45.2247222,
      "lng": 17.5958333
    },
    {
      "cityName": "Sibinj",
      "lat": 45.1916667,
      "lng": 17.9080556
    },
    {
      "cityName": "Sice",
      "lat": 45.1608333,
      "lng": 17.6205556
    },
    {
      "cityName": "Sicice",
      "lat": 45.1836111,
      "lng": 17.3886111
    },
    {
      "cityName": "Sikirevci",
      "lat": 45.1088889,
      "lng": 18.4644444
    },
    {
      "cityName": "Sirinci",
      "lat": 45.3241667,
      "lng": 17.2544444
    },
    {
      "cityName": "Slobodnica",
      "lat": 45.1622222,
      "lng": 17.9327778
    },
    {
      "cityName": "Smrtic",
      "lat": 45.2813889,
      "lng": 17.2566667
    },
    {
      "cityName": "Snjegavic",
      "lat": 45.3797222,
      "lng": 17.4452778
    },
    {
      "cityName": "Soljak",
      "lat": 45.2486111,
      "lng": 18.5052778
    },
    {
      "cityName": "Sredanci",
      "lat": 45.155,
      "lng": 18.285
    },
    {
      "cityName": "Srednji Lipovac",
      "lat": 45.25,
      "lng": 17.64
    },
    {
      "cityName": "Stara Kapela",
      "lat": 45.2363889,
      "lng": 17.6877778
    },
    {
      "cityName": "Starci",
      "lat": 45.2466667,
      "lng": 17.5494444
    },
    {
      "cityName": "Stari Slatinik",
      "lat": 45.1786111,
      "lng": 17.8472222
    },
    {
      "cityName": "Staro Petrovo Selo",
      "lat": 45.2308333,
      "lng": 17.5202778
    },
    {
      "cityName": "Staro Topolje",
      "lat": 45.19,
      "lng": 18.2477778
    },
    {
      "cityName": "Stivica",
      "lat": 45.1838889,
      "lng": 17.5408333
    },
    {
      "cityName": "Strizivojna",
      "lat": 45.2261111,
      "lng": 18.4238889
    },
    {
      "cityName": "Struzani",
      "lat": 45.1405556,
      "lng": 18.3047222
    },
    {
      "cityName": "Sumece",
      "lat": 45.0761111,
      "lng": 17.8775
    },
    {
      "cityName": "Surevica",
      "lat": 45.2122222,
      "lng": 18.1894444
    },
    {
      "cityName": "Susnjevci",
      "lat": 45.2091667,
      "lng": 18.1044444
    },
    {
      "cityName": "Svetoblazje",
      "lat": 45.2672222,
      "lng": 18.2972222
    },
    {
      "cityName": "Svilaj",
      "lat": 45.1244444,
      "lng": 18.2977778
    },
    {
      "cityName": "Ternava",
      "lat": 45.2613889,
      "lng": 18.2530556
    },
    {
      "cityName": "Tisovac",
      "lat": 45.2580556,
      "lng": 17.5127778
    },
    {
      "cityName": "Tomica",
      "lat": 45.1961111,
      "lng": 18.0430556
    },
    {
      "cityName": "Trjani",
      "lat": 45.1875,
      "lng": 18.1422222
    },
    {
      "cityName": "Trnacani",
      "lat": 45.2372222,
      "lng": 17.5225
    },
    {
      "cityName": "Trnakovac",
      "lat": 45.3238889,
      "lng": 17.2038889
    },
    {
      "cityName": "Uskoke",
      "lat": 45.1483333,
      "lng": 17.2286111
    },
    {
      "cityName": "Velica Kopanica",
      "lat": 45.1561111,
      "lng": 18.3930556
    },
    {
      "cityName": "Vincazovici",
      "lat": 45.2333333,
      "lng": 17.8741667
    },
    {
      "cityName": "Visoka Greda",
      "lat": 45.2005556,
      "lng": 17.3313889
    },
    {
      "cityName": "Vladisovo",
      "lat": 45.2594444,
      "lng": 17.5352778
    },
    {
      "cityName": "Vranovci",
      "lat": 45.1841667,
      "lng": 18.0905556
    },
    {
      "cityName": "Vrbje",
      "lat": 45.1875,
      "lng": 17.4191667
    },
    {
      "cityName": "Vrbovacko Brdo",
      "lat": 45.2475,
      "lng": 17.5633333
    },
    {
      "cityName": "Vrbovljani",
      "lat": 45.2488889,
      "lng": 17.1655556
    },
    {
      "cityName": "Vrhovina",
      "lat": 45.2297222,
      "lng": 18.1147222
    },
    {
      "cityName": "Vrpolje",
      "lat": 45.2105556,
      "lng": 18.4055556
    },
    {
      "cityName": "Vukojevci",
      "lat": 45.1333333,
      "lng": 18.15
    },
    {
      "cityName": "Zadubravje",
      "lat": 45.1636111,
      "lng": 18.1544444
    },
    {
      "cityName": "Zapolje",
      "lat": 45.2316667,
      "lng": 17.4616667
    },
    {
      "cityName": "Zavrsje",
      "lat": 45.1938889,
      "lng": 17.925
    },
    {
      "cityName": "Zberaje",
      "lat": 45.0644444,
      "lng": 18.5169444
    },
    {
      "cityName": "Zbieg",
      "lat": 45.0733333,
      "lng": 17.8986111
    },
    {
      "cityName": "Zivike",
      "lat": 45.1513889,
      "lng": 17.6755556
    },
    {
      "cityName": "Zoljani",
      "lat": 45.1319444,
      "lng": 18.32
    }
  ]
}