{
  "name": "Viroviticko-Podravska",
  "cities": [
    {
      "cityName": "Ada",
      "lat": 45.9333333,
      "lng": 17.5
    },
    {
      "cityName": "Adolfovac",
      "lat": 45.7152778,
      "lng": 17.8730556
    },
    {
      "cityName": "Adolfovo",
      "lat": 45.7166667,
      "lng": 17.85
    },
    {
      "cityName": "Albertinovac",
      "lat": 45.5166667,
      "lng": 18.25
    },
    {
      "cityName": "Aleksandrovac",
      "lat": 45.6333333,
      "lng": 17.8
    },
    {
      "cityName": "Babjak",
      "lat": 45.5041667,
      "lng": 18.29
    },
    {
      "cityName": "Bacevac",
      "lat": 45.8666667,
      "lng": 17.4833333
    },
    {
      "cityName": "Badikovci",
      "lat": 45.6938889,
      "lng": 18.2166667
    },
    {
      "cityName": "Bakic",
      "lat": 45.7411111,
      "lng": 17.6869444
    },
    {
      "cityName": "Bakva",
      "lat": 45.8572222,
      "lng": 17.2994444
    },
    {
      "cityName": "Balinci",
      "lat": 45.6138889,
      "lng": 17.7475
    },
    {
      "cityName": "Bankovci",
      "lat": 45.5666667,
      "lng": 17.9666667
    },
    {
      "cityName": "Bare",
      "lat": 45.6,
      "lng": 17.95
    },
    {
      "cityName": "Bazje Donje",
      "lat": 45.7,
      "lng": 17.8466667
    },
    {
      "cityName": "Bela Loza",
      "lat": 45.4780556,
      "lng": 18.2702778
    },
    {
      "cityName": "Beljevina",
      "lat": 45.5644444,
      "lng": 18.0138889
    },
    {
      "cityName": "Benicanci",
      "lat": 45.6386111,
      "lng": 18.1766667
    },
    {
      "cityName": "Bijeljevina Orahovicka",
      "lat": 45.5666667,
      "lng": 17.9
    },
    {
      "cityName": "Bistrica",
      "lat": 45.7336111,
      "lng": 17.6155556
    },
    {
      "cityName": "Bjelkovac",
      "lat": 45.6666667,
      "lng": 17.88
    },
    {
      "cityName": "Bocanjevci",
      "lat": 45.6411111,
      "lng": 18.3380556
    },
    {
      "cityName": "Bockinci",
      "lat": 45.7122222,
      "lng": 18.2683333
    },
    {
      "cityName": "Bokane",
      "lat": 45.6166667,
      "lng": 17.6833333
    },
    {
      "cityName": "Boksic",
      "lat": 45.5880556,
      "lng": 18.0316667
    },
    {
      "cityName": "Boksic Lug",
      "lat": 45.62,
      "lng": 18.0602778
    },
    {
      "cityName": "Boljara",
      "lat": 45.6530556,
      "lng": 18.0058333
    },
    {
      "cityName": "Borova",
      "lat": 45.7861111,
      "lng": 17.4616667
    },
    {
      "cityName": "Brestanovci",
      "lat": 45.6833333,
      "lng": 17.9833333
    },
    {
      "cityName": "Brezik",
      "lat": 45.5127778,
      "lng": 18.0619444
    },
    {
      "cityName": "Breznica Nasicka",
      "lat": 45.5366667,
      "lng": 18.2055556
    },
    {
      "cityName": "Brezovica",
      "lat": 45.6405556,
      "lng": 18.3288889
    },
    {
      "cityName": "Brezovljani",
      "lat": 45.6333333,
      "lng": 17.8833333
    },
    {
      "cityName": "Budanica",
      "lat": 45.75,
      "lng": 17.5666667
    },
    {
      "cityName": "Budimci",
      "lat": 45.465,
      "lng": 18.3227778
    },
    {
      "cityName": "Budrovac",
      "lat": 45.8833333,
      "lng": 17.4833333
    },
    {
      "cityName": "Bukovica",
      "lat": 45.6647222,
      "lng": 17.7669444
    },
    {
      "cityName": "Bukvik-Blatni Lug",
      "lat": 45.5666667,
      "lng": 17.85
    },
    {
      "cityName": "Busetina",
      "lat": 45.8969444,
      "lng": 17.3555556
    },
    {
      "cityName": "Cabuna",
      "lat": 45.7538889,
      "lng": 17.5780556
    },
    {
      "cityName": "Cabunska Trnava",
      "lat": 45.7333333,
      "lng": 17.5333333
    },
    {
      "cityName": "Cacinci",
      "lat": 45.6038889,
      "lng": 17.8702778
    },
    {
      "cityName": "Cadavica",
      "lat": 45.7441667,
      "lng": 17.8547222
    },
    {
      "cityName": "Camagajevci",
      "lat": 45.6888889,
      "lng": 18.2530556
    },
    {
      "cityName": "Ceralije",
      "lat": 45.6191667,
      "lng": 17.6858333
    },
    {
      "cityName": "Cetekovac",
      "lat": 45.6166667,
      "lng": 17.7666667
    },
    {
      "cityName": "Chernacz",
      "lat": 45.6961111,
      "lng": 17.9372222
    },
    {
      "cityName": "Chresnyevicza",
      "lat": 45.9066667,
      "lng": 17.1808333
    },
    {
      "cityName": "Ciganka",
      "lat": 45.7666667,
      "lng": 17.7
    },
    {
      "cityName": "Cremusina",
      "lat": 45.8166667,
      "lng": 17.2333333
    },
    {
      "cityName": "Crkvari",
      "lat": 45.5166667,
      "lng": 17.9666667
    },
    {
      "cityName": "Crni Zaton",
      "lat": 45.9333333,
      "lng": 17.5166667
    },
    {
      "cityName": "Crnkovci",
      "lat": 45.7075,
      "lng": 18.295
    },
    {
      "cityName": "Deskovac",
      "lat": 45.8902778,
      "lng": 17.5947222
    },
    {
      "cityName": "Dijelka",
      "lat": 45.9,
      "lng": 17.4833333
    },
    {
      "cityName": "Dinjevac",
      "lat": 45.95,
      "lng": 17.1833333
    },
    {
      "cityName": "Dobric",
      "lat": 45.6,
      "lng": 17.6
    },
    {
      "cityName": "Dobrovic",
      "lat": 45.6666667,
      "lng": 17.85
    },
    {
      "cityName": "Dolci",
      "lat": 45.55,
      "lng": 17.9333333
    },
    {
      "cityName": "Donja Bukovica",
      "lat": 45.6833333,
      "lng": 17.8166667
    },
    {
      "cityName": "Donja Moticina",
      "lat": 45.4947222,
      "lng": 18.0241667
    },
    {
      "cityName": "Donja Pistana",
      "lat": 45.5166667,
      "lng": 17.8333333
    },
    {
      "cityName": "Donje Kusenje",
      "lat": 45.7058333,
      "lng": 17.6036111
    },
    {
      "cityName": "Donje Predrievo",
      "lat": 45.6333333,
      "lng": 17.95
    },
    {
      "cityName": "Donji Meljani",
      "lat": 45.7333333,
      "lng": 17.6333333
    },
    {
      "cityName": "Drenovac",
      "lat": 45.5530556,
      "lng": 17.7072222
    },
    {
      "cityName": "Dugosello",
      "lat": 45.8636111,
      "lng": 17.4505556
    },
    {
      "cityName": "Durad",
      "lat": 45.7388889,
      "lng": 18.2461111
    },
    {
      "cityName": "Durdenovac",
      "lat": 45.5433333,
      "lng": 18.0458333
    },
    {
      "cityName": "Duretina",
      "lat": 45.9808333,
      "lng": 17.27
    },
    {
      "cityName": "Duricic",
      "lat": 45.5825,
      "lng": 17.6988889
    },
    {
      "cityName": "Duzluk",
      "lat": 45.5152778,
      "lng": 17.8683333
    },
    {
      "cityName": "Felsomiholjac",
      "lat": 45.7630556,
      "lng": 17.6547222
    },
    {
      "cityName": "Fericanci",
      "lat": 45.5288889,
      "lng": 17.9758333
    },
    {
      "cityName": "Gachische",
      "lat": 45.8333333,
      "lng": 17.6
    },
    {
      "cityName": "Gat",
      "lat": 45.7061111,
      "lng": 18.3255556
    },
    {
      "cityName": "Gazije",
      "lat": 45.4905556,
      "lng": 17.9469444
    },
    {
      "cityName": "Gorica",
      "lat": 45.6477778,
      "lng": 18.3536111
    },
    {
      "cityName": "Gornja Bukovica",
      "lat": 45.65,
      "lng": 17.7833333
    },
    {
      "cityName": "Gornja Moticina",
      "lat": 45.4716667,
      "lng": 17.9713889
    },
    {
      "cityName": "Gornja Pistana",
      "lat": 45.5333333,
      "lng": 17.8333333
    },
    {
      "cityName": "Gornje Bazie",
      "lat": 45.91,
      "lng": 17.4427778
    },
    {
      "cityName": "Gornje Kusonje",
      "lat": 45.7,
      "lng": 17.5833333
    },
    {
      "cityName": "Gornje Predrijevo",
      "lat": 45.7897222,
      "lng": 17.7858333
    },
    {
      "cityName": "Gornje Viljeva",
      "lat": 45.6975,
      "lng": 17.7930556
    },
    {
      "cityName": "Gornji Meljani",
      "lat": 45.5666667,
      "lng": 17.6666667
    },
    {
      "cityName": "Grabic",
      "lat": 45.7477778,
      "lng": 17.7275
    },
    {
      "cityName": "Grabrovnica",
      "lat": 45.935,
      "lng": 17.1747222
    },
    {
      "cityName": "Gradac",
      "lat": 45.9244444,
      "lng": 17.2911111
    },
    {
      "cityName": "Gradina",
      "lat": 45.855,
      "lng": 17.5072222
    },
    {
      "cityName": "Gradinska Mitrovica",
      "lat": 45.8333333,
      "lng": 17.5166667
    },
    {
      "cityName": "Harkanavci",
      "lat": 45.59,
      "lng": 18.3333333
    },
    {
      "cityName": "Homok Zatonj",
      "lat": 45.9333333,
      "lng": 17.55
    },
    {
      "cityName": "Hum",
      "lat": 45.6852778,
      "lng": 17.5263889
    },
    {
      "cityName": "Humljani",
      "lat": 45.5852778,
      "lng": 17.8161111
    },
    {
      "cityName": "Ivan Brijeg",
      "lat": 45.6666667,
      "lng": 17.6666667
    },
    {
      "cityName": "Ivanovci",
      "lat": 45.6177778,
      "lng": 18.2936111
    },
    {
      "cityName": "Jasenas",
      "lat": 45.7272222,
      "lng": 17.4105556
    },
    {
      "cityName": "Jelisavac",
      "lat": 45.5288889,
      "lng": 18.1561111
    },
    {
      "cityName": "Jorgic",
      "lat": 45.6,
      "lng": 17.5666667
    },
    {
      "cityName": "Kalesinka",
      "lat": 45.4841667,
      "lng": 18.1877778
    },
    {
      "cityName": "Kapan",
      "lat": 45.8166667,
      "lng": 17.5333333
    },
    {
      "cityName": "Kapinci",
      "lat": 45.8166667,
      "lng": 17.7
    },
    {
      "cityName": "Kladare",
      "lat": 45.9680556,
      "lng": 17.1963889
    },
    {
      "cityName": "Klisa",
      "lat": 45.7,
      "lng": 17.4833333
    },
    {
      "cityName": "Klokocevac",
      "lat": 45.5686111,
      "lng": 18.1030556
    },
    {
      "cityName": "Kokocak",
      "lat": 45.5363889,
      "lng": 17.8169444
    },
    {
      "cityName": "Kometnik",
      "lat": 45.6,
      "lng": 17.5833333
    },
    {
      "cityName": "Koska",
      "lat": 45.5452778,
      "lng": 18.2858333
    },
    {
      "cityName": "Kozice",
      "lat": 45.6833333,
      "lng": 17.7333333
    },
    {
      "cityName": "Krajina",
      "lat": 45.5666667,
      "lng": 17.8
    },
    {
      "cityName": "Kraskovic",
      "lat": 45.5833333,
      "lng": 17.7666667
    },
    {
      "cityName": "Kravlje",
      "lat": 45.5666667,
      "lng": 18.2
    },
    {
      "cityName": "Krcenik",
      "lat": 45.75,
      "lng": 17.9333333
    },
    {
      "cityName": "Krivaja",
      "lat": 45.6666667,
      "lng": 17.9333333
    },
    {
      "cityName": "Kucanci",
      "lat": 45.6572222,
      "lng": 18.1341667
    },
    {
      "cityName": "Kunisinci",
      "lat": 45.6722222,
      "lng": 18.2791667
    },
    {
      "cityName": "Kutovi",
      "lat": 45.6177778,
      "lng": 17.98
    },
    {
      "cityName": "Kuzma",
      "lat": 45.6333333,
      "lng": 17.5
    },
    {
      "cityName": "Lacici",
      "lat": 45.6366667,
      "lng": 18.2186111
    },
    {
      "cityName": "Ladanska",
      "lat": 45.5430556,
      "lng": 18.1658333
    },
    {
      "cityName": "Lanka",
      "lat": 45.9,
      "lng": 17.6
    },
    {
      "cityName": "Ledenik",
      "lat": 45.5163889,
      "lng": 18.2433333
    },
    {
      "cityName": "Levinovac",
      "lat": 45.7,
      "lng": 17.5166667
    },
    {
      "cityName": "Licani",
      "lat": 45.5111111,
      "lng": 18.2683333
    },
    {
      "cityName": "Licko Novo Selo",
      "lat": 45.5327778,
      "lng": 18.06
    },
    {
      "cityName": "Lila",
      "lat": 45.5547222,
      "lng": 18.1183333
    },
    {
      "cityName": "Lipine",
      "lat": 45.5786111,
      "lng": 18.145
    },
    {
      "cityName": "Lipovac",
      "lat": 45.65,
      "lng": 17.7
    },
    {
      "cityName": "Lisicine",
      "lat": 45.65,
      "lng": 17.5166667
    },
    {
      "cityName": "Lozan",
      "lat": 45.8913889,
      "lng": 17.29
    },
    {
      "cityName": "Lug Suboticki",
      "lat": 45.5091667,
      "lng": 18.3211111
    },
    {
      "cityName": "Lukac",
      "lat": 45.8725,
      "lng": 17.4194444
    },
    {
      "cityName": "Lukavac",
      "lat": 45.6833333,
      "lng": 17.6333333
    },
    {
      "cityName": "Mackovac",
      "lat": 45.7019444,
      "lng": 17.5530556
    },
    {
      "cityName": "Macute",
      "lat": 45.6219444,
      "lng": 17.6333333
    },
    {
      "cityName": "Majkovac",
      "lat": 45.9141667,
      "lng": 17.5322222
    },
    {
      "cityName": "Maklosevac",
      "lat": 45.4713889,
      "lng": 18.125
    },
    {
      "cityName": "Mala Cresnjevica",
      "lat": 45.9166667,
      "lng": 17.2
    },
    {
      "cityName": "Mali Rastovac",
      "lat": 45.6497222,
      "lng": 18.0027778
    },
    {
      "cityName": "Marijanci",
      "lat": 45.6669444,
      "lng": 18.2922222
    },
    {
      "cityName": "Markovac",
      "lat": 45.4938889,
      "lng": 18.1255556
    },
    {
      "cityName": "Martinci",
      "lat": 45.7333333,
      "lng": 17.9333333
    },
    {
      "cityName": "Martin",
      "lat": 45.4922222,
      "lng": 18.0666667
    },
    {
      "cityName": "Medinci",
      "lat": 45.7355556,
      "lng": 17.7519444
    },
    {
      "cityName": "Mikleuski Petrovac",
      "lat": 45.6333333,
      "lng": 17.8166667
    },
    {
      "cityName": "Mikleus",
      "lat": 45.6186111,
      "lng": 17.8038889
    },
    {
      "cityName": "Milanovac",
      "lat": 45.6666667,
      "lng": 17.95
    },
    {
      "cityName": "Miljevci",
      "lat": 45.6705556,
      "lng": 17.8277778
    },
    {
      "cityName": "Naschitz",
      "lat": 45.4886111,
      "lng": 18.0877778
    },
    {
      "cityName": "Naudovac",
      "lat": 45.8,
      "lng": 17.5666667
    },
    {
      "cityName": "Neteca",
      "lat": 45.9166667,
      "lng": 17.4166667
    },
    {
      "cityName": "Niza",
      "lat": 45.5458333,
      "lng": 18.2422222
    },
    {
      "cityName": "Njegosevac",
      "lat": 45.5716667,
      "lng": 18.1997222
    },
    {
      "cityName": "Noskovci",
      "lat": 45.7825,
      "lng": 17.8166667
    },
    {
      "cityName": "Nova Brezovica",
      "lat": 45.8666667,
      "lng": 17.5666667
    },
    {
      "cityName": "Nova Gradina",
      "lat": 45.85,
      "lng": 17.5166667
    },
    {
      "cityName": "Nova Josava",
      "lat": 45.5166667,
      "lng": 17.9333333
    },
    {
      "cityName": "Novaki",
      "lat": 45.8063889,
      "lng": 17.6336111
    },
    {
      "cityName": "Nova Krivaja",
      "lat": 45.65,
      "lng": 17.45
    },
    {
      "cityName": "Novi Budakovac",
      "lat": 45.85,
      "lng": 17.6333333
    },
    {
      "cityName": "Novi Gradac",
      "lat": 45.9197222,
      "lng": 17.5513889
    },
    {
      "cityName": "Novi Zoljan",
      "lat": 45.4758333,
      "lng": 18.0669444
    },
    {
      "cityName": "Novo Obilicevo",
      "lat": 45.8333333,
      "lng": 17.5666667
    },
    {
      "cityName": "Obradovci",
      "lat": 45.62,
      "lng": 17.9483333
    },
    {
      "cityName": "Okrugljaca",
      "lat": 45.9272222,
      "lng": 17.3663889
    },
    {
      "cityName": "Orahovica",
      "lat": 45.54,
      "lng": 17.8847222
    },
    {
      "cityName": "Ordanja",
      "lat": 45.5325,
      "lng": 18.2805556
    },
    {
      "cityName": "Oresac",
      "lat": 45.8136111,
      "lng": 17.5811111
    },
    {
      "cityName": "Oresnjak",
      "lat": 45.7666667,
      "lng": 17.95
    },
    {
      "cityName": "Otrovanec",
      "lat": 45.9227778,
      "lng": 17.2058333
    },
    {
      "cityName": "Pausinci",
      "lat": 45.6152778,
      "lng": 17.9194444
    },
    {
      "cityName": "Pcelic",
      "lat": 45.7791667,
      "lng": 17.5133333
    },
    {
      "cityName": "Pepelana",
      "lat": 45.7422222,
      "lng": 17.4863889
    },
    {
      "cityName": "Pitomaca",
      "lat": 45.9505556,
      "lng": 17.2294444
    },
    {
      "cityName": "Pivnica",
      "lat": 45.7141667,
      "lng": 17.4794444
    },
    {
      "cityName": "Podgajci Podrauski",
      "lat": 45.7291667,
      "lng": 18.2705556
    },
    {
      "cityName": "Podgorac",
      "lat": 45.4586111,
      "lng": 18.2227778
    },
    {
      "cityName": "Podravska Slatina",
      "lat": 45.7033333,
      "lng": 17.7027778
    },
    {
      "cityName": "Podravski Sokolac",
      "lat": 45.8575,
      "lng": 17.5861111
    },
    {
      "cityName": "Popovac",
      "lat": 45.65,
      "lng": 17.5666667
    },
    {
      "cityName": "Prekoracani",
      "lat": 45.5666667,
      "lng": 17.7333333
    },
    {
      "cityName": "Pribisevci",
      "lat": 45.5358333,
      "lng": 18.0836111
    },
    {
      "cityName": "Pusina",
      "lat": 45.5616667,
      "lng": 17.7669444
    },
    {
      "cityName": "Radosavci",
      "lat": 45.7,
      "lng": 17.6333333
    },
    {
      "cityName": "Rajino Polje",
      "lat": 45.6466667,
      "lng": 17.9016667
    },
    {
      "cityName": "Rezovacke Krcevine",
      "lat": 45.7833333,
      "lng": 17.4166667
    },
    {
      "cityName": "Rijenci",
      "lat": 45.6,
      "lng": 17.6833333
    },
    {
      "cityName": "Rogovac",
      "lat": 45.9033333,
      "lng": 17.3072222
    },
    {
      "cityName": "Rosani",
      "lat": 45.89,
      "lng": 17.5272222
    },
    {
      "cityName": "Saptinovci",
      "lat": 45.5791667,
      "lng": 18.06
    },
    {
      "cityName": "Sedlarica",
      "lat": 45.8952778,
      "lng": 17.1963889
    },
    {
      "cityName": "Sekulinci",
      "lat": 45.5875,
      "lng": 17.6158333
    },
    {
      "cityName": "Senkovac",
      "lat": 45.75,
      "lng": 17.75
    },
    {
      "cityName": "Seona",
      "lat": 45.4719444,
      "lng": 18.0261111
    },
    {
      "cityName": "Sesta",
      "lat": 45.8319444,
      "lng": 17.3838889
    },
    {
      "cityName": "Sipovac",
      "lat": 45.5016667,
      "lng": 18.0794444
    },
    {
      "cityName": "Sladojevci",
      "lat": 45.7238889,
      "lng": 17.6586111
    },
    {
      "cityName": "Sljivosevci",
      "lat": 45.6583333,
      "lng": 18.2122222
    },
    {
      "cityName": "Smude",
      "lat": 45.6,
      "lng": 17.6333333
    },
    {
      "cityName": "Sopje",
      "lat": 45.8011111,
      "lng": 17.7425
    },
    {
      "cityName": "Spanat",
      "lat": 45.765,
      "lng": 17.6358333
    },
    {
      "cityName": "Stara Josava",
      "lat": 45.5333333,
      "lng": 17.95
    },
    {
      "cityName": "Stara Krivaja",
      "lat": 45.6666667,
      "lng": 17.4833333
    },
    {
      "cityName": "Starin",
      "lat": 45.75,
      "lng": 17.8333333
    },
    {
      "cityName": "Stari Tajnovac",
      "lat": 45.4808333,
      "lng": 18.0452778
    },
    {
      "cityName": "Stari Zoljan",
      "lat": 45.4833333,
      "lng": 18.05
    },
    {
      "cityName": "Stipanovci",
      "lat": 45.4736111,
      "lng": 18.1880556
    },
    {
      "cityName": "Suhamlaka",
      "lat": 45.6888889,
      "lng": 17.9055556
    },
    {
      "cityName": "Suhoplje",
      "lat": 45.7997222,
      "lng": 17.4991667
    },
    {
      "cityName": "Sumede",
      "lat": 45.5,
      "lng": 17.9333333
    },
    {
      "cityName": "Susine",
      "lat": 45.5511111,
      "lng": 18.0625
    },
    {
      "cityName": "Sveti Durad",
      "lat": 45.6833333,
      "lng": 17.4666667
    },
    {
      "cityName": "Tanackov",
      "lat": 45.63,
      "lng": 18.1419444
    },
    {
      "cityName": "Teodorovac",
      "lat": 45.5586111,
      "lng": 18.0769444
    },
    {
      "cityName": "Terezienfeld",
      "lat": 45.9347222,
      "lng": 17.4588889
    },
    {
      "cityName": "Tiborjanci",
      "lat": 45.6833333,
      "lng": 18.3358333
    },
    {
      "cityName": "Torjanci",
      "lat": 45.7586111,
      "lng": 18.3661111
    },
    {
      "cityName": "Turanovac",
      "lat": 45.8936111,
      "lng": 17.3955556
    },
    {
      "cityName": "Turnasica",
      "lat": 45.8855556,
      "lng": 17.2163889
    },
    {
      "cityName": "Valenovac",
      "lat": 45.5,
      "lng": 17.9666667
    },
    {
      "cityName": "Vaska",
      "lat": 45.815,
      "lng": 17.6633333
    },
    {
      "cityName": "Veliki Rastovac",
      "lat": 45.65,
      "lng": 17.9833333
    },
    {
      "cityName": "Velimirovac",
      "lat": 45.5236111,
      "lng": 18.1094444
    },
    {
      "cityName": "Veliskovci",
      "lat": 45.6911111,
      "lng": 18.3216667
    },
    {
      "cityName": "Vinogradci",
      "lat": 45.6655556,
      "lng": 18.3619444
    },
    {
      "cityName": "Vocin",
      "lat": 45.6177778,
      "lng": 17.5477778
    },
    {
      "cityName": "Vranjesevac",
      "lat": 45.75,
      "lng": 17.8
    },
    {
      "cityName": "Vucjak Fericanacki",
      "lat": 45.52,
      "lng": 18.0047222
    },
    {
      "cityName": "Vukojevci",
      "lat": 45.4783333,
      "lng": 18.1555556
    },
    {
      "cityName": "Vukosavljevica",
      "lat": 45.8777778,
      "lng": 17.2322222
    },
    {
      "cityName": "Zabljaca",
      "lat": 45.7,
      "lng": 17.9666667
    },
    {
      "cityName": "Zdenci",
      "lat": 45.5891667,
      "lng": 17.9502778
    },
    {
      "cityName": "Zelcin",
      "lat": 45.6163889,
      "lng": 18.3613889
    },
    {
      "cityName": "Ziroslavlie",
      "lat": 45.79,
      "lng": 17.6019444
    },
    {
      "cityName": "Zubrica",
      "lat": 45.7666667,
      "lng": 17.55
    }
  ]
}