{
  "name": "West Kazakhstan",
  "cities": [
    {
      "cityName": "Abdrakhman-Mechet'",
      "lat": 50.1,
      "lng": 53.183333
    },
    {
      "cityName": "Abel'-Mula",
      "lat": 50.266667,
      "lng": 53.05
    },
    {
      "cityName": "Abinsk",
      "lat": 49.5,
      "lng": 49.8
    },
    {
      "cityName": "Abinski",
      "lat": 49.4,
      "lng": 49.233333
    },
    {
      "cityName": "Abish",
      "lat": 49.480278,
      "lng": 49.128611
    },
    {
      "cityName": "Abram",
      "lat": 50.368056,
      "lng": 49.038889
    },
    {
      "cityName": "Abramushkin",
      "lat": 50.8,
      "lng": 50.966667
    },
    {
      "cityName": "Aday-Aul",
      "lat": 48.851389,
      "lng": 47.191667
    },
    {
      "cityName": "Adaytobe",
      "lat": 50.366667,
      "lng": 51.183333
    },
    {
      "cityName": "Adel'bek",
      "lat": 48.05,
      "lng": 49.783333
    },
    {
      "cityName": "Agartu",
      "lat": 49.816667,
      "lng": 47.1
    },
    {
      "cityName": "Agatan",
      "lat": 50.75,
      "lng": 54.083333
    },
    {
      "cityName": "Agbayev Pervyy",
      "lat": 48.833333,
      "lng": 46.9
    },
    {
      "cityName": "Agbayev Vtoroy",
      "lat": 48.777222,
      "lng": 46.931111
    },
    {
      "cityName": "Aguba",
      "lat": 49.4,
      "lng": 47.4
    },
    {
      "cityName": "Aida",
      "lat": 48.216667,
      "lng": 50.4
    },
    {
      "cityName": "Aidmukhamedovskiy",
      "lat": 50.65,
      "lng": 52.116667
    },
    {
      "cityName": "Aimeken",
      "lat": 48.628056,
      "lng": 47.655556
    },
    {
      "cityName": "Ak-Blak",
      "lat": 49.95,
      "lng": 48.1
    },
    {
      "cityName": "Akbulak",
      "lat": 50.5,
      "lng": 54.083333
    },
    {
      "cityName": "Akchaganskiy",
      "lat": 50.783333,
      "lng": 53.333333
    },
    {
      "cityName": "Ak Chechen'",
      "lat": 50.216667,
      "lng": 47.533333
    },
    {
      "cityName": "Akchi",
      "lat": 50.266667,
      "lng": 53.833333
    },
    {
      "cityName": "Aket",
      "lat": 49.633333,
      "lng": 50.733333
    },
    {
      "cityName": "Akkozinskiy",
      "lat": 49.45,
      "lng": 53.498889
    },
    {
      "cityName": "Ak-Kuduk",
      "lat": 49.483333,
      "lng": 53.65
    },
    {
      "cityName": "Akkuduk",
      "lat": 50.833333,
      "lng": 52.733333
    },
    {
      "cityName": "Akkudukskiy",
      "lat": 50.766667,
      "lng": 52.716667
    },
    {
      "cityName": "Ak-kul'",
      "lat": 49.616667,
      "lng": 49.383333
    },
    {
      "cityName": "Akkulaksayskiy",
      "lat": 49.916667,
      "lng": 53.333333
    },
    {
      "cityName": "Akkul'kystau",
      "lat": 48.55,
      "lng": 48.416667
    },
    {
      "cityName": "Akkus",
      "lat": 49.633333,
      "lng": 50.083333
    },
    {
      "cityName": "Akmamyk",
      "lat": 49.383333,
      "lng": 49.533333
    },
    {
      "cityName": "Akmeshit",
      "lat": 48.966667,
      "lng": 51.933333
    },
    {
      "cityName": "Akmola",
      "lat": 51.366667,
      "lng": 52.783333
    },
    {
      "cityName": "Akmukan",
      "lat": 49.683333,
      "lng": 51.666667
    },
    {
      "cityName": "Aksaat",
      "lat": 50.816667,
      "lng": 52.45
    },
    {
      "cityName": "Aksaryak",
      "lat": 49.966667,
      "lng": 48.133333
    },
    {
      "cityName": "Aksay",
      "lat": 51.167778,
      "lng": 52.995
    },
    {
      "cityName": "Aksayev",
      "lat": 48.793333,
      "lng": 46.885278
    },
    {
      "cityName": "Aksha",
      "lat": 48.516667,
      "lng": 50.55
    },
    {
      "cityName": "Akshkol",
      "lat": 49.233333,
      "lng": 47.15
    },
    {
      "cityName": "Aksu",
      "lat": 50.948889,
      "lng": 53.079722
    },
    {
      "cityName": "Aksuat",
      "lat": 49.605833,
      "lng": 48.942778
    },
    {
      "cityName": "Aksuat-Tyubinskiy",
      "lat": 51.216667,
      "lng": 51.616667
    },
    {
      "cityName": "Akta-Say",
      "lat": 49.661111,
      "lng": 53.971944
    },
    {
      "cityName": "Aktau",
      "lat": 50.9,
      "lng": 53.483333
    },
    {
      "cityName": "Akzhaik",
      "lat": 50.666667,
      "lng": 51.583333
    },
    {
      "cityName": "Akzhar",
      "lat": 50.383333,
      "lng": 53.983333
    },
    {
      "cityName": "Alabaytal",
      "lat": 50.633333,
      "lng": 50.45
    },
    {
      "cityName": "Alakol'",
      "lat": 49.645,
      "lng": 53.770556
    },
    {
      "cityName": "Alaman",
      "lat": 49.133333,
      "lng": 51.133333
    },
    {
      "cityName": "Alatinskaya",
      "lat": 48.75,
      "lng": 48.433333
    },
    {
      "cityName": "Alautar",
      "lat": 49.383333,
      "lng": 48.033333
    },
    {
      "cityName": "Alebastrovyy",
      "lat": 51.390278,
      "lng": 52.348611
    },
    {
      "cityName": "Alekb",
      "lat": 48.1,
      "lng": 50
    },
    {
      "cityName": "Aleksandrovka",
      "lat": 50.806389,
      "lng": 52.969167
    },
    {
      "cityName": "Alekseyevka",
      "lat": 50.966667,
      "lng": 52.416667
    },
    {
      "cityName": "Algabas",
      "lat": 49.833333,
      "lng": 46.9
    },
    {
      "cityName": "Alghabas",
      "lat": 50.663889,
      "lng": 52.104722
    },
    {
      "cityName": "Alginskiy",
      "lat": 49.566667,
      "lng": 48.2
    },
    {
      "cityName": "Alimbek",
      "lat": 49.687778,
      "lng": 49.973056
    },
    {
      "cityName": "Almaznoe",
      "lat": 50.248333,
      "lng": 54.280278
    },
    {
      "cityName": "Alta-Apan",
      "lat": 50.25,
      "lng": 53.1
    },
    {
      "cityName": "Altayak",
      "lat": 50.883333,
      "lng": 51.333333
    },
    {
      "cityName": "Alteke",
      "lat": 49.85,
      "lng": 47.933333
    },
    {
      "cityName": "Alzhibay",
      "lat": 49.691667,
      "lng": 48.685
    },
    {
      "cityName": "Amancha-Shalach",
      "lat": 48.35,
      "lng": 46.85
    },
    {
      "cityName": "Amangeldi",
      "lat": 51.168333,
      "lng": 53.513333
    },
    {
      "cityName": "Amangel'dy",
      "lat": 50.975833,
      "lng": 49.933333
    },
    {
      "cityName": "Ambay",
      "lat": 49.716667,
      "lng": 48.7
    },
    {
      "cityName": "Andreyev",
      "lat": 49.85,
      "lng": 51.2
    },
    {
      "cityName": "Angqaty",
      "lat": 50.736111,
      "lng": 51.547222
    },
    {
      "cityName": "Ankata",
      "lat": 50.616667,
      "lng": 51.8
    },
    {
      "cityName": "Antel'yetmola",
      "lat": 50.05,
      "lng": 51.8
    },
    {
      "cityName": "Antonov",
      "lat": 49.378056,
      "lng": 51.765833
    },
    {
      "cityName": "Antovskiy",
      "lat": 50.516667,
      "lng": 52.7
    },
    {
      "cityName": "Antropov",
      "lat": 50.266667,
      "lng": 51.016667
    },
    {
      "cityName": "Aqpater",
      "lat": 49.828333,
      "lng": 49.233056
    },
    {
      "cityName": "Aqtau",
      "lat": 50.993056,
      "lng": 50.175
    },
    {
      "cityName": "Aralbay",
      "lat": 49.266667,
      "lng": 52.666667
    },
    {
      "cityName": "Aralsor",
      "lat": 49.133333,
      "lng": 48.233333
    },
    {
      "cityName": "Araltal",
      "lat": 51.186389,
      "lng": 52.921667
    },
    {
      "cityName": "Araltobe",
      "lat": 50.533333,
      "lng": 52.033333
    },
    {
      "cityName": "Aral-Tyube",
      "lat": 50.516667,
      "lng": 52.616667
    },
    {
      "cityName": "Araltyube",
      "lat": 50.5,
      "lng": 52.616667
    },
    {
      "cityName": "Aram-Kuardak",
      "lat": 50.583333,
      "lng": 50.3
    },
    {
      "cityName": "Aran-Ketau",
      "lat": 49.533333,
      "lng": 46.983333
    },
    {
      "cityName": "Ardembey",
      "lat": 48.383333,
      "lng": 50.033333
    },
    {
      "cityName": "Arlbayev",
      "lat": 49.4,
      "lng": 46.833333
    },
    {
      "cityName": "Aryngay",
      "lat": 50.166667,
      "lng": 47.3
    },
    {
      "cityName": "Asan",
      "lat": 50.399722,
      "lng": 48.874722
    },
    {
      "cityName": "Aserchevo",
      "lat": 51.166667,
      "lng": 50.533333
    },
    {
      "cityName": "Ashche-Butak",
      "lat": 50.9,
      "lng": 52.133333
    },
    {
      "cityName": "Ashche-Kuduk",
      "lat": 50.633333,
      "lng": 52.8
    },
    {
      "cityName": "Ashche-say",
      "lat": 50.333333,
      "lng": 51.7
    },
    {
      "cityName": "Ashchisay",
      "lat": 49.339722,
      "lng": 49.762222
    },
    {
      "cityName": "Ashchisayskiy",
      "lat": 51.163056,
      "lng": 53.765556
    },
    {
      "cityName": "Ashim Kstav",
      "lat": 50.466667,
      "lng": 49.25
    },
    {
      "cityName": "Asiy-Stan",
      "lat": 48.416667,
      "lng": 46.916667
    },
    {
      "cityName": "Assay",
      "lat": 50.366667,
      "lng": 51.2
    },
    {
      "cityName": "Astaf'yev",
      "lat": 51.583333,
      "lng": 51.25
    },
    {
      "cityName": "Astrakhankin",
      "lat": 51.066667,
      "lng": 50.666667
    },
    {
      "cityName": "Atambek",
      "lat": 50.583333,
      "lng": 49.566667
    },
    {
      "cityName": "Atambek-Kul'",
      "lat": 49.433333,
      "lng": 48.983333
    },
    {
      "cityName": "Atam-Kul'mak",
      "lat": 49.533333,
      "lng": 48.25
    },
    {
      "cityName": "Atbulak",
      "lat": 50.6,
      "lng": 54.166667
    },
    {
      "cityName": "Atchunkay",
      "lat": 50.333333,
      "lng": 52.466667
    },
    {
      "cityName": "Aul Baydukov",
      "lat": 50.116667,
      "lng": 47.416667
    },
    {
      "cityName": "Aul-Chin",
      "lat": 50.933333,
      "lng": 52.883333
    },
    {
      "cityName": "Aul Chingali",
      "lat": 50.05,
      "lng": 47.516667
    },
    {
      "cityName": "Aulet",
      "lat": 48.366667,
      "lng": 46.85
    },
    {
      "cityName": "Aul Seytagov",
      "lat": 50.133333,
      "lng": 47.716667
    },
    {
      "cityName": "Auyz-Kuduk",
      "lat": 48.7,
      "lng": 49.316667
    },
    {
      "cityName": "Auzashik",
      "lat": 48.699444,
      "lng": 47.420556
    },
    {
      "cityName": "Ayak",
      "lat": 50.740556,
      "lng": 49.863333
    },
    {
      "cityName": "Ayakkol'",
      "lat": 50.066667,
      "lng": 52.3
    },
    {
      "cityName": "Aybulat",
      "lat": 49.75,
      "lng": 54.283333
    },
    {
      "cityName": "Aydarkhan",
      "lat": 49.218056,
      "lng": 49.838611
    },
    {
      "cityName": "Aydarly",
      "lat": 50.116667,
      "lng": 47.533333
    },
    {
      "cityName": "Aydas",
      "lat": 50.95,
      "lng": 51.966667
    },
    {
      "cityName": "Aygancha",
      "lat": 49.833333,
      "lng": 49.666667
    },
    {
      "cityName": "Aygansha",
      "lat": 49.780833,
      "lng": 49.298056
    },
    {
      "cityName": "Aykal",
      "lat": 48.9,
      "lng": 47.3
    },
    {
      "cityName": "Aykynkum",
      "lat": 48.583333,
      "lng": 49.133333
    },
    {
      "cityName": "Aytakov",
      "lat": 49.516667,
      "lng": 46.85
    },
    {
      "cityName": "Aytbay",
      "lat": 49.483333,
      "lng": 50.566667
    },
    {
      "cityName": "Aytgay",
      "lat": 50.15,
      "lng": 47.316667
    },
    {
      "cityName": "Aytishev",
      "lat": 49.733333,
      "lng": 46.95
    },
    {
      "cityName": "Azhebay",
      "lat": 49.45,
      "lng": 48.5
    },
    {
      "cityName": "Azhen",
      "lat": 48.748056,
      "lng": 47.671111
    },
    {
      "cityName": "Azhiboy",
      "lat": 50.6,
      "lng": 51.216667
    },
    {
      "cityName": "Azhki-Say",
      "lat": 50.05,
      "lng": 48.033333
    },
    {
      "cityName": "Azovskiy",
      "lat": 50.516667,
      "lng": 50.516667
    },
    {
      "cityName": "Bagatyrevka",
      "lat": 50.366667,
      "lng": 48.771667
    },
    {
      "cityName": "Baibek",
      "lat": 50.483333,
      "lng": 49.85
    },
    {
      "cityName": "Bakaly",
      "lat": 50.4,
      "lng": 52.9
    },
    {
      "cityName": "Bakhirëv",
      "lat": 50.466667,
      "lng": 50.8
    },
    {
      "cityName": "Bakhirov",
      "lat": 50.1,
      "lng": 50.583333
    },
    {
      "cityName": "Bakhiroy",
      "lat": 50.466667,
      "lng": 50.366667
    },
    {
      "cityName": "Baktaral",
      "lat": 51.116111,
      "lng": 52.933333
    },
    {
      "cityName": "Baktygirey",
      "lat": 50.166667,
      "lng": 51.533333
    },
    {
      "cityName": "Balabanov",
      "lat": 51.635,
      "lng": 52.028056
    },
    {
      "cityName": "Balagan",
      "lat": 50.983333,
      "lng": 51.166667
    },
    {
      "cityName": "Balatay",
      "lat": 50.85,
      "lng": 50.866667
    },
    {
      "cityName": "Baldyrgan",
      "lat": 49.155,
      "lng": 49.259167
    },
    {
      "cityName": "Balnistobe",
      "lat": 49.25,
      "lng": 51.983333
    },
    {
      "cityName": "Bangazy",
      "lat": 48.283333,
      "lng": 50.5
    },
    {
      "cityName": "Bannov",
      "lat": 50.25,
      "lng": 50.733333
    },
    {
      "cityName": "Barambay",
      "lat": 50.2,
      "lng": 53.75
    },
    {
      "cityName": "Baranovka",
      "lat": 50.433333,
      "lng": 51.016667
    },
    {
      "cityName": "Barbastau",
      "lat": 51.05,
      "lng": 51.55
    },
    {
      "cityName": "Barkazan",
      "lat": 50.66,
      "lng": 49.660278
    },
    {
      "cityName": "Barpel'",
      "lat": 49.65,
      "lng": 50.766667
    },
    {
      "cityName": "Basheny",
      "lat": 50.066667,
      "lng": 52.633333
    },
    {
      "cityName": "Basyr",
      "lat": 49.35,
      "lng": 47.033333
    },
    {
      "cityName": "Batak",
      "lat": 50.25,
      "lng": 51.85
    },
    {
      "cityName": "Batpakkol'",
      "lat": 49.450833,
      "lng": 52.957222
    },
    {
      "cityName": "Batpakty",
      "lat": 50.55,
      "lng": 53.05
    },
    {
      "cityName": "Batpakty-Kul'",
      "lat": 50.033333,
      "lng": 52.933333
    },
    {
      "cityName": "Batr",
      "lat": 49.6,
      "lng": 48.75
    },
    {
      "cityName": "Battykty",
      "lat": 50.466667,
      "lng": 53.05
    },
    {
      "cityName": "Baturino",
      "lat": 49.716667,
      "lng": 51.433333
    },
    {
      "cityName": "Batyr Galiy",
      "lat": 50.4,
      "lng": 49.2
    },
    {
      "cityName": "Bayaktobe",
      "lat": 49.066667,
      "lng": 51.983333
    },
    {
      "cityName": "Bayavlo",
      "lat": 49.4,
      "lng": 48.766667
    },
    {
      "cityName": "Baybakhty",
      "lat": 49.583333,
      "lng": 46.966667
    },
    {
      "cityName": "Baycherkesh",
      "lat": 51.383333,
      "lng": 52.6
    },
    {
      "cityName": "Baygasa",
      "lat": 49.583333,
      "lng": 48.316667
    },
    {
      "cityName": "Baykana",
      "lat": 50.233333,
      "lng": 51.316667
    },
    {
      "cityName": "Baypakty",
      "lat": 50.166667,
      "lng": 51.816667
    },
    {
      "cityName": "Baysara",
      "lat": 50.116667,
      "lng": 51.716667
    },
    {
      "cityName": "Bayturgan",
      "lat": 49.886944,
      "lng": 49.150833
    },
    {
      "cityName": "Bazarchulan",
      "lat": 49.06,
      "lng": 51.935833
    },
    {
      "cityName": "Bazartöbe",
      "lat": 49.391944,
      "lng": 51.822222
    },
    {
      "cityName": "Bazirke",
      "lat": 50.4,
      "lng": 53.633333
    },
    {
      "cityName": "Bazy",
      "lat": 50.65,
      "lng": 49.433333
    },
    {
      "cityName": "Bedenki",
      "lat": 50.455556,
      "lng": 48.968611
    },
    {
      "cityName": "Begeu",
      "lat": 49.35,
      "lng": 47.616667
    },
    {
      "cityName": "Begis",
      "lat": 50.033333,
      "lng": 47.866667
    },
    {
      "cityName": "Beken",
      "lat": 49.966667,
      "lng": 47.65
    },
    {
      "cityName": "Beketay",
      "lat": 48.25,
      "lng": 49.5
    },
    {
      "cityName": "Beket",
      "lat": 48.9,
      "lng": 51.9
    },
    {
      "cityName": "Bekeykol'",
      "lat": 50.966667,
      "lng": 51.783333
    },
    {
      "cityName": "Bekkaly",
      "lat": 48.866667,
      "lng": 49.3
    },
    {
      "cityName": "Bekmukhanbetov",
      "lat": 49.65,
      "lng": 46.9
    },
    {
      "cityName": "Beksaul",
      "lat": 48.541667,
      "lng": 47.843889
    },
    {
      "cityName": "Bektas",
      "lat": 48.533333,
      "lng": 47.556944
    },
    {
      "cityName": "Bekzhantobe",
      "lat": 50.95,
      "lng": 51.266667
    },
    {
      "cityName": "Bel'-Agach",
      "lat": 50.383333,
      "lng": 50.466667
    },
    {
      "cityName": "Belen'kiy",
      "lat": 51.033333,
      "lng": 49.95
    },
    {
      "cityName": "Belgorodskiy",
      "lat": 50.721944,
      "lng": 53.4625
    },
    {
      "cityName": "Beloglinka",
      "lat": 51.516667,
      "lng": 50.816667
    },
    {
      "cityName": "Belousov",
      "lat": 50.85,
      "lng": 50.15
    },
    {
      "cityName": "Belugin",
      "lat": 50.9,
      "lng": 50.9
    },
    {
      "cityName": "Belyye Gorki",
      "lat": 51.116667,
      "lng": 51.333333
    },
    {
      "cityName": "Berezino",
      "lat": 50.085556,
      "lng": 48.861667
    },
    {
      "cityName": "Berezovka",
      "lat": 51.2075,
      "lng": 53.345833
    },
    {
      "cityName": "Berlik",
      "lat": 48.966667,
      "lng": 49.35
    },
    {
      "cityName": "Bes-Agach",
      "lat": 51.104722,
      "lng": 52.697778
    },
    {
      "cityName": "Beshtanov",
      "lat": 49.05,
      "lng": 49.25
    },
    {
      "cityName": "Beskol'",
      "lat": 50.366667,
      "lng": 54.283333
    },
    {
      "cityName": "Beskuduk",
      "lat": 50.110278,
      "lng": 49.373333
    },
    {
      "cityName": "Beskutyr",
      "lat": 49.248611,
      "lng": 52.96
    },
    {
      "cityName": "Besoba",
      "lat": 49.737222,
      "lng": 53.400833
    },
    {
      "cityName": "Bespishen",
      "lat": 49.723611,
      "lng": 48.605278
    },
    {
      "cityName": "Besshtannov",
      "lat": 50.816667,
      "lng": 50.833333
    },
    {
      "cityName": "Bestandyk",
      "lat": 49.624167,
      "lng": 48.888889
    },
    {
      "cityName": "Bestau",
      "lat": 51.271667,
      "lng": 53.053056
    },
    {
      "cityName": "Besterek",
      "lat": 49.933333,
      "lng": 50.033333
    },
    {
      "cityName": "Bestogan",
      "lat": 49.274722,
      "lng": 49.481667
    },
    {
      "cityName": "Beybulat",
      "lat": 48.183333,
      "lng": 49.85
    },
    {
      "cityName": "Bibul",
      "lat": 48.616667,
      "lng": 47.5
    },
    {
      "cityName": "Bidoyak",
      "lat": 50.783333,
      "lng": 51.333333
    },
    {
      "cityName": "Biklay",
      "lat": 50.583333,
      "lng": 53.383333
    },
    {
      "cityName": "Biksarayevskiy",
      "lat": 51.05,
      "lng": 51.833333
    },
    {
      "cityName": "Bikskul'",
      "lat": 49.6,
      "lng": 51.716667
    },
    {
      "cityName": "Bimshagyl",
      "lat": 49.433333,
      "lng": 53.666667
    },
    {
      "cityName": "Birkali",
      "lat": 49.333333,
      "lng": 46.883333
    },
    {
      "cityName": "Birsugur",
      "lat": 49.216667,
      "lng": 53.483333
    },
    {
      "cityName": "Bisanskiy",
      "lat": 48.995556,
      "lng": 47.659167
    },
    {
      "cityName": "Bisenov",
      "lat": 50.016667,
      "lng": 48.083333
    },
    {
      "cityName": "Bish-Chubinski",
      "lat": 49.499722,
      "lng": 50.507222
    },
    {
      "cityName": "Bis-Oba",
      "lat": 50.333333,
      "lng": 53.25
    },
    {
      "cityName": "Bis-Uba",
      "lat": 49.766667,
      "lng": 48.033333
    },
    {
      "cityName": "Bitek",
      "lat": 49.65,
      "lng": 53.2
    },
    {
      "cityName": "Bitik",
      "lat": 50.142778,
      "lng": 50.485833
    },
    {
      "cityName": "Biyatov",
      "lat": 48.716667,
      "lng": 46.866667
    },
    {
      "cityName": "Bizyanov",
      "lat": 49.883333,
      "lng": 50.033333
    },
    {
      "cityName": "Bobrov",
      "lat": 50.45,
      "lng": 51.216667
    },
    {
      "cityName": "Bogatinski",
      "lat": 50.666667,
      "lng": 51.1
    },
    {
      "cityName": "Bogdanovka",
      "lat": 51.064444,
      "lng": 52.136111
    },
    {
      "cityName": "Boget",
      "lat": 49.666667,
      "lng": 48
    },
    {
      "cityName": "Bokaushin",
      "lat": 51.3,
      "lng": 51.016667
    },
    {
      "cityName": "Boldyrev",
      "lat": 49.933333,
      "lng": 50.933333
    },
    {
      "cityName": "Bol'shaya Kuz'-Gora",
      "lat": 50.266667,
      "lng": 50.65
    },
    {
      "cityName": "Bol'shoy Alimbek",
      "lat": 49.683333,
      "lng": 49.95
    },
    {
      "cityName": "Bol'shoy Chagan",
      "lat": 50.932222,
      "lng": 51.145833
    },
    {
      "cityName": "Bol'shoy Gorbunov",
      "lat": 50.583333,
      "lng": 50.566667
    },
    {
      "cityName": "Bol'shoy Gorshkov",
      "lat": 50.566667,
      "lng": 50.716667
    },
    {
      "cityName": "Bol'shoy Imen'",
      "lat": 50.083333,
      "lng": 50.116667
    },
    {
      "cityName": "Bol'shoy Kandyk",
      "lat": 50.783333,
      "lng": 51.666667
    },
    {
      "cityName": "Bol'shoy Karakol'",
      "lat": 48.416667,
      "lng": 46.616667
    },
    {
      "cityName": "Bol'shoy Sarykuduk",
      "lat": 49.771667,
      "lng": 49.975833
    },
    {
      "cityName": "Borbas",
      "lat": 50.416667,
      "lng": 52.366667
    },
    {
      "cityName": "Börili",
      "lat": 51.426944,
      "lng": 52.7125
    },
    {
      "cityName": "Boriska",
      "lat": 49.983333,
      "lng": 50.7
    },
    {
      "cityName": "Borle",
      "lat": 48.866667,
      "lng": 48.533333
    },
    {
      "cityName": "Borodinskiy",
      "lat": 48.983333,
      "lng": 49.866667
    },
    {
      "cityName": "Borsy",
      "lat": 50.116667,
      "lng": 47.466667
    },
    {
      "cityName": "Boryk",
      "lat": 49.583333,
      "lng": 50.35
    },
    {
      "cityName": "Bostan",
      "lat": 50,
      "lng": 52.116667
    },
    {
      "cityName": "Bostandyk",
      "lat": 49.44,
      "lng": 49.691389
    },
    {
      "cityName": "Boysuat",
      "lat": 49.9,
      "lng": 47.633333
    },
    {
      "cityName": "Bozoba",
      "lat": 49.847778,
      "lng": 48.764722
    },
    {
      "cityName": "Brik",
      "lat": 49.666667,
      "lng": 48.116667
    },
    {
      "cityName": "Brikskiy",
      "lat": 49.7,
      "lng": 48.566667
    },
    {
      "cityName": "Bubenets",
      "lat": 50.868333,
      "lng": 49.471944
    },
    {
      "cityName": "Budarino",
      "lat": 50.508889,
      "lng": 51.062222
    },
    {
      "cityName": "Budënnovka",
      "lat": 50.866667,
      "lng": 52.766667
    },
    {
      "cityName": "Bukan",
      "lat": 50.233333,
      "lng": 51.55
    },
    {
      "cityName": "Bukany",
      "lat": 51.583333,
      "lng": 50.583333
    },
    {
      "cityName": "Bulak",
      "lat": 50.183333,
      "lng": 50.216667
    },
    {
      "cityName": "Bulanov",
      "lat": 49.35,
      "lng": 46.8
    },
    {
      "cityName": "Bulat",
      "lat": 49.583333,
      "lng": 47.3
    },
    {
      "cityName": "Bulat-Mola",
      "lat": 50.216667,
      "lng": 52.883333
    },
    {
      "cityName": "Buldurta",
      "lat": 50.091944,
      "lng": 53.164722
    },
    {
      "cityName": "Buldurty",
      "lat": 50.183333,
      "lng": 53.566667
    },
    {
      "cityName": "Buldyk",
      "lat": 50.266667,
      "lng": 50.033333
    },
    {
      "cityName": "Buldyrty",
      "lat": 49.983333,
      "lng": 52.983333
    },
    {
      "cityName": "Bulikshubar",
      "lat": 49.941944,
      "lng": 49.607778
    },
    {
      "cityName": "Bully",
      "lat": 50.016667,
      "lng": 47.533333
    },
    {
      "cityName": "Bulyunkol'",
      "lat": 49.666667,
      "lng": 53.5
    },
    {
      "cityName": "Buma",
      "lat": 51.445278,
      "lng": 52.819722
    },
    {
      "cityName": "Burenin",
      "lat": 51.65,
      "lng": 52.05
    },
    {
      "cityName": "Burlinskiy",
      "lat": 51.2,
      "lng": 52.916667
    },
    {
      "cityName": "Burlisay",
      "lat": 50.533333,
      "lng": 54.116667
    },
    {
      "cityName": "Burov",
      "lat": 49.35,
      "lng": 49.983333
    },
    {
      "cityName": "Burunbay",
      "lat": 49.866667,
      "lng": 51.633333
    },
    {
      "cityName": "Bushali",
      "lat": 48.633333,
      "lng": 48.85
    },
    {
      "cityName": "Buzay",
      "lat": 50.566667,
      "lng": 51.533333
    },
    {
      "cityName": "Bykov",
      "lat": 50.4,
      "lng": 50.716667
    },
    {
      "cityName": "Bylkyldak",
      "lat": 50.466667,
      "lng": 53.616667
    },
    {
      "cityName": "Chadyrty",
      "lat": 50.416667,
      "lng": 52.533333
    },
    {
      "cityName": "Chaganskiy",
      "lat": 51.083333,
      "lng": 51.55
    },
    {
      "cityName": "Chagatay",
      "lat": 50.416667,
      "lng": 51.216667
    },
    {
      "cityName": "Chaker",
      "lat": 50.216667,
      "lng": 52
    },
    {
      "cityName": "Chalak-Ankata",
      "lat": 50.766667,
      "lng": 51.9
    },
    {
      "cityName": "Chalkar",
      "lat": 50.521389,
      "lng": 51.793889
    },
    {
      "cityName": "Chanton",
      "lat": 49.666667,
      "lng": 48.866667
    },
    {
      "cityName": "Chantym",
      "lat": 48.583333,
      "lng": 48.05
    },
    {
      "cityName": "Chapaev",
      "lat": 50.2,
      "lng": 51.166667
    },
    {
      "cityName": "Chapov",
      "lat": 51.383333,
      "lng": 51.283333
    },
    {
      "cityName": "Chapurin",
      "lat": 51.583333,
      "lng": 51.016667
    },
    {
      "cityName": "Chebakova",
      "lat": 50.533333,
      "lng": 48.791389
    },
    {
      "cityName": "Chebatarëv",
      "lat": 51.573889,
      "lng": 52.080556
    },
    {
      "cityName": "Chederta",
      "lat": 50.333333,
      "lng": 52.4
    },
    {
      "cityName": "Chërnaya Padina",
      "lat": 50.983333,
      "lng": 50.283333
    },
    {
      "cityName": "Chernoyarov",
      "lat": 51.166667,
      "lng": 50.766667
    },
    {
      "cityName": "Chernukhin",
      "lat": 51.083333,
      "lng": 50.883333
    },
    {
      "cityName": "Chernyayev",
      "lat": 50.466667,
      "lng": 50.65
    },
    {
      "cityName": "Chernyshëv",
      "lat": 50.3,
      "lng": 50.833333
    },
    {
      "cityName": "Chesnakov",
      "lat": 50.35,
      "lng": 50.583333
    },
    {
      "cityName": "Chesnokovo",
      "lat": 51.655278,
      "lng": 52.175556
    },
    {
      "cityName": "Chevilev",
      "lat": 50.966667,
      "lng": 49.4
    },
    {
      "cityName": "Chigatay",
      "lat": 50.433333,
      "lng": 51.3
    },
    {
      "cityName": "Chigrin",
      "lat": 51.683333,
      "lng": 52.333333
    },
    {
      "cityName": "Chilek",
      "lat": 51.116667,
      "lng": 54.116667
    },
    {
      "cityName": "Chinarëv",
      "lat": 51.563056,
      "lng": 52.469167
    },
    {
      "cityName": "Chingirlau",
      "lat": 51.095,
      "lng": 54.081389
    },
    {
      "cityName": "Chirov",
      "lat": 51.633333,
      "lng": 51.966667
    },
    {
      "cityName": "Chizha Pervaya",
      "lat": 50.940833,
      "lng": 49.964167
    },
    {
      "cityName": "Chizha Vtoraya",
      "lat": 50.863333,
      "lng": 49.656944
    },
    {
      "cityName": "Chuak",
      "lat": 50.8,
      "lng": 50.616667
    },
    {
      "cityName": "Chubarchak",
      "lat": 50.133333,
      "lng": 52.933333
    },
    {
      "cityName": "Chubarkul'",
      "lat": 50.983333,
      "lng": 51.8
    },
    {
      "cityName": "Chudat-Bergen",
      "lat": 49.75,
      "lng": 48.416667
    },
    {
      "cityName": "Chukalin",
      "lat": 50.866667,
      "lng": 50.316667
    },
    {
      "cityName": "Chulpan",
      "lat": 51.366667,
      "lng": 51.9
    },
    {
      "cityName": "Churbanov",
      "lat": 51.35,
      "lng": 50.8
    },
    {
      "cityName": "Chureyev",
      "lat": 50.5,
      "lng": 49.683333
    },
    {
      "cityName": "Chuvashinskiy",
      "lat": 51.416667,
      "lng": 51.533333
    },
    {
      "cityName": "Dalbun",
      "lat": 48.783333,
      "lng": 46.833333
    },
    {
      "cityName": "Dalpakbas",
      "lat": 50.15,
      "lng": 47.683333
    },
    {
      "cityName": "Danilekol'",
      "lat": 51.363889,
      "lng": 52.503333
    },
    {
      "cityName": "Danilka",
      "lat": 49.983333,
      "lng": 50.466667
    },
    {
      "cityName": "Dar'inskiy",
      "lat": 51.333333,
      "lng": 51.733333
    },
    {
      "cityName": "Dass",
      "lat": 49.8,
      "lng": 49.166667
    },
    {
      "cityName": "Dat-Mechet'",
      "lat": 49.9,
      "lng": 52.566667
    },
    {
      "cityName": "Daulet-Yar",
      "lat": 50.033333,
      "lng": 52.133333
    },
    {
      "cityName": "Dembiy",
      "lat": 49.25,
      "lng": 50.516667
    },
    {
      "cityName": "Derkul",
      "lat": 51.255556,
      "lng": 51.291944
    },
    {
      "cityName": "Desyat' Let Kazakhstana",
      "lat": 51.15,
      "lng": 53.833333
    },
    {
      "cityName": "Dirkekuduk",
      "lat": 49.733333,
      "lng": 51.233333
    },
    {
      "cityName": "Dizhiembet",
      "lat": 49.516667,
      "lng": 47.85
    },
    {
      "cityName": "Djanibek",
      "lat": 49.416667,
      "lng": 46.85
    },
    {
      "cityName": "Dmitrov",
      "lat": 51.475556,
      "lng": 53.338611
    },
    {
      "cityName": "Dolinnoye",
      "lat": 51.269444,
      "lng": 52.165833
    },
    {
      "cityName": "Dolinskiy",
      "lat": 51.394167,
      "lng": 52.32
    },
    {
      "cityName": "Donetsk",
      "lat": 51.201111,
      "lng": 52.086111
    },
    {
      "cityName": "Dongelek",
      "lat": 49.9,
      "lng": 50.583333
    },
    {
      "cityName": "Dosan-Tyube",
      "lat": 50.7,
      "lng": 51.25
    },
    {
      "cityName": "Dosman",
      "lat": 49.366667,
      "lng": 52.016667
    },
    {
      "cityName": "Dostay",
      "lat": 50.266667,
      "lng": 47.683333
    },
    {
      "cityName": "Duana",
      "lat": 50.283333,
      "lng": 51.516667
    },
    {
      "cityName": "Duse",
      "lat": 50.564167,
      "lng": 49.446389
    },
    {
      "cityName": "Dushchanov",
      "lat": 49.8,
      "lng": 48.633333
    },
    {
      "cityName": "D'yakov",
      "lat": 51.35,
      "lng": 51.833333
    },
    {
      "cityName": "Dymar",
      "lat": 48.216667,
      "lng": 49.433333
    },
    {
      "cityName": "Dyukulyuk",
      "lat": 48.966667,
      "lng": 49.65
    },
    {
      "cityName": "Dyurt-Kulak",
      "lat": 49.716667,
      "lng": 50.7
    },
    {
      "cityName": "Dyurt-Kutyur",
      "lat": 49.933333,
      "lng": 52.516667
    },
    {
      "cityName": "Dyurtpishen",
      "lat": 49.247222,
      "lng": 49.488889
    },
    {
      "cityName": "Dzhadey",
      "lat": 49.85,
      "lng": 50.166667
    },
    {
      "cityName": "Dzhakatan",
      "lat": 50.55,
      "lng": 51.933333
    },
    {
      "cityName": "Dzhakhanayev",
      "lat": 49.65,
      "lng": 46.966667
    },
    {
      "cityName": "Dzhaksybai",
      "lat": 50.216667,
      "lng": 47.816667
    },
    {
      "cityName": "Dzhaldin",
      "lat": 49.233333,
      "lng": 48.1
    },
    {
      "cityName": "Dzhalmurzinov",
      "lat": 49.666667,
      "lng": 46.966667
    },
    {
      "cityName": "Dzhalpak-Tal",
      "lat": 49.65,
      "lng": 49.533333
    },
    {
      "cityName": "Dzhaman-Chubar",
      "lat": 49.916667,
      "lng": 49.6
    },
    {
      "cityName": "Dzhamantau",
      "lat": 48.466667,
      "lng": 47.1
    },
    {
      "cityName": "Dzhambala",
      "lat": 49.816667,
      "lng": 48.533333
    },
    {
      "cityName": "Dzhambeita",
      "lat": 50.253611,
      "lng": 52.595
    },
    {
      "cityName": "Dzhambeyta",
      "lat": 50.066667,
      "lng": 52.766667
    },
    {
      "cityName": "Dzhanatala",
      "lat": 49.183333,
      "lng": 50.466667
    },
    {
      "cityName": "Dzhana-Tam",
      "lat": 48.75,
      "lng": 47.933333
    },
    {
      "cityName": "Dzhandarbek",
      "lat": 51.15,
      "lng": 52.533333
    },
    {
      "cityName": "Dzhangala",
      "lat": 48.933333,
      "lng": 49.6
    },
    {
      "cityName": "Dzhany-Kuduk",
      "lat": 50.216667,
      "lng": 50.25
    },
    {
      "cityName": "Dzhasary-Kul'",
      "lat": 48.983333,
      "lng": 49.6
    },
    {
      "cityName": "Dzhemchin",
      "lat": 50.916667,
      "lng": 50.55
    },
    {
      "cityName": "Dzhet Yekshi",
      "lat": 48.5,
      "lng": 47.966667
    },
    {
      "cityName": "Dzhger",
      "lat": 48.701389,
      "lng": 47.924444
    },
    {
      "cityName": "Dzhimugale",
      "lat": 48.593889,
      "lng": 46.647222
    },
    {
      "cityName": "Dzhimugale-Karambayev",
      "lat": 48.616667,
      "lng": 46.733333
    },
    {
      "cityName": "Dzhuldbayev",
      "lat": 48.727778,
      "lng": 46.801667
    },
    {
      "cityName": "Dzhumuki",
      "lat": 49.95,
      "lng": 51.433333
    },
    {
      "cityName": "Dzhurkan",
      "lat": 49.583333,
      "lng": 48.366667
    },
    {
      "cityName": "Dzhusup",
      "lat": 49.583333,
      "lng": 48.7
    },
    {
      "cityName": "Dzhuvanysh-Kul'",
      "lat": 50.866667,
      "lng": 51.566667
    },
    {
      "cityName": "Egindiköl",
      "lat": 50.040278,
      "lng": 54.048333
    },
    {
      "cityName": "El'tonskiy",
      "lat": 50.066667,
      "lng": 47.3
    },
    {
      "cityName": "Embekskiy",
      "lat": 49.733333,
      "lng": 48.333333
    },
    {
      "cityName": "Enbek",
      "lat": 48.633333,
      "lng": 46.9
    },
    {
      "cityName": "Enbekshi",
      "lat": 48.75,
      "lng": 49.266667
    },
    {
      "cityName": "Esensay",
      "lat": 49.887222,
      "lng": 51.443056
    },
    {
      "cityName": "Fakel",
      "lat": 51.366667,
      "lng": 51.5
    },
    {
      "cityName": "Fakeyev",
      "lat": 48.95,
      "lng": 49.933333
    },
    {
      "cityName": "Fedorovka",
      "lat": 51.2,
      "lng": 51.983333
    },
    {
      "cityName": "Fedotov",
      "lat": 50.555278,
      "lng": 48.717778
    },
    {
      "cityName": "Feduleyev",
      "lat": 51.483333,
      "lng": 51.616667
    },
    {
      "cityName": "Filimonov",
      "lat": 48.521111,
      "lng": 46.693611
    },
    {
      "cityName": "Fil'kin",
      "lat": 50.306389,
      "lng": 48.886389
    },
    {
      "cityName": "Fokey",
      "lat": 49.95,
      "lng": 50.216667
    },
    {
      "cityName": "Fokin",
      "lat": 50.166667,
      "lng": 50.083333
    },
    {
      "cityName": "Foma-Kuduk",
      "lat": 50.166667,
      "lng": 49.05
    },
    {
      "cityName": "Furmanov",
      "lat": 51.371111,
      "lng": 51.516389
    },
    {
      "cityName": "Furmanovo",
      "lat": 49.666667,
      "lng": 49.466667
    },
    {
      "cityName": "Galitsyn",
      "lat": 51.333333,
      "lng": 51.783333
    },
    {
      "cityName": "Gataulinskiy",
      "lat": 50.383333,
      "lng": 52.166667
    },
    {
      "cityName": "Glavnyy",
      "lat": 51.083333,
      "lng": 49.75
    },
    {
      "cityName": "Glinenskiy",
      "lat": 48.95,
      "lng": 49.666667
    },
    {
      "cityName": "Glinenskiy Vtoroy",
      "lat": 49.083333,
      "lng": 49.966667
    },
    {
      "cityName": "Gnilovski",
      "lat": 51.3,
      "lng": 51.666667
    },
    {
      "cityName": "Gora Kyzylbas",
      "lat": 51.1,
      "lng": 50.05
    },
    {
      "cityName": "Gora Tish Uba",
      "lat": 51.066667,
      "lng": 50.116667
    },
    {
      "cityName": "Gorbunov",
      "lat": 50.333333,
      "lng": 50.733333
    },
    {
      "cityName": "Gorbunov Pervyy",
      "lat": 51.35,
      "lng": 51.3
    },
    {
      "cityName": "Gorshkov",
      "lat": 50.6,
      "lng": 50.783333
    },
    {
      "cityName": "Goryachenskiy",
      "lat": 50.1,
      "lng": 51.283333
    },
    {
      "cityName": "Grebuchi",
      "lat": 51.45,
      "lng": 52.166667
    },
    {
      "cityName": "Gremyachiy",
      "lat": 51.366667,
      "lng": 50.933333
    },
    {
      "cityName": "Grigor'yevka",
      "lat": 51.054444,
      "lng": 52.938056
    },
    {
      "cityName": "Grishin",
      "lat": 49.716667,
      "lng": 46.933333
    },
    {
      "cityName": "Iksak-Tyube",
      "lat": 49.166667,
      "lng": 52
    },
    {
      "cityName": "Ilekshar",
      "lat": 50.883333,
      "lng": 54.316667
    },
    {
      "cityName": "Il'inskiy",
      "lat": 51.016667,
      "lng": 52.066667
    },
    {
      "cityName": "Il'yasovo",
      "lat": 50.05,
      "lng": 51.466667
    },
    {
      "cityName": "Imeni Abaya",
      "lat": 50.1,
      "lng": 52.7
    },
    {
      "cityName": "Imeni Budennogo",
      "lat": 49.175278,
      "lng": 50.454167
    },
    {
      "cityName": "Imeni Chapayeva",
      "lat": 48.585833,
      "lng": 46.8925
    },
    {
      "cityName": "Imeni Engel'sa",
      "lat": 49.166667,
      "lng": 48.483333
    },
    {
      "cityName": "Imeni Gazety Pravda",
      "lat": 50.866667,
      "lng": 52.083333
    },
    {
      "cityName": "Imeni Gor'kogo",
      "lat": 50.516667,
      "lng": 53.333333
    },
    {
      "cityName": "Imeni Kalinina",
      "lat": 48.85,
      "lng": 48.7
    },
    {
      "cityName": "Imeni Karla Marksa",
      "lat": 48.654444,
      "lng": 47.914167
    },
    {
      "cityName": "Imeni Kirova",
      "lat": 48.833333,
      "lng": 47.7
    },
    {
      "cityName": "Imeni Kominterna",
      "lat": 49.6,
      "lng": 47.266667
    },
    {
      "cityName": "Imeni Krupskoy",
      "lat": 49.7,
      "lng": 52.866667
    },
    {
      "cityName": "Imeni Kuybysheva",
      "lat": 49.566667,
      "lng": 49.033333
    },
    {
      "cityName": "Imeni Lenina",
      "lat": 49.7075,
      "lng": 48.885
    },
    {
      "cityName": "Imeni Molotova",
      "lat": 48.733333,
      "lng": 46.933333
    },
    {
      "cityName": "Imeni Ordzhonikidze",
      "lat": 49.616667,
      "lng": 47.433333
    },
    {
      "cityName": "Imeni Stalina",
      "lat": 48.983333,
      "lng": 46.983333
    },
    {
      "cityName": "Imeni Tel'mana",
      "lat": 49.416667,
      "lng": 49.7
    },
    {
      "cityName": "Imeni Voroshilova",
      "lat": 49.6,
      "lng": 53.333333
    },
    {
      "cityName": "Imeni Vorshilova",
      "lat": 49.4,
      "lng": 47.8
    },
    {
      "cityName": "Imeni Zhdanova",
      "lat": 50.416667,
      "lng": 53.166667
    },
    {
      "cityName": "Inderlinskoye",
      "lat": 50.083333,
      "lng": 47.566667
    },
    {
      "cityName": "Internatsional",
      "lat": 50.066667,
      "lng": 53.633333
    },
    {
      "cityName": "Irgali",
      "lat": 48.133333,
      "lng": 49.566667
    },
    {
      "cityName": "Irubay",
      "lat": 50.183333,
      "lng": 51.35
    },
    {
      "cityName": "Isa",
      "lat": 48.6,
      "lng": 48.3
    },
    {
      "cityName": "Ishchan-Kub",
      "lat": 50.033333,
      "lng": 49.566667
    },
    {
      "cityName": "Isingali",
      "lat": 49.283333,
      "lng": 49.466667
    },
    {
      "cityName": "Isintayev",
      "lat": 48.7,
      "lng": 46.8
    },
    {
      "cityName": "Iskil'dy",
      "lat": 50.783333,
      "lng": 50.383333
    },
    {
      "cityName": "Istomin",
      "lat": 50.283333,
      "lng": 50.433333
    },
    {
      "cityName": "Istovay",
      "lat": 50.483333,
      "lng": 52.2
    },
    {
      "cityName": "Ivanayev",
      "lat": 50.916667,
      "lng": 50.166667
    },
    {
      "cityName": "Ivanov",
      "lat": 50.333333,
      "lng": 50.833333
    },
    {
      "cityName": "Kabankin",
      "lat": 51.283333,
      "lng": 51.233333
    },
    {
      "cityName": "Kabyl",
      "lat": 49.566667,
      "lng": 49.333333
    },
    {
      "cityName": "Kadyrgultobe",
      "lat": 49.366667,
      "lng": 51.916667
    },
    {
      "cityName": "Kadyr",
      "lat": 49.233333,
      "lng": 52.133333
    },
    {
      "cityName": "Kaindy",
      "lat": 50.5,
      "lng": 54.066667
    },
    {
      "cityName": "Kaip",
      "lat": 48.606389,
      "lng": 46.801944
    },
    {
      "cityName": "Kaldygayty",
      "lat": 49.583333,
      "lng": 53.106667
    },
    {
      "cityName": "Kalenovskiy",
      "lat": 49.55,
      "lng": 51.566667
    },
    {
      "cityName": "Kalka",
      "lat": 50.783333,
      "lng": 49.783333
    },
    {
      "cityName": "Kalkhan-Kul'",
      "lat": 48.869167,
      "lng": 46.906667
    },
    {
      "cityName": "Kalmakshabyn",
      "lat": 50.772222,
      "lng": 49.925
    },
    {
      "cityName": "Kalmikovsk",
      "lat": 49.033333,
      "lng": 51.833333
    },
    {
      "cityName": "Kalmyki",
      "lat": 50.752222,
      "lng": 49.324722
    },
    {
      "cityName": "Kamal",
      "lat": 50.066667,
      "lng": 47.516667
    },
    {
      "cityName": "Kamambayevskiy",
      "lat": 50.85,
      "lng": 52.5
    },
    {
      "cityName": "Kamenka",
      "lat": 51.116667,
      "lng": 50.316667
    },
    {
      "cityName": "Kamenskiy",
      "lat": 51.183333,
      "lng": 50.85
    },
    {
      "cityName": "Kamst-Kul'",
      "lat": 49.466667,
      "lng": 48.4
    },
    {
      "cityName": "Kamstkul'",
      "lat": 50.25,
      "lng": 51.266667
    },
    {
      "cityName": "Kamysta",
      "lat": 49.816667,
      "lng": 47.183333
    },
    {
      "cityName": "Kanabayev",
      "lat": 49.516667,
      "lng": 46.95
    },
    {
      "cityName": "Kanay",
      "lat": 51.417222,
      "lng": 52.667222
    },
    {
      "cityName": "Kandyk",
      "lat": 49.966667,
      "lng": 51.983333
    },
    {
      "cityName": "Kandykty",
      "lat": 50.216667,
      "lng": 54.166667
    },
    {
      "cityName": "Kandyozek",
      "lat": 49.649722,
      "lng": 53.274444
    },
    {
      "cityName": "Kaneke",
      "lat": 50.25,
      "lng": 52.45
    },
    {
      "cityName": "Kanyrat",
      "lat": 49.583333,
      "lng": 47.016667
    },
    {
      "cityName": "Karabas",
      "lat": 50.233333,
      "lng": 52.333333
    },
    {
      "cityName": "Karabek",
      "lat": 49.45,
      "lng": 51.933333
    },
    {
      "cityName": "Karaboget",
      "lat": 50.733333,
      "lng": 49.483333
    },
    {
      "cityName": "Karabutak",
      "lat": 50.55,
      "lng": 52.716667
    },
    {
      "cityName": "Karachaganak",
      "lat": 51.452222,
      "lng": 53.385
    },
    {
      "cityName": "Kara-Chegin",
      "lat": 50.366667,
      "lng": 52
    },
    {
      "cityName": "Kara-Dzhegit",
      "lat": 49.716667,
      "lng": 50.466667
    },
    {
      "cityName": "Karagalinskiy",
      "lat": 48.8875,
      "lng": 47.693611
    },
    {
      "cityName": "Karagandy",
      "lat": 50.7,
      "lng": 52.133333
    },
    {
      "cityName": "Karagasht",
      "lat": 49.966667,
      "lng": 47.833333
    },
    {
      "cityName": "Karagayevka",
      "lat": 50.15,
      "lng": 47.433333
    },
    {
      "cityName": "Karagay",
      "lat": 48.333333,
      "lng": 47.016667
    },
    {
      "cityName": "Karagay-Kuduk",
      "lat": 49.833333,
      "lng": 49.7
    },
    {
      "cityName": "Karagul'",
      "lat": 49.705278,
      "lng": 53.830833
    },
    {
      "cityName": "Karakalin",
      "lat": 50.883333,
      "lng": 50.3
    },
    {
      "cityName": "Kara-Kalpaki",
      "lat": 49.95,
      "lng": 48.8
    },
    {
      "cityName": "Karakalpaki",
      "lat": 50.2,
      "lng": 47.283333
    },
    {
      "cityName": "Karakamys",
      "lat": 49.291111,
      "lng": 53.161389
    },
    {
      "cityName": "Karakemer",
      "lat": 51.306944,
      "lng": 53.5825
    },
    {
      "cityName": "Karakoga",
      "lat": 49.516667,
      "lng": 53.05
    },
    {
      "cityName": "Kara-Koga",
      "lat": 49.633333,
      "lng": 53.1
    },
    {
      "cityName": "Karakuduk",
      "lat": 48.95,
      "lng": 52.166667
    },
    {
      "cityName": "Kara Kuduk",
      "lat": 50.7,
      "lng": 50.716667
    },
    {
      "cityName": "Karakuga",
      "lat": 49.677222,
      "lng": 49.399444
    },
    {
      "cityName": "Karambayevskiy",
      "lat": 50.566667,
      "lng": 52.066667
    },
    {
      "cityName": "Kara-Molla",
      "lat": 49.55,
      "lng": 50.666667
    },
    {
      "cityName": "Karamys",
      "lat": 49.85,
      "lng": 50.366667
    },
    {
      "cityName": "Karanogay",
      "lat": 50.233333,
      "lng": 49.133333
    },
    {
      "cityName": "Karaoba",
      "lat": 49.983333,
      "lng": 47.95
    },
    {
      "cityName": "Karaotkel'",
      "lat": 49.566667,
      "lng": 49.4
    },
    {
      "cityName": "Karasay",
      "lat": 50.8,
      "lng": 51.95
    },
    {
      "cityName": "Karasban",
      "lat": 49.966667,
      "lng": 50.15
    },
    {
      "cityName": "Kara-Sergey",
      "lat": 50.416667,
      "lng": 50.616667
    },
    {
      "cityName": "Karashev",
      "lat": 50.183333,
      "lng": 47.366667
    },
    {
      "cityName": "Karasu",
      "lat": 49.220556,
      "lng": 49.8125
    },
    {
      "cityName": "Kara-Togay",
      "lat": 50.833333,
      "lng": 54.166667
    },
    {
      "cityName": "Kara-Tyube",
      "lat": 49.666667,
      "lng": 51.75
    },
    {
      "cityName": "Karaultobe",
      "lat": 49.65,
      "lng": 51.583333
    },
    {
      "cityName": "Kara-Urus",
      "lat": 49.7,
      "lng": 49.85
    },
    {
      "cityName": "Karauzen'",
      "lat": 49.652222,
      "lng": 49.513889
    },
    {
      "cityName": "Karay",
      "lat": 50.083333,
      "lng": 49.483333
    },
    {
      "cityName": "Kara Zhara",
      "lat": 49.566667,
      "lng": 47.9
    },
    {
      "cityName": "Kardon",
      "lat": 49.866667,
      "lng": 50.816667
    },
    {
      "cityName": "Karmanovski",
      "lat": 49.366667,
      "lng": 50.366667
    },
    {
      "cityName": "Karpov",
      "lat": 50.283333,
      "lng": 50.25
    },
    {
      "cityName": "Karpovo",
      "lat": 51.466667,
      "lng": 50.566667
    },
    {
      "cityName": "Karsha",
      "lat": 49.8,
      "lng": 51.4
    },
    {
      "cityName": "Kartabay",
      "lat": 48.916667,
      "lng": 50.533333
    },
    {
      "cityName": "Kartashëv",
      "lat": 50.5,
      "lng": 48.933333
    },
    {
      "cityName": "Kartashëvo",
      "lat": 49.133333,
      "lng": 50.35
    },
    {
      "cityName": "Kartashovo",
      "lat": 50.749722,
      "lng": 49.212778
    },
    {
      "cityName": "Kartchegen'",
      "lat": 50.133333,
      "lng": 51.65
    },
    {
      "cityName": "Kartym",
      "lat": 50.4,
      "lng": 50.166667
    },
    {
      "cityName": "Kasin",
      "lat": 48.483333,
      "lng": 46.583333
    },
    {
      "cityName": "Kasymtan",
      "lat": 48.6,
      "lng": 46.916667
    },
    {
      "cityName": "Kasymtau",
      "lat": 48.622222,
      "lng": 46.894167
    },
    {
      "cityName": "Kateini",
      "lat": 49.183333,
      "lng": 51.883333
    },
    {
      "cityName": "Kaynsay",
      "lat": 51.333333,
      "lng": 51.95
    },
    {
      "cityName": "Kaysakovo",
      "lat": 49.75,
      "lng": 46.9
    },
    {
      "cityName": "Kaysari",
      "lat": 49.366667,
      "lng": 52.583333
    },
    {
      "cityName": "Kaysatskaya",
      "lat": 49.766667,
      "lng": 46.95
    },
    {
      "cityName": "Kaysaymas",
      "lat": 50.7,
      "lng": 51.616667
    },
    {
      "cityName": "Kazakhtobe",
      "lat": 51.283333,
      "lng": 52.816667
    },
    {
      "cityName": "Kazbay",
      "lat": 48.383333,
      "lng": 49.85
    },
    {
      "cityName": "Kazbek",
      "lat": 49.866667,
      "lng": 47.7
    },
    {
      "cityName": "Kazgan",
      "lat": 50.25,
      "lng": 53.85
    },
    {
      "cityName": "Kaztalovka",
      "lat": 49.7575,
      "lng": 48.695
    },
    {
      "cityName": "Kekey",
      "lat": 49.783333,
      "lng": 48.533333
    },
    {
      "cityName": "Kemer",
      "lat": 49.816667,
      "lng": 53.8
    },
    {
      "cityName": "Kenashchi",
      "lat": 50.533333,
      "lng": 53.333333
    },
    {
      "cityName": "Kense-Basy",
      "lat": 49.283333,
      "lng": 47.416667
    },
    {
      "cityName": "Kensuat",
      "lat": 50,
      "lng": 51.4
    },
    {
      "cityName": "Kenzhebay",
      "lat": 49.066667,
      "lng": 50.566667
    },
    {
      "cityName": "Kerey",
      "lat": 49.466667,
      "lng": 50.05
    },
    {
      "cityName": "Kerik",
      "lat": 49.166667,
      "lng": 53.016667
    },
    {
      "cityName": "Khak Bersh Aral",
      "lat": 49.216667,
      "lng": 47.95
    },
    {
      "cityName": "Khalin",
      "lat": 51.526667,
      "lng": 52.061667
    },
    {
      "cityName": "Khanatalap",
      "lat": 50.8,
      "lng": 51.233333
    },
    {
      "cityName": "Khankol'",
      "lat": 50.95,
      "lng": 51.733333
    },
    {
      "cityName": "Khanskiy",
      "lat": 50.45,
      "lng": 52.516667
    },
    {
      "cityName": "Kharamansha",
      "lat": 51.083333,
      "lng": 52.433333
    },
    {
      "cityName": "Kharchëv",
      "lat": 50.3,
      "lng": 50.45
    },
    {
      "cityName": "Khar'kovalkovka",
      "lat": 50.716667,
      "lng": 52.883333
    },
    {
      "cityName": "Khasan",
      "lat": 49.633333,
      "lng": 49.8
    },
    {
      "cityName": "Khayrosh",
      "lat": 50.411667,
      "lng": 49.108611
    },
    {
      "cityName": "Khovretskiy",
      "lat": 51.383333,
      "lng": 53.55
    },
    {
      "cityName": "Khutor Koshukhov",
      "lat": 50.45,
      "lng": 48.75
    },
    {
      "cityName": "Khutor Kukashev",
      "lat": 49.75,
      "lng": 46.966667
    },
    {
      "cityName": "Khutor Madim",
      "lat": 50.066667,
      "lng": 47.35
    },
    {
      "cityName": "Khutor Markov",
      "lat": 51.05,
      "lng": 49.8
    },
    {
      "cityName": "Khutor Molotkov",
      "lat": 50.479444,
      "lng": 48.776944
    },
    {
      "cityName": "Khutor Mukhanbetali",
      "lat": 49.833333,
      "lng": 46.933333
    },
    {
      "cityName": "Khutor Nurkay",
      "lat": 50.016667,
      "lng": 47.7
    },
    {
      "cityName": "Khutor Shesterin",
      "lat": 49.716667,
      "lng": 46.983333
    },
    {
      "cityName": "Khutor Sunali",
      "lat": 49.7,
      "lng": 46.916667
    },
    {
      "cityName": "Khutor Ushenino",
      "lat": 49.216667,
      "lng": 50.95
    },
    {
      "cityName": "Khutor Vas'kin-Kuduk",
      "lat": 50.35,
      "lng": 48.85
    },
    {
      "cityName": "Khutor Zhegulevtsev",
      "lat": 51,
      "lng": 49.883333
    },
    {
      "cityName": "Kiik-Mechet'",
      "lat": 50.166667,
      "lng": 53.483333
    },
    {
      "cityName": "Kiishibayeva",
      "lat": 48.266667,
      "lng": 50.05
    },
    {
      "cityName": "Kimer-Sayek-Kul'",
      "lat": 50.416667,
      "lng": 51.983333
    },
    {
      "cityName": "Kirovo",
      "lat": 49.335833,
      "lng": 48.906667
    },
    {
      "cityName": "Kirsanov",
      "lat": 51.453889,
      "lng": 52.468611
    },
    {
      "cityName": "Kiryakov",
      "lat": 50.25,
      "lng": 48.8
    },
    {
      "cityName": "Kisenen",
      "lat": 50.483333,
      "lng": 51.2
    },
    {
      "cityName": "Kishkantay Chal",
      "lat": 49.898333,
      "lng": 49.513333
    },
    {
      "cityName": "Kisik-Kamishen",
      "lat": 49.216667,
      "lng": 50.333333
    },
    {
      "cityName": "Kisyksay",
      "lat": 50.583333,
      "lng": 49.9
    },
    {
      "cityName": "Kitov",
      "lat": 49.566667,
      "lng": 46.833333
    },
    {
      "cityName": "Kiyak",
      "lat": 48.55,
      "lng": 48.766667
    },
    {
      "cityName": "Kiyevskiy",
      "lat": 51.466667,
      "lng": 50.9
    },
    {
      "cityName": "Kizil Ubinski",
      "lat": 49.633333,
      "lng": 50.65
    },
    {
      "cityName": "Kizimchek",
      "lat": 50.516667,
      "lng": 54.033333
    },
    {
      "cityName": "Kizyl-Mechet'",
      "lat": 49.633333,
      "lng": 51.9
    },
    {
      "cityName": "Kizylvadskiy",
      "lat": 51.083333,
      "lng": 50.066667
    },
    {
      "cityName": "Kizyl-zhar",
      "lat": 49.7,
      "lng": 51.533333
    },
    {
      "cityName": "Klak",
      "lat": 49.983333,
      "lng": 48.033333
    },
    {
      "cityName": "Klimovka",
      "lat": 51.6,
      "lng": 50.716667
    },
    {
      "cityName": "Kobek-Say",
      "lat": 49.783333,
      "lng": 52.416667
    },
    {
      "cityName": "Koblay",
      "lat": 49.716667,
      "lng": 52.766667
    },
    {
      "cityName": "Kochkar",
      "lat": 49.083333,
      "lng": 49.716667
    },
    {
      "cityName": "Kogalykol'",
      "lat": 49.8,
      "lng": 53.5
    },
    {
      "cityName": "Kogol'-Kul'",
      "lat": 50.966667,
      "lng": 52.933333
    },
    {
      "cityName": "Kokmechet'",
      "lat": 50.6,
      "lng": 51.55
    },
    {
      "cityName": "Kokshat",
      "lat": 50.516667,
      "lng": 50.233333
    },
    {
      "cityName": "Kökterek",
      "lat": 49.396944,
      "lng": 49.235
    },
    {
      "cityName": "Koldygayty",
      "lat": 49.866667,
      "lng": 53.766667
    },
    {
      "cityName": "Kolësov",
      "lat": 50.95,
      "lng": 51.166667
    },
    {
      "cityName": "Kolovertinskiy",
      "lat": 50.6,
      "lng": 51.1
    },
    {
      "cityName": "Kol'sheman",
      "lat": 49.593611,
      "lng": 48.888333
    },
    {
      "cityName": "Kol'tabak",
      "lat": 49.9,
      "lng": 49.05
    },
    {
      "cityName": "Komar-Mechet'",
      "lat": 50.75,
      "lng": 51.5
    },
    {
      "cityName": "Komek",
      "lat": 49.65,
      "lng": 50.2
    },
    {
      "cityName": "Komekshi",
      "lat": 49.4,
      "lng": 49.5
    },
    {
      "cityName": "Kommuna Spartan",
      "lat": 51.434167,
      "lng": 52.084722
    },
    {
      "cityName": "Komsomol'skaya",
      "lat": 50.283333,
      "lng": 47.416667
    },
    {
      "cityName": "Konchebay",
      "lat": 51.271944,
      "lng": 53.2275
    },
    {
      "cityName": "Kondokhin",
      "lat": 50.15,
      "lng": 50.616667
    },
    {
      "cityName": "Kondra",
      "lat": 49.916667,
      "lng": 51.433333
    },
    {
      "cityName": "Koneketken",
      "lat": 50.1,
      "lng": 51.4
    },
    {
      "cityName": "Konkha",
      "lat": 49.233333,
      "lng": 53.366667
    },
    {
      "cityName": "Konstantinovka",
      "lat": 50.366667,
      "lng": 54.333333
    },
    {
      "cityName": "Konurkol'",
      "lat": 50,
      "lng": 53.2
    },
    {
      "cityName": "Konur-Say",
      "lat": 49.35,
      "lng": 50.066667
    },
    {
      "cityName": "Konus-Oba",
      "lat": 49.983333,
      "lng": 53.233333
    },
    {
      "cityName": "Konyr",
      "lat": 50.413333,
      "lng": 53.398889
    },
    {
      "cityName": "Konyr-Kuduk",
      "lat": 48.933333,
      "lng": 50.733333
    },
    {
      "cityName": "Kopa",
      "lat": 51.2,
      "lng": 53.75
    },
    {
      "cityName": "Kopan' Karpova",
      "lat": 50.3,
      "lng": 49.85
    },
    {
      "cityName": "Kopapan",
      "lat": 50.35,
      "lng": 50.183333
    },
    {
      "cityName": "Kopeni",
      "lat": 51.45,
      "lng": 50.733333
    },
    {
      "cityName": "Kop-Khutor",
      "lat": 50.578056,
      "lng": 48.869167
    },
    {
      "cityName": "Kopkuduk",
      "lat": 50.316667,
      "lng": 49.333333
    },
    {
      "cityName": "Koptemkol'",
      "lat": 50.266667,
      "lng": 51.733333
    },
    {
      "cityName": "Kordon",
      "lat": 49.8,
      "lng": 48.483333
    },
    {
      "cityName": "Korgan",
      "lat": 49.596667,
      "lng": 49.7825
    },
    {
      "cityName": "Kosagash",
      "lat": 50.05,
      "lng": 53.916667
    },
    {
      "cityName": "Kosan",
      "lat": 48.766667,
      "lng": 48.55
    },
    {
      "cityName": "Kosaral",
      "lat": 49.566667,
      "lng": 48.933333
    },
    {
      "cityName": "Kosarëv",
      "lat": 49.583333,
      "lng": 51.333333
    },
    {
      "cityName": "Kosauz",
      "lat": 49.983333,
      "lng": 51.733333
    },
    {
      "cityName": "Kosay",
      "lat": 49.516667,
      "lng": 53.7
    },
    {
      "cityName": "Kos-Barmak",
      "lat": 49.7,
      "lng": 51.833333
    },
    {
      "cityName": "Kosbaz",
      "lat": 49.441389,
      "lng": 53.605278
    },
    {
      "cityName": "Kosboz",
      "lat": 49.704722,
      "lng": 49.416944
    },
    {
      "cityName": "Kosem",
      "lat": 50.916667,
      "lng": 49.65
    },
    {
      "cityName": "Koshankol'",
      "lat": 49.911389,
      "lng": 48.178333
    },
    {
      "cityName": "Koshchi",
      "lat": 48.8225,
      "lng": 47.862778
    },
    {
      "cityName": "Koshkarsoygan",
      "lat": 50.2,
      "lng": 53.766667
    },
    {
      "cityName": "Koshkimbay",
      "lat": 51.233333,
      "lng": 53.7
    },
    {
      "cityName": "Kos-Khutor",
      "lat": 49.916667,
      "lng": 50.966667
    },
    {
      "cityName": "Koskol'",
      "lat": 49.166667,
      "lng": 52.366667
    },
    {
      "cityName": "Kosmurza",
      "lat": 49.216667,
      "lng": 50.566667
    },
    {
      "cityName": "Kos-Oba",
      "lat": 49.466667,
      "lng": 50.283333
    },
    {
      "cityName": "Kosoba",
      "lat": 49.766667,
      "lng": 50.55
    },
    {
      "cityName": "Kosopan",
      "lat": 48.538611,
      "lng": 46.589722
    },
    {
      "cityName": "Kosoyak",
      "lat": 49.716667,
      "lng": 48.1
    },
    {
      "cityName": "Kospa",
      "lat": 50.183333,
      "lng": 52.366667
    },
    {
      "cityName": "Kosshigir",
      "lat": 49.966667,
      "lng": 51.6
    },
    {
      "cityName": "Kossortan",
      "lat": 49.991667,
      "lng": 49.545833
    },
    {
      "cityName": "Kosterek",
      "lat": 49.943889,
      "lng": 49.288611
    },
    {
      "cityName": "Kostobe",
      "lat": 50.2,
      "lng": 53.266667
    },
    {
      "cityName": "Kostombal'skiy",
      "lat": 50.033333,
      "lng": 48.1
    },
    {
      "cityName": "Kosyl'",
      "lat": 48.966667,
      "lng": 48.066667
    },
    {
      "cityName": "Kotel'nikov",
      "lat": 49.816667,
      "lng": 51.233333
    },
    {
      "cityName": "Kovet",
      "lat": 48.65,
      "lng": 49.033333
    },
    {
      "cityName": "Koyan-Kashu",
      "lat": 49.65,
      "lng": 48.916667
    },
    {
      "cityName": "Koysary",
      "lat": 49.75,
      "lng": 51.566667
    },
    {
      "cityName": "Kozhakharovskiy",
      "lat": 50.316667,
      "lng": 51.066667
    },
    {
      "cityName": "Kozhak",
      "lat": 50.616667,
      "lng": 50.2
    },
    {
      "cityName": "Kozhaul",
      "lat": 50.733333,
      "lng": 53.166667
    },
    {
      "cityName": "Kozhevnikov",
      "lat": 51.466667,
      "lng": 51.066667
    },
    {
      "cityName": "Krasnen'kiy",
      "lat": 51.216667,
      "lng": 50.316667
    },
    {
      "cityName": "Krasnoarmeysk",
      "lat": 51.443611,
      "lng": 52.163889
    },
    {
      "cityName": "Krasnogorskiy",
      "lat": 49.65,
      "lng": 50.65
    },
    {
      "cityName": "Krasnov",
      "lat": 50.6,
      "lng": 50.05
    },
    {
      "cityName": "Krasnoyar",
      "lat": 48.9,
      "lng": 51.8
    },
    {
      "cityName": "Krasnyy Oktyabr'",
      "lat": 50.866667,
      "lng": 50.916667
    },
    {
      "cityName": "Krasnyy Svet",
      "lat": 51.516667,
      "lng": 51.883333
    },
    {
      "cityName": "Krasnyy Ural",
      "lat": 51.466667,
      "lng": 51.5
    },
    {
      "cityName": "Krivoy Liman",
      "lat": 50.466667,
      "lng": 48.666667
    },
    {
      "cityName": "Kroki",
      "lat": 50.816667,
      "lng": 52.266667
    },
    {
      "cityName": "Krugli",
      "lat": 49.283333,
      "lng": 51.866667
    },
    {
      "cityName": "Krugloozerni",
      "lat": 51.0825,
      "lng": 51.285278
    },
    {
      "cityName": "Kruglov",
      "lat": 50.933333,
      "lng": 50.616667
    },
    {
      "cityName": "Krum-Kul'",
      "lat": 48.866667,
      "lng": 48.916667
    },
    {
      "cityName": "Krushcheny-Kanau",
      "lat": 50.626667,
      "lng": 49.616667
    },
    {
      "cityName": "Krutaya",
      "lat": 51.116667,
      "lng": 50.016667
    },
    {
      "cityName": "Krykkuduk",
      "lat": 49.833333,
      "lng": 51.883333
    },
    {
      "cityName": "Kryk-Uru",
      "lat": 49.766667,
      "lng": 49.083333
    },
    {
      "cityName": "Ksen'",
      "lat": 48.416667,
      "lng": 49.133333
    },
    {
      "cityName": "Kuagach",
      "lat": 50.566667,
      "lng": 53.933333
    },
    {
      "cityName": "Kuagash",
      "lat": 49.666667,
      "lng": 53.9
    },
    {
      "cityName": "Kubayev",
      "lat": 48.683333,
      "lng": 46.866667
    },
    {
      "cityName": "Kubok-Mola",
      "lat": 50.316667,
      "lng": 52.85
    },
    {
      "cityName": "Kuchuvak",
      "lat": 49.433333,
      "lng": 48.066667
    },
    {
      "cityName": "Kudiyar",
      "lat": 49.383333,
      "lng": 51.983333
    },
    {
      "cityName": "Kuduk Simbek",
      "lat": 49.7,
      "lng": 53.316667
    },
    {
      "cityName": "Kugal",
      "lat": 50.083333,
      "lng": 53.6
    },
    {
      "cityName": "Kugenkol'",
      "lat": 49.283333,
      "lng": 47.983333
    },
    {
      "cityName": "Kugyris",
      "lat": 50.25,
      "lng": 53.033333
    },
    {
      "cityName": "Kuiryuk",
      "lat": 49.3025,
      "lng": 49.946111
    },
    {
      "cityName": "Kuken",
      "lat": 48.333333,
      "lng": 49.516667
    },
    {
      "cityName": "Kulakova",
      "lat": 50.966667,
      "lng": 50.2
    },
    {
      "cityName": "Kul'chuk",
      "lat": 50.366667,
      "lng": 52.066667
    },
    {
      "cityName": "Kul'chum",
      "lat": 50.15,
      "lng": 47.416667
    },
    {
      "cityName": "Kul'tabak",
      "lat": 49.766667,
      "lng": 47.8
    },
    {
      "cityName": "Kul'tushnov",
      "lat": 50.416667,
      "lng": 50.65
    },
    {
      "cityName": "Kumak",
      "lat": 48.916667,
      "lng": 46.816667
    },
    {
      "cityName": "Kumekshi",
      "lat": 49.564167,
      "lng": 49.426389
    },
    {
      "cityName": "Kumir-Oba",
      "lat": 50.083333,
      "lng": 53.333333
    },
    {
      "cityName": "Kumkuduk",
      "lat": 48.8,
      "lng": 46.766667
    },
    {
      "cityName": "Kunak",
      "lat": 49.033333,
      "lng": 51.166667
    },
    {
      "cityName": "Kunanshapkan",
      "lat": 50.15,
      "lng": 47.633333
    },
    {
      "cityName": "Kungys",
      "lat": 48.266667,
      "lng": 49.533333
    },
    {
      "cityName": "Kunus-Seytyube",
      "lat": 51.266667,
      "lng": 52.433333
    },
    {
      "cityName": "Kuperankaty",
      "lat": 50.75,
      "lng": 52.216667
    },
    {
      "cityName": "Kupshak",
      "lat": 48.533333,
      "lng": 48.666667
    },
    {
      "cityName": "Kuraile",
      "lat": 50.3,
      "lng": 51.816667
    },
    {
      "cityName": "Kurakhtin",
      "lat": 50.383333,
      "lng": 50.816667
    },
    {
      "cityName": "Kurayly",
      "lat": 49.510556,
      "lng": 48.741111
    },
    {
      "cityName": "Kuraylysay",
      "lat": 50.110556,
      "lng": 51.833611
    },
    {
      "cityName": "Kurgan-Kubik",
      "lat": 49.516667,
      "lng": 49.866667
    },
    {
      "cityName": "Kurman",
      "lat": 50.264444,
      "lng": 49.381944
    },
    {
      "cityName": "Kurman-Kuzha",
      "lat": 49.333333,
      "lng": 53.366667
    },
    {
      "cityName": "Kurnoskin",
      "lat": 50.566667,
      "lng": 50.85
    },
    {
      "cityName": "Kursay",
      "lat": 50.366667,
      "lng": 53.1
    },
    {
      "cityName": "Kusagal",
      "lat": 50.116667,
      "lng": 48.033333
    },
    {
      "cityName": "Kusem",
      "lat": 49.837778,
      "lng": 48.268889
    },
    {
      "cityName": "Kushirbay",
      "lat": 49.216667,
      "lng": 51.983333
    },
    {
      "cityName": "Kushum",
      "lat": 50.9,
      "lng": 51.133333
    },
    {
      "cityName": "Kusin-Kuduk",
      "lat": 49.8,
      "lng": 51.883333
    },
    {
      "cityName": "Kuspasay",
      "lat": 50.933333,
      "lng": 49.616667
    },
    {
      "cityName": "Kuzdykara",
      "lat": 48.816667,
      "lng": 51.85
    },
    {
      "cityName": "Kuzhan",
      "lat": 49.55,
      "lng": 50.233333
    },
    {
      "cityName": "Kuznechnaya",
      "lat": 49.4,
      "lng": 46.983333
    },
    {
      "cityName": "Kuznetsov",
      "lat": 50.95,
      "lng": 50.866667
    },
    {
      "cityName": "Kydyrbay",
      "lat": 49.166667,
      "lng": 51.983333
    },
    {
      "cityName": "Kyrymkozha",
      "lat": 49.833056,
      "lng": 52.382778
    },
    {
      "cityName": "Kyshi-Enbek",
      "lat": 50.65,
      "lng": 51.233333
    },
    {
      "cityName": "Kysyksay Tretiy",
      "lat": 50.661389,
      "lng": 49.911944
    },
    {
      "cityName": "Kysyksay Vtoroy",
      "lat": 50.618333,
      "lng": 49.908333
    },
    {
      "cityName": "Kyzkol'",
      "lat": 51.033333,
      "lng": 54.016667
    },
    {
      "cityName": "Kyzylagach",
      "lat": 50.566667,
      "lng": 52.3
    },
    {
      "cityName": "Kyzylaga",
      "lat": 50.1,
      "lng": 50.383333
    },
    {
      "cityName": "Kyzyl-Asker",
      "lat": 49.593333,
      "lng": 48.848333
    },
    {
      "cityName": "Kyzylasker",
      "lat": 50.316667,
      "lng": 53.45
    },
    {
      "cityName": "Kyzylazhar",
      "lat": 49.483333,
      "lng": 51.716667
    },
    {
      "cityName": "Kyzyldzhar",
      "lat": 48.533333,
      "lng": 47
    },
    {
      "cityName": "Kyzylkol'",
      "lat": 51.016667,
      "lng": 53.966667
    },
    {
      "cityName": "Kyzyloba",
      "lat": 49.616667,
      "lng": 50.633333
    },
    {
      "cityName": "Kyzyloy",
      "lat": 49.156667,
      "lng": 48.765556
    },
    {
      "cityName": "Kyzyl-Saray",
      "lat": 50.283333,
      "lng": 49.05
    },
    {
      "cityName": "Kyzyltan",
      "lat": 50.016667,
      "lng": 52.766667
    },
    {
      "cityName": "Kyzyltu",
      "lat": 49.15,
      "lng": 47.583333
    },
    {
      "cityName": "Kzyl-Tu",
      "lat": 49.183333,
      "lng": 47.516667
    },
    {
      "cityName": "Kzyltu",
      "lat": 49.266667,
      "lng": 49.3
    },
    {
      "cityName": "Lagashkin",
      "lat": 50.993611,
      "lng": 50.503889
    },
    {
      "cityName": "Larshin",
      "lat": 50.416667,
      "lng": 50.533333
    },
    {
      "cityName": "Lashka-Masyanov",
      "lat": 49.8,
      "lng": 50.166667
    },
    {
      "cityName": "Lbishchenskiy",
      "lat": 49.75,
      "lng": 51.433333
    },
    {
      "cityName": "Ldy",
      "lat": 50.1,
      "lng": 47.683333
    },
    {
      "cityName": "Lebedevka",
      "lat": 50.150278,
      "lng": 54.124444
    },
    {
      "cityName": "Lebedok",
      "lat": 49.433333,
      "lng": 51.7
    },
    {
      "cityName": "Leninskoe",
      "lat": 49.05,
      "lng": 49.955833
    },
    {
      "cityName": "Leninzhol",
      "lat": 49.333333,
      "lng": 47.083333
    },
    {
      "cityName": "Levochkin",
      "lat": 50.316667,
      "lng": 48.816667
    },
    {
      "cityName": "Limkin",
      "lat": 50.283333,
      "lng": 48.95
    },
    {
      "cityName": "Livkin",
      "lat": 51.366667,
      "lng": 51.066667
    },
    {
      "cityName": "Logashkin",
      "lat": 50.6,
      "lng": 50.566667
    },
    {
      "cityName": "Loktev",
      "lat": 50.333333,
      "lng": 50.4
    },
    {
      "cityName": "Lubenka",
      "lat": 50.441667,
      "lng": 54.124722
    },
    {
      "cityName": "Lukhmanov",
      "lat": 50.283333,
      "lng": 50.766667
    },
    {
      "cityName": "Lukpan",
      "lat": 48.533333,
      "lng": 47.583333
    },
    {
      "cityName": "Lyagoshin",
      "lat": 51.633333,
      "lng": 50.883333
    },
    {
      "cityName": "Lyutikov",
      "lat": 50.516667,
      "lng": 50.816667
    },
    {
      "cityName": "Madebay-Agash",
      "lat": 50.2,
      "lng": 52.466667
    },
    {
      "cityName": "Madyanov",
      "lat": 51.556667,
      "lng": 52.331389
    },
    {
      "cityName": "Magzhan",
      "lat": 50.666667,
      "lng": 49
    },
    {
      "cityName": "Makarov",
      "lat": 51.333333,
      "lng": 51.483333
    },
    {
      "cityName": "Makeyev",
      "lat": 50.25,
      "lng": 49.333333
    },
    {
      "cityName": "Makey",
      "lat": 51.083333,
      "lng": 53.816667
    },
    {
      "cityName": "Makish",
      "lat": 50.05,
      "lng": 51.533333
    },
    {
      "cityName": "Maksim",
      "lat": 49.933333,
      "lng": 50.75
    },
    {
      "cityName": "Maksimychev",
      "lat": 51.55,
      "lng": 51.9
    },
    {
      "cityName": "Mala-Blak",
      "lat": 50.25,
      "lng": 49.95
    },
    {
      "cityName": "Malayak",
      "lat": 49.866667,
      "lng": 47.916667
    },
    {
      "cityName": "Malaya Panika",
      "lat": 50.983333,
      "lng": 50.2
    },
    {
      "cityName": "Malaya Sherba",
      "lat": 50.916667,
      "lng": 50.95
    },
    {
      "cityName": "Malyy Gorbunov",
      "lat": 50.583333,
      "lng": 50.65
    },
    {
      "cityName": "Malyy Sarykuduk",
      "lat": 49.802778,
      "lng": 49.928333
    },
    {
      "cityName": "Malyy Taldykuduk",
      "lat": 49.900833,
      "lng": 49.776111
    },
    {
      "cityName": "Malyy Trekin",
      "lat": 51.633333,
      "lng": 52.166667
    },
    {
      "cityName": "Mamayev",
      "lat": 48.816667,
      "lng": 46.983333
    },
    {
      "cityName": "Mambetbay",
      "lat": 51.016667,
      "lng": 51.416667
    },
    {
      "cityName": "Mambet",
      "lat": 50.033333,
      "lng": 53.583333
    },
    {
      "cityName": "Mambetov",
      "lat": 49.65,
      "lng": 46.933333
    },
    {
      "cityName": "Manat",
      "lat": 49.866667,
      "lng": 50.4
    },
    {
      "cityName": "Markelov",
      "lat": 50.05,
      "lng": 50.95
    },
    {
      "cityName": "Marly-Bas",
      "lat": 50.65,
      "lng": 51.533333
    },
    {
      "cityName": "Marta",
      "lat": 49.633333,
      "lng": 51.8
    },
    {
      "cityName": "Martynov",
      "lat": 50.705833,
      "lng": 50.374444
    },
    {
      "cityName": "Masaytobek",
      "lat": 51.370556,
      "lng": 52.770556
    },
    {
      "cityName": "Maskar",
      "lat": 50.533333,
      "lng": 53.316667
    },
    {
      "cityName": "Maskarovskaya",
      "lat": 48.866667,
      "lng": 49.183333
    },
    {
      "cityName": "Maslov",
      "lat": 50.162222,
      "lng": 48.825556
    },
    {
      "cityName": "Masyanov",
      "lat": 50.283333,
      "lng": 49.133333
    },
    {
      "cityName": "Mataykara",
      "lat": 49.683333,
      "lng": 53.3
    },
    {
      "cityName": "Matisay",
      "lat": 49.966667,
      "lng": 51.4
    },
    {
      "cityName": "Maulyum-Berle",
      "lat": 49.533333,
      "lng": 51.933333
    },
    {
      "cityName": "Maykan",
      "lat": 50.1,
      "lng": 52.166667
    },
    {
      "cityName": "Maylekol'",
      "lat": 49.866667,
      "lng": 53.233333
    },
    {
      "cityName": "May-Shunkur",
      "lat": 50.566667,
      "lng": 51.2
    },
    {
      "cityName": "Mechet'",
      "lat": 49.916667,
      "lng": 53.533333
    },
    {
      "cityName": "Mechet'-Zhadyk",
      "lat": 49.966667,
      "lng": 52.966667
    },
    {
      "cityName": "Melovoye",
      "lat": 51.15,
      "lng": 51.483333
    },
    {
      "cityName": "Mentek-Karasu",
      "lat": 49.7,
      "lng": 49.5
    },
    {
      "cityName": "Mereke",
      "lat": 49.73,
      "lng": 48.396944
    },
    {
      "cityName": "Mergenevo",
      "lat": 49.937778,
      "lng": 51.306667
    },
    {
      "cityName": "Meshitkol'",
      "lat": 49.75,
      "lng": 48.566667
    },
    {
      "cityName": "Meshitkum",
      "lat": 48.75,
      "lng": 47.55
    },
    {
      "cityName": "Mibulak",
      "lat": 50.616667,
      "lng": 53.833333
    },
    {
      "cityName": "Mikashkin",
      "lat": 50.566667,
      "lng": 50.466667
    },
    {
      "cityName": "Mikhaylovskiy",
      "lat": 50.933333,
      "lng": 52.566667
    },
    {
      "cityName": "Mirgorodka",
      "lat": 50.966667,
      "lng": 53.55
    },
    {
      "cityName": "Mirkushka",
      "lat": 49.816667,
      "lng": 50.983333
    },
    {
      "cityName": "Mirzagora",
      "lat": 51.2,
      "lng": 53.766667
    },
    {
      "cityName": "Mokrinskiy",
      "lat": 49.097222,
      "lng": 49.801111
    },
    {
      "cityName": "Molkuduk",
      "lat": 50.666667,
      "lng": 52.583333
    },
    {
      "cityName": "Morozov",
      "lat": 49.35,
      "lng": 46.783333
    },
    {
      "cityName": "Mortuk",
      "lat": 49.416667,
      "lng": 50.683333
    },
    {
      "cityName": "Mostekskiy",
      "lat": 49.033333,
      "lng": 49.9
    },
    {
      "cityName": "Mukashev",
      "lat": 49.383333,
      "lng": 46.816667
    },
    {
      "cityName": "Mukashevskiy",
      "lat": 50.366667,
      "lng": 52.466667
    },
    {
      "cityName": "Mukatay",
      "lat": 49.6,
      "lng": 48.6
    },
    {
      "cityName": "Mukay",
      "lat": 50.333333,
      "lng": 52.8
    },
    {
      "cityName": "Mukdanay",
      "lat": 50.083333,
      "lng": 51.6
    },
    {
      "cityName": "Mukhatayev",
      "lat": 49.483333,
      "lng": 46.883333
    },
    {
      "cityName": "Mukhorskiy",
      "lat": 49.016667,
      "lng": 50.033333
    },
    {
      "cityName": "Mulda-Shegen",
      "lat": 49.6,
      "lng": 50.133333
    },
    {
      "cityName": "Muldashkin",
      "lat": 50.383333,
      "lng": 47.7
    },
    {
      "cityName": "Murashkintsev",
      "lat": 50.4,
      "lng": 50.85
    },
    {
      "cityName": "Muratsay",
      "lat": 49.216667,
      "lng": 47.166667
    },
    {
      "cityName": "Murzakhmet",
      "lat": 50.216667,
      "lng": 51.45
    },
    {
      "cityName": "Murzashev",
      "lat": 49.416667,
      "lng": 46.983333
    },
    {
      "cityName": "Musabek",
      "lat": 49.85,
      "lng": 53.833333
    },
    {
      "cityName": "Musa-Kulak",
      "lat": 49.483333,
      "lng": 49.433333
    },
    {
      "cityName": "Mustafa",
      "lat": 48.816667,
      "lng": 49.833333
    },
    {
      "cityName": "Mynbay",
      "lat": 49.701111,
      "lng": 49.912778
    },
    {
      "cityName": "Mytanov",
      "lat": 49.466667,
      "lng": 46.883333
    },
    {
      "cityName": "Nariman",
      "lat": 49.233333,
      "lng": 47.483333
    },
    {
      "cityName": "Narygey",
      "lat": 49.2,
      "lng": 52.833333
    },
    {
      "cityName": "Nekhvoroshchanka",
      "lat": 50.883333,
      "lng": 53.116667
    },
    {
      "cityName": "Nesali",
      "lat": 48.766667,
      "lng": 48.383333
    },
    {
      "cityName": "Nikanor",
      "lat": 49.8,
      "lng": 50.466667
    },
    {
      "cityName": "Nikiforov",
      "lat": 49.416667,
      "lng": 46.866667
    },
    {
      "cityName": "Nikolay-Aul",
      "lat": 49.820833,
      "lng": 49.644167
    },
    {
      "cityName": "Nikolayevka",
      "lat": 51.566667,
      "lng": 50.566667
    },
    {
      "cityName": "Nikol'skiy",
      "lat": 51.266667,
      "lng": 52.633333
    },
    {
      "cityName": "Nizhayev",
      "lat": 51.533333,
      "lng": 50.733333
    },
    {
      "cityName": "Nizhne-Gremyachiy",
      "lat": 51.35,
      "lng": 50.95
    },
    {
      "cityName": "Novaya Pavlovka",
      "lat": 51.116667,
      "lng": 51.683333
    },
    {
      "cityName": "Novaya Zhizn'",
      "lat": 49.35,
      "lng": 46.816667
    },
    {
      "cityName": "Noven'kiy",
      "lat": 51.25,
      "lng": 50.916667
    },
    {
      "cityName": "Novo-Grigor'yevskiy",
      "lat": 51.266667,
      "lng": 53.183333
    },
    {
      "cityName": "Novopetrovka",
      "lat": 50.416389,
      "lng": 53.868611
    },
    {
      "cityName": "Novopokrovka",
      "lat": 50.983333,
      "lng": 52.566667
    },
    {
      "cityName": "Novosemënovka",
      "lat": 51.1,
      "lng": 52.266667
    },
    {
      "cityName": "Novostroyka",
      "lat": 50.733333,
      "lng": 51.2
    },
    {
      "cityName": "Novyy Derkul",
      "lat": 51.25,
      "lng": 51.3
    },
    {
      "cityName": "Novyy",
      "lat": 49.7,
      "lng": 49.7
    },
    {
      "cityName": "Nukem",
      "lat": 49.833333,
      "lng": 48.933333
    },
    {
      "cityName": "Nurgaliyev",
      "lat": 49.383333,
      "lng": 46.866667
    },
    {
      "cityName": "Nursay",
      "lat": 49.595556,
      "lng": 48.361389
    },
    {
      "cityName": "Nuryye",
      "lat": 50.25,
      "lng": 47.466667
    },
    {
      "cityName": "Nusabos",
      "lat": 49.316667,
      "lng": 48.05
    },
    {
      "cityName": "Nuzhan",
      "lat": 48.916667,
      "lng": 51.933333
    },
    {
      "cityName": "Oblavka",
      "lat": 51.46,
      "lng": 52.966111
    },
    {
      "cityName": "Okhonkol'",
      "lat": 48.933333,
      "lng": 46.966667
    },
    {
      "cityName": "Oktyabr'",
      "lat": 48.766667,
      "lng": 50.666667
    },
    {
      "cityName": "Olenty",
      "lat": 50.05,
      "lng": 52.1
    },
    {
      "cityName": "Omar-Utyuginov",
      "lat": 48.9375,
      "lng": 46.888889
    },
    {
      "cityName": "Onege",
      "lat": 49.25,
      "lng": 47.416667
    },
    {
      "cityName": "Oral",
      "lat": 51.233333,
      "lng": 51.366667
    },
    {
      "cityName": "Orazgali",
      "lat": 49.351944,
      "lng": 49.452222
    },
    {
      "cityName": "Orbisan-Agach",
      "lat": 49.75,
      "lng": 53.133333
    },
    {
      "cityName": "Orda",
      "lat": 48.769722,
      "lng": 47.428333
    },
    {
      "cityName": "Orlov",
      "lat": 51.516667,
      "lng": 50.783333
    },
    {
      "cityName": "Orysbay",
      "lat": 49.7,
      "lng": 50.2
    },
    {
      "cityName": "Osemenitel'",
      "lat": 50.35,
      "lng": 47.716667
    },
    {
      "cityName": "Oshagandy",
      "lat": 48.366667,
      "lng": 49.25
    },
    {
      "cityName": "Ovchinikov",
      "lat": 50.25,
      "lng": 49.65
    },
    {
      "cityName": "Ovchinnikov",
      "lat": 49.8,
      "lng": 49.733333
    },
    {
      "cityName": "Ovsyanov",
      "lat": 50.833333,
      "lng": 50.7
    },
    {
      "cityName": "Pan'kin",
      "lat": 51.583333,
      "lng": 52.45
    },
    {
      "cityName": "Parfenova",
      "lat": 50.583333,
      "lng": 48.866667
    },
    {
      "cityName": "Pashkin",
      "lat": 50.7,
      "lng": 50.516667
    },
    {
      "cityName": "Pavlov",
      "lat": 51.466667,
      "lng": 51.166667
    },
    {
      "cityName": "Peremetnaya",
      "lat": 51.183333,
      "lng": 50.816667
    },
    {
      "cityName": "Pervomayskiy",
      "lat": 50.166667,
      "lng": 50.616667
    },
    {
      "cityName": "Pervosovetskiy",
      "lat": 51.431667,
      "lng": 50.745833
    },
    {
      "cityName": "Petropavloka",
      "lat": 50.266667,
      "lng": 47.916667
    },
    {
      "cityName": "Petrovo",
      "lat": 51.542222,
      "lng": 52.241944
    },
    {
      "cityName": "Petrov",
      "lat": 50.533333,
      "lng": 50.2
    },
    {
      "cityName": "Piterskiy",
      "lat": 50.55,
      "lng": 50.85
    },
    {
      "cityName": "Piunov",
      "lat": 50.233333,
      "lng": 50.566667
    },
    {
      "cityName": "Ploshkin",
      "lat": 51.233333,
      "lng": 50.866667
    },
    {
      "cityName": "Pobedimov",
      "lat": 51.7,
      "lng": 52.216667
    },
    {
      "cityName": "Podstepnoe",
      "lat": 51.155278,
      "lng": 51.483056
    },
    {
      "cityName": "Podtyazhki",
      "lat": 50.767778,
      "lng": 49.338611
    },
    {
      "cityName": "Pogodaevo",
      "lat": 51.5975,
      "lng": 51.064444
    },
    {
      "cityName": "Pogodap",
      "lat": 49.816667,
      "lng": 50.7
    },
    {
      "cityName": "Pokatilovka",
      "lat": 51.1,
      "lng": 51.883333
    },
    {
      "cityName": "Pokrovka",
      "lat": 50.85,
      "lng": 54.4
    },
    {
      "cityName": "Polozov",
      "lat": 50.133333,
      "lng": 50.766667
    },
    {
      "cityName": "Poltavka",
      "lat": 50.816667,
      "lng": 53.633333
    },
    {
      "cityName": "Portnov",
      "lat": 49.7,
      "lng": 50.95
    },
    {
      "cityName": "Portnoye",
      "lat": 49.7,
      "lng": 50.583333
    },
    {
      "cityName": "Pridorozhnoye",
      "lat": 51.056667,
      "lng": 52.278889
    },
    {
      "cityName": "Prirechnoe",
      "lat": 51.064167,
      "lng": 52.420833
    },
    {
      "cityName": "Priural'noye",
      "lat": 51.479444,
      "lng": 53.108333
    },
    {
      "cityName": "Proletarka",
      "lat": 51.055,
      "lng": 52.760833
    },
    {
      "cityName": "Prorvinsk",
      "lat": 50.616667,
      "lng": 51.1
    },
    {
      "cityName": "Pugachëvo",
      "lat": 51.203611,
      "lng": 52.9025
    },
    {
      "cityName": "Pulykin",
      "lat": 50.666667,
      "lng": 50.866667
    },
    {
      "cityName": "Pustobayev",
      "lat": 51.016667,
      "lng": 50.5
    },
    {
      "cityName": "Puzatkin",
      "lat": 50.366667,
      "lng": 50.933333
    },
    {
      "cityName": "Qaratöbe",
      "lat": 49.733333,
      "lng": 53.5
    },
    {
      "cityName": "Qosköl",
      "lat": 49.807778,
      "lng": 53.831667
    },
    {
      "cityName": "Rakhmedzhanovskiy",
      "lat": 50.616667,
      "lng": 52.3
    },
    {
      "cityName": "Rastoshskiy",
      "lat": 51.25,
      "lng": 51.016667
    },
    {
      "cityName": "Razdol'noye",
      "lat": 51.6,
      "lng": 51.833333
    },
    {
      "cityName": "Rodniki",
      "lat": 51.1,
      "lng": 50.483333
    },
    {
      "cityName": "Rozhkovo",
      "lat": 51.665278,
      "lng": 52.308889
    },
    {
      "cityName": "Rubezhinskoe",
      "lat": 51.421944,
      "lng": 51.956389
    },
    {
      "cityName": "Russkaya Talovka",
      "lat": 49.958889,
      "lng": 49.081667
    },
    {
      "cityName": "Rybnyy Zavod",
      "lat": 50.583333,
      "lng": 51.8
    },
    {
      "cityName": "Sadak",
      "lat": 51.45,
      "lng": 52.9
    },
    {
      "cityName": "Sad Kartasheva",
      "lat": 51.066667,
      "lng": 49.616667
    },
    {
      "cityName": "Sadovyy",
      "lat": 51.25,
      "lng": 51.333333
    },
    {
      "cityName": "Sadykov",
      "lat": 50.333333,
      "lng": 47.75
    },
    {
      "cityName": "Sadykul",
      "lat": 48.533333,
      "lng": 49.366667
    },
    {
      "cityName": "Saichin",
      "lat": 48.8125,
      "lng": 46.763611
    },
    {
      "cityName": "Sakharnaya",
      "lat": 49.65,
      "lng": 51.466667
    },
    {
      "cityName": "Sakryl",
      "lat": 49.583333,
      "lng": 49.4
    },
    {
      "cityName": "Sal'skiy",
      "lat": 50.466667,
      "lng": 51.5
    },
    {
      "cityName": "Samey",
      "lat": 49.65,
      "lng": 51.066667
    },
    {
      "cityName": "Samsonov",
      "lat": 49.416667,
      "lng": 46.916667
    },
    {
      "cityName": "Sapeke",
      "lat": 49.95,
      "lng": 51.933333
    },
    {
      "cityName": "Sara-Aul",
      "lat": 49.95,
      "lng": 49.033333
    },
    {
      "cityName": "Saradzhan-Kul'",
      "lat": 49.433333,
      "lng": 48.733333
    },
    {
      "cityName": "Saradzhin",
      "lat": 50.383333,
      "lng": 51.666667
    },
    {
      "cityName": "Sarak-Kuduk",
      "lat": 49.7,
      "lng": 49.666667
    },
    {
      "cityName": "Saral'khayu",
      "lat": 50.216667,
      "lng": 51.3
    },
    {
      "cityName": "Saralshin",
      "lat": 49.05,
      "lng": 49.216667
    },
    {
      "cityName": "Saralzhinkol'",
      "lat": 49.240556,
      "lng": 48.329444
    },
    {
      "cityName": "Saralzhin",
      "lat": 48.95,
      "lng": 50.566667
    },
    {
      "cityName": "Saralzhinsay",
      "lat": 49.916667,
      "lng": 52.566667
    },
    {
      "cityName": "Saralzhinskaya",
      "lat": 49.169722,
      "lng": 48.904167
    },
    {
      "cityName": "Sarbasta",
      "lat": 48.316667,
      "lng": 47.033333
    },
    {
      "cityName": "Sarcheganak",
      "lat": 49.452778,
      "lng": 49.819167
    },
    {
      "cityName": "Sar-Kamysh",
      "lat": 50.516667,
      "lng": 49.983333
    },
    {
      "cityName": "Sar-Kul'",
      "lat": 50.05,
      "lng": 53.516667
    },
    {
      "cityName": "Sarpeyp",
      "lat": 48.516667,
      "lng": 46.683333
    },
    {
      "cityName": "Sarsay",
      "lat": 50.166667,
      "lng": 54.2
    },
    {
      "cityName": "Sarsengali",
      "lat": 49.5,
      "lng": 48.266667
    },
    {
      "cityName": "Sartol'gen",
      "lat": 48.866667,
      "lng": 47.016667
    },
    {
      "cityName": "Sartomak",
      "lat": 49.566667,
      "lng": 51.816667
    },
    {
      "cityName": "Sarygol'",
      "lat": 49.966667,
      "lng": 53.066667
    },
    {
      "cityName": "Saryozen",
      "lat": 48.6,
      "lng": 49.483333
    },
    {
      "cityName": "Sary",
      "lat": 51.466667,
      "lng": 53.033333
    },
    {
      "cityName": "Sarystan",
      "lat": 48.416667,
      "lng": 46.85
    },
    {
      "cityName": "Saryumir",
      "lat": 50.466667,
      "lng": 51.633333
    },
    {
      "cityName": "Sasan",
      "lat": 48.683333,
      "lng": 48.333333
    },
    {
      "cityName": "Sasykkol'",
      "lat": 50.416667,
      "lng": 52.133333
    },
    {
      "cityName": "Satar",
      "lat": 50.116667,
      "lng": 53.833333
    },
    {
      "cityName": "Satybaldy",
      "lat": 49.5125,
      "lng": 49.589167
    },
    {
      "cityName": "Saule",
      "lat": 49.380833,
      "lng": 53.195833
    },
    {
      "cityName": "Saunke",
      "lat": 49.15,
      "lng": 49.8
    },
    {
      "cityName": "Savkin",
      "lat": 49.983333,
      "lng": 51.233333
    },
    {
      "cityName": "Savsi",
      "lat": 50.416667,
      "lng": 52
    },
    {
      "cityName": "Say-Kuduk",
      "lat": 49.433333,
      "lng": 52.916667
    },
    {
      "cityName": "Saykuduk",
      "lat": 50.083333,
      "lng": 49.083333
    },
    {
      "cityName": "Saytakov",
      "lat": 50.033333,
      "lng": 47.3
    },
    {
      "cityName": "Sazandy",
      "lat": 49.725278,
      "lng": 48.47
    },
    {
      "cityName": "Sazde",
      "lat": 48.883333,
      "lng": 51.366667
    },
    {
      "cityName": "Sbornyy",
      "lat": 51.049444,
      "lng": 53.403611
    },
    {
      "cityName": "Segizoy",
      "lat": 50.45,
      "lng": 53.533333
    },
    {
      "cityName": "Seksenbayevo",
      "lat": 49.781944,
      "lng": 48.516111
    },
    {
      "cityName": "Selenoje",
      "lat": 51.15,
      "lng": 50.683333
    },
    {
      "cityName": "Semiglavi Mar",
      "lat": 51.194444,
      "lng": 50.053889
    },
    {
      "cityName": "Serebryakovo",
      "lat": 51.048333,
      "lng": 51.235
    },
    {
      "cityName": "Sergey-Aula",
      "lat": 50.31,
      "lng": 49.52
    },
    {
      "cityName": "Sergeyev",
      "lat": 50.05,
      "lng": 51.066667
    },
    {
      "cityName": "Serik",
      "lat": 49.701111,
      "lng": 49.649444
    },
    {
      "cityName": "Setkali",
      "lat": 48.75,
      "lng": 47.666667
    },
    {
      "cityName": "Severkino",
      "lat": 50.783333,
      "lng": 51.1
    },
    {
      "cityName": "Shadyr",
      "lat": 49.883333,
      "lng": 49.05
    },
    {
      "cityName": "Shaker",
      "lat": 50.616667,
      "lng": 50.116667
    },
    {
      "cityName": "Shakir",
      "lat": 50.416667,
      "lng": 49.033333
    },
    {
      "cityName": "Shalgyn",
      "lat": 50.133333,
      "lng": 53.583333
    },
    {
      "cityName": "Shana-Ui",
      "lat": 49.266667,
      "lng": 49.55
    },
    {
      "cityName": "Sharakkop",
      "lat": 51.366667,
      "lng": 51.983333
    },
    {
      "cityName": "Sharu",
      "lat": 49.9,
      "lng": 47.9
    },
    {
      "cityName": "Shaytuk",
      "lat": 49.968333,
      "lng": 49.431111
    },
    {
      "cityName": "Shchapo",
      "lat": 51.016667,
      "lng": 51.183333
    },
    {
      "cityName": "Shcherbakov",
      "lat": 50.8,
      "lng": 50.733333
    },
    {
      "cityName": "Shchuchkin",
      "lat": 50.383333,
      "lng": 49.483333
    },
    {
      "cityName": "Shel'kuduk",
      "lat": 49.983333,
      "lng": 52.366667
    },
    {
      "cityName": "Shember",
      "lat": 49.316667,
      "lng": 51.983333
    },
    {
      "cityName": "Shembetsay",
      "lat": 49.9,
      "lng": 47.383333
    },
    {
      "cityName": "Sherstobitov",
      "lat": 50.05,
      "lng": 50.833333
    },
    {
      "cityName": "Sheten",
      "lat": 49.283333,
      "lng": 52.8
    },
    {
      "cityName": "Shibyndy",
      "lat": 49.9,
      "lng": 53.133333
    },
    {
      "cityName": "Shigankol'",
      "lat": 49.915556,
      "lng": 52.798889
    },
    {
      "cityName": "Shil'naya Balka",
      "lat": 50.576389,
      "lng": 49.003611
    },
    {
      "cityName": "Shil'-Toay",
      "lat": 50.716667,
      "lng": 51.833333
    },
    {
      "cityName": "Shipovo",
      "lat": 51.116667,
      "lng": 50.266667
    },
    {
      "cityName": "Shirokaya",
      "lat": 50.916667,
      "lng": 50.5
    },
    {
      "cityName": "Shiryavski",
      "lat": 50.866667,
      "lng": 50.033333
    },
    {
      "cityName": "Shiy",
      "lat": 50.5,
      "lng": 52.766667
    },
    {
      "cityName": "Shkol Basy",
      "lat": 49.583333,
      "lng": 47.65
    },
    {
      "cityName": "Shkol'nyy Aul",
      "lat": 48.825,
      "lng": 47.400833
    },
    {
      "cityName": "Shlyapin",
      "lat": 50.4,
      "lng": 50.933333
    },
    {
      "cityName": "Shmakhov",
      "lat": 49.483333,
      "lng": 46.966667
    },
    {
      "cityName": "Shmanbay",
      "lat": 49.9,
      "lng": 52.85
    },
    {
      "cityName": "Shoktybay",
      "lat": 51.169167,
      "lng": 53.935
    },
    {
      "cityName": "Shoptykol'",
      "lat": 49.705278,
      "lng": 53.483889
    },
    {
      "cityName": "Shoptykul'skiy",
      "lat": 51.169167,
      "lng": 52.351667
    },
    {
      "cityName": "Shoshkaly",
      "lat": 49.016667,
      "lng": 49.883333
    },
    {
      "cityName": "Shulaksay",
      "lat": 49.666667,
      "lng": 48.8
    },
    {
      "cityName": "Shulak",
      "lat": 49.55,
      "lng": 49.166667
    },
    {
      "cityName": "Shumilin",
      "lat": 50.516667,
      "lng": 50.716667
    },
    {
      "cityName": "Shungai",
      "lat": 48.5375,
      "lng": 46.766389
    },
    {
      "cityName": "Shunga",
      "lat": 48.6,
      "lng": 46.9
    },
    {
      "cityName": "Shuranskiy",
      "lat": 50.75,
      "lng": 50.7
    },
    {
      "cityName": "Shurmanskiy",
      "lat": 50.533333,
      "lng": 50.45
    },
    {
      "cityName": "Shurmin",
      "lat": 50.35,
      "lng": 50.333333
    },
    {
      "cityName": "Shushkala",
      "lat": 50.366667,
      "lng": 54.2
    },
    {
      "cityName": "Shutybai",
      "lat": 48.7,
      "lng": 48.05
    },
    {
      "cityName": "Sigzi",
      "lat": 50.833333,
      "lng": 52.2
    },
    {
      "cityName": "Siksimbay",
      "lat": 49.916667,
      "lng": 49.4
    },
    {
      "cityName": "Sitek",
      "lat": 49.683333,
      "lng": 53.883333
    },
    {
      "cityName": "Sitnikov",
      "lat": 49.383333,
      "lng": 46.983333
    },
    {
      "cityName": "Skorobogatov",
      "lat": 50.85,
      "lng": 50.783333
    },
    {
      "cityName": "Sladkov",
      "lat": 50.883333,
      "lng": 50.7
    },
    {
      "cityName": "Smychka",
      "lat": 50.533333,
      "lng": 52.866667
    },
    {
      "cityName": "Sokolov",
      "lat": 51.383333,
      "lng": 50.516667
    },
    {
      "cityName": "Sokur-Kurt",
      "lat": 48.481667,
      "lng": 47.6475
    },
    {
      "cityName": "Solodovenikov",
      "lat": 51.383333,
      "lng": 51.25
    },
    {
      "cityName": "Solodovnikov",
      "lat": 50.983333,
      "lng": 50.8
    },
    {
      "cityName": "Soltkay",
      "lat": 48.45,
      "lng": 49.183333
    },
    {
      "cityName": "Solyanaya Loshchina",
      "lat": 50.716667,
      "lng": 50.583333
    },
    {
      "cityName": "Sonaly",
      "lat": 49.6,
      "lng": 53.133333
    },
    {
      "cityName": "Sopoy",
      "lat": 49.983333,
      "lng": 52.583333
    },
    {
      "cityName": "Sorkol'",
      "lat": 50.25,
      "lng": 54.133333
    },
    {
      "cityName": "Sorok Let Kazakhskoy S.S.R.",
      "lat": 50.813611,
      "lng": 49.974444
    },
    {
      "cityName": "Sotsializm",
      "lat": 50.283333,
      "lng": 53.6
    },
    {
      "cityName": "Stalinskiy",
      "lat": 50.966667,
      "lng": 52.233333
    },
    {
      "cityName": "Staroye Kalike",
      "lat": 50.866667,
      "lng": 49.8
    },
    {
      "cityName": "Staryy Kardon",
      "lat": 49.733333,
      "lng": 50.983333
    },
    {
      "cityName": "Staryy Kazangal",
      "lat": 50.233333,
      "lng": 47.65
    },
    {
      "cityName": "Staryy Mumbay",
      "lat": 49.766667,
      "lng": 51.066667
    },
    {
      "cityName": "Stol'nikov",
      "lat": 50.666667,
      "lng": 50.75
    },
    {
      "cityName": "Sugur",
      "lat": 49.483333,
      "lng": 51.816667
    },
    {
      "cityName": "Suirkumak",
      "lat": 48.9,
      "lng": 51.666667
    },
    {
      "cityName": "Sultan",
      "lat": 49.198333,
      "lng": 52.299722
    },
    {
      "cityName": "Sulu-Kul'",
      "lat": 49.416667,
      "lng": 52.666667
    },
    {
      "cityName": "Sulymetesh",
      "lat": 49.716667,
      "lng": 52.066667
    },
    {
      "cityName": "Surgol",
      "lat": 48.584722,
      "lng": 47.041389
    },
    {
      "cityName": "Surkov",
      "lat": 49.383333,
      "lng": 46.883333
    },
    {
      "cityName": "Suttegende",
      "lat": 50.833333,
      "lng": 51.5
    },
    {
      "cityName": "Svyatoy",
      "lat": 50.25,
      "lng": 50.85
    },
    {
      "cityName": "Syrcha",
      "lat": 49.5,
      "lng": 51.433333
    },
    {
      "cityName": "Syytyk",
      "lat": 48.617222,
      "lng": 47.1125
    },
    {
      "cityName": "Tab-Kuduk",
      "lat": 50.583333,
      "lng": 52.916667
    },
    {
      "cityName": "Tabun",
      "lat": 50.033333,
      "lng": 51.566667
    },
    {
      "cityName": "Taganas",
      "lat": 50.834167,
      "lng": 52.000278
    },
    {
      "cityName": "Taksoba",
      "lat": 49.098333,
      "lng": 49.5875
    },
    {
      "cityName": "Takysuat",
      "lat": 49.783333,
      "lng": 49.4
    },
    {
      "cityName": "Talaptak",
      "lat": 49.783333,
      "lng": 52.766667
    },
    {
      "cityName": "Talap",
      "lat": 50.166667,
      "lng": 51.833333
    },
    {
      "cityName": "Taldanak",
      "lat": 49.736389,
      "lng": 50.224722
    },
    {
      "cityName": "Taldapan",
      "lat": 49.666667,
      "lng": 49.966667
    },
    {
      "cityName": "Taldybulak",
      "lat": 50.716667,
      "lng": 52.75
    },
    {
      "cityName": "Taldyk-Kuduk",
      "lat": 50.128333,
      "lng": 49.564722
    },
    {
      "cityName": "Taldy",
      "lat": 50.2,
      "lng": 47.45
    },
    {
      "cityName": "Tal'nov",
      "lat": 50.483333,
      "lng": 50.55
    },
    {
      "cityName": "Talovaya",
      "lat": 51.556111,
      "lng": 50.594444
    },
    {
      "cityName": "Talovi",
      "lat": 51.55,
      "lng": 50.633333
    },
    {
      "cityName": "Talovokiy",
      "lat": 50.383333,
      "lng": 47.566667
    },
    {
      "cityName": "Tamaptak",
      "lat": 49.016667,
      "lng": 49
    },
    {
      "cityName": "Tama",
      "lat": 49.866667,
      "lng": 51.566667
    },
    {
      "cityName": "Tambaytobe",
      "lat": 50.716667,
      "lng": 51.25
    },
    {
      "cityName": "Tamon",
      "lat": 49.816667,
      "lng": 50.533333
    },
    {
      "cityName": "Tanakol'",
      "lat": 50.433333,
      "lng": 53.466667
    },
    {
      "cityName": "Tanasskiy",
      "lat": 50.866667,
      "lng": 52.35
    },
    {
      "cityName": "Tanat",
      "lat": 49.724167,
      "lng": 49.390278
    },
    {
      "cityName": "Tantin",
      "lat": 50.65,
      "lng": 51.75
    },
    {
      "cityName": "Taranov",
      "lat": 49.583333,
      "lng": 47.383333
    },
    {
      "cityName": "Tarau",
      "lat": 50.466667,
      "lng": 51.966667
    },
    {
      "cityName": "Tarkakol'",
      "lat": 49.983333,
      "lng": 49.566667
    },
    {
      "cityName": "Tas-Chigen'",
      "lat": 50.883333,
      "lng": 51.8
    },
    {
      "cityName": "Taskhutor",
      "lat": 50.105833,
      "lng": 49.746111
    },
    {
      "cityName": "Taskoshe",
      "lat": 50.4,
      "lng": 51.283333
    },
    {
      "cityName": "Tas-Kuduk",
      "lat": 48.65,
      "lng": 50.166667
    },
    {
      "cityName": "Taskuduk",
      "lat": 48.75,
      "lng": 46.75
    },
    {
      "cityName": "Tas Kuduk",
      "lat": 50.4,
      "lng": 51.55
    },
    {
      "cityName": "Tasmola",
      "lat": 50.808889,
      "lng": 54.156667
    },
    {
      "cityName": "Tas-Oba",
      "lat": 49.866667,
      "lng": 51.483333
    },
    {
      "cityName": "Tasoba",
      "lat": 50.383333,
      "lng": 52.266667
    },
    {
      "cityName": "Tas-uba",
      "lat": 49.766667,
      "lng": 49.866667
    },
    {
      "cityName": "Tatrai",
      "lat": 49.583333,
      "lng": 46.983333
    },
    {
      "cityName": "Tau",
      "lat": 49.666667,
      "lng": 47.283333
    },
    {
      "cityName": "Taygora",
      "lat": 48.483333,
      "lng": 46.816667
    },
    {
      "cityName": "Taypak-Kuduk",
      "lat": 50.166667,
      "lng": 52.166667
    },
    {
      "cityName": "Taypak",
      "lat": 49.8,
      "lng": 52.016667
    },
    {
      "cityName": "Taz",
      "lat": 50.383333,
      "lng": 47.5
    },
    {
      "cityName": "Telengutovskaya",
      "lat": 48.766667,
      "lng": 48.783333
    },
    {
      "cityName": "Telyatovo",
      "lat": 49.6,
      "lng": 50.5
    },
    {
      "cityName": "Temich",
      "lat": 48.466667,
      "lng": 47.216667
    },
    {
      "cityName": "Temirbek",
      "lat": 49.725556,
      "lng": 52.920833
    },
    {
      "cityName": "Tentikkara",
      "lat": 50.7,
      "lng": 53.7
    },
    {
      "cityName": "Terben Khuduk",
      "lat": 48.4,
      "lng": 47.183333
    },
    {
      "cityName": "Terek-Kuduk",
      "lat": 49.95,
      "lng": 52.783333
    },
    {
      "cityName": "Terektinskiy",
      "lat": 48.566667,
      "lng": 49
    },
    {
      "cityName": "Terenkol'",
      "lat": 49.553889,
      "lng": 48.388611
    },
    {
      "cityName": "Tikhonovka",
      "lat": 50.935,
      "lng": 52.586944
    },
    {
      "cityName": "Tiksay",
      "lat": 50.65,
      "lng": 53.766667
    },
    {
      "cityName": "Tileulikol'",
      "lat": 50.516667,
      "lng": 53.733333
    },
    {
      "cityName": "Tishekuduk",
      "lat": 49.45,
      "lng": 49.4
    },
    {
      "cityName": "Titsay",
      "lat": 50.366667,
      "lng": 52.416667
    },