{
  "name": "Maule",
  "cities": [
    {
      "cityName": "Abarca",
      "lat": -35.25,
      "lng": -71.85
    },
    {
      "cityName": "Abranquil",
      "lat": -35.75,
      "lng": -71.55
    },
    {
      "cityName": "Agua Buena",
      "lat": -35.3166667,
      "lng": -72.15
    },
    {
      "cityName": "Alcántara",
      "lat": -34.7666667,
      "lng": -71.8333333
    },
    {
      "cityName": "Alto Vilches",
      "lat": -35.6,
      "lng": -71.2
    },
    {
      "cityName": "Ancoa",
      "lat": -35.9166667,
      "lng": -71.4333333
    },
    {
      "cityName": "Bajo Lircay",
      "lat": -35.5,
      "lng": -71.3166667
    },
    {
      "cityName": "Baños de Panimávida",
      "lat": -35.75,
      "lng": -71.4166667
    },
    {
      "cityName": "Batuco",
      "lat": -35.2666667,
      "lng": -72.1
    },
    {
      "cityName": "Bobadilla",
      "lat": -35.5666667,
      "lng": -71.6833333
    },
    {
      "cityName": "Boyeruca",
      "lat": -34.6833333,
      "lng": -72.05
    },
    {
      "cityName": "Cabeza de Vaca",
      "lat": -35.2666667,
      "lng": -72.1666667
    },
    {
      "cityName": "Caiban",
      "lat": -35.4833333,
      "lng": -71.6333333
    },
    {
      "cityName": "Calabozo",
      "lat": -35.2166667,
      "lng": -72.2666667
    },
    {
      "cityName": "Caliboro",
      "lat": -35.8333333,
      "lng": -71.9166667
    },
    {
      "cityName": "Calimavia",
      "lat": -35.8833333,
      "lng": -71.9666667
    },
    {
      "cityName": "Callejones",
      "lat": -35.5166667,
      "lng": -71.6333333
    },
    {
      "cityName": "Calle Larga",
      "lat": -35.6166667,
      "lng": -71.6833333
    },
    {
      "cityName": "Camarico",
      "lat": -35.2166667,
      "lng": -71.4333333
    },
    {
      "cityName": "Campanacura",
      "lat": -35.9833333,
      "lng": -71.9833333
    },
    {
      "cityName": "Canelillo",
      "lat": -35.25,
      "lng": -72.2166667
    },
    {
      "cityName": "Cañete",
      "lat": -35.2833333,
      "lng": -72.2333333
    },
    {
      "cityName": "Capilla de Palacios",
      "lat": -35.8166667,
      "lng": -71.4666667
    },
    {
      "cityName": "Carrera",
      "lat": -35.6666667,
      "lng": -72.5333333
    },
    {
      "cityName": "Carrizal",
      "lat": -35.25,
      "lng": -72.25
    },
    {
      "cityName": "Carrizales",
      "lat": -35.7,
      "lng": -71.9
    },
    {
      "cityName": "Carrizalillo",
      "lat": -35.1833333,
      "lng": -72.1833333
    },
    {
      "cityName": "Casas Fundo El Médano",
      "lat": -35.0166667,
      "lng": -72.1833333
    },
    {
      "cityName": "Cauquenes",
      "lat": -35.9666667,
      "lng": -72.35
    },
    {
      "cityName": "Chacarilla",
      "lat": -35.8166667,
      "lng": -72.3666667
    },
    {
      "cityName": "Chanco",
      "lat": -35.7333333,
      "lng": -72.5333333
    },
    {
      "cityName": "Chanquiuque",
      "lat": -35.15,
      "lng": -72.2166667
    },
    {
      "cityName": "Chequén",
      "lat": -35.5833333,
      "lng": -71.5333333
    },
    {
      "cityName": "Chevelle",
      "lat": -35.9,
      "lng": -72.6833333
    },
    {
      "cityName": "Chorriadero",
      "lat": -35.8,
      "lng": -72.5666667
    },
    {
      "cityName": "Cielo",
      "lat": -35.9166667,
      "lng": -72.3
    },
    {
      "cityName": "Coihueco",
      "lat": -35.7833333,
      "lng": -72.4333333
    },
    {
      "cityName": "Coipué",
      "lat": -35.25,
      "lng": -72.0666667
    },
    {
      "cityName": "Colbún Alto",
      "lat": -35.75,
      "lng": -71.2166667
    },
    {
      "cityName": "Colín",
      "lat": -35.4833333,
      "lng": -71.7833333
    },
    {
      "cityName": "Colonia Potrero Grande",
      "lat": -35.2,
      "lng": -70.8833333
    },
    {
      "cityName": "Comalle",
      "lat": -34.85,
      "lng": -71.2833333
    },
    {
      "cityName": "Comunidad El Guapi",
      "lat": -35.0333333,
      "lng": -72.1333333
    },
    {
      "cityName": "Constitución",
      "lat": -35.3333333,
      "lng": -72.4166667
    },
    {
      "cityName": "Copihue",
      "lat": -36.1,
      "lng": -71.8166667
    },
    {
      "cityName": "Coronel",
      "lat": -36.05,
      "lng": -72.5
    },
    {
      "cityName": "Corral de Salas",
      "lat": -35.8666667,
      "lng": -71
    },
    {
      "cityName": "Culenan",
      "lat": -35.45,
      "lng": -71.7
    },
    {
      "cityName": "Cumpeo",
      "lat": -35.2833333,
      "lng": -71.2666667
    },
    {
      "cityName": "Cunaco",
      "lat": -35.7166667,
      "lng": -71.7166667
    },
    {
      "cityName": "Cuñao",
      "lat": -35.9,
      "lng": -71.7666667
    },
    {
      "cityName": "Curanipe",
      "lat": -35.8333333,
      "lng": -72.6333333
    },
    {
      "cityName": "Curepto",
      "lat": -35.0833333,
      "lng": -72.0166667
    },
    {
      "cityName": "Curicó",
      "lat": -34.9833333,
      "lng": -71.2333333
    },
    {
      "cityName": "Curimanqui",
      "lat": -36.2166667,
      "lng": -72.3666667
    },
    {
      "cityName": "Curivilo",
      "lat": -35.8833333,
      "lng": -72.2166667
    },
    {
      "cityName": "Curtiduría",
      "lat": -35.4666667,
      "lng": -71.9333333
    },
    {
      "cityName": "Cutemo",
      "lat": -34.7666667,
      "lng": -71.9166667
    },
    {
      "cityName": "Docamávida",
      "lat": -35,
      "lng": -71.95
    },
    {
      "cityName": "Duao",
      "lat": -34.9,
      "lng": -72.1833333
    },
    {
      "cityName": "El Baúl",
      "lat": -35.35,
      "lng": -70.9
    },
    {
      "cityName": "El Bolsico",
      "lat": -35.25,
      "lng": -71.1833333
    },
    {
      "cityName": "El Cerrillo",
      "lat": -35.6666667,
      "lng": -71.5666667
    },
    {
      "cityName": "El Culenar",
      "lat": -35.1166667,
      "lng": -71.6
    },
    {
      "cityName": "El Emboque",
      "lat": -35.75,
      "lng": -71.75
    },
    {
      "cityName": "El Espino",
      "lat": -35.2,
      "lng": -72.2166667
    },
    {
      "cityName": "El Guapi",
      "lat": -34.9166667,
      "lng": -72.1833333
    },
    {
      "cityName": "El Llano",
      "lat": -35.9666667,
      "lng": -72.15
    },
    {
      "cityName": "El Morro",
      "lat": -35.45,
      "lng": -71.9
    },
    {
      "cityName": "El Nogal",
      "lat": -35.5333333,
      "lng": -71.5833333
    },
    {
      "cityName": "El Parrón",
      "lat": -34.9,
      "lng": -71.4833333
    },
    {
      "cityName": "El Peñón",
      "lat": -34.9833333,
      "lng": -72.1833333
    },
    {
      "cityName": "El Peral",
      "lat": -34.7333333,
      "lng": -71.95
    },
    {
      "cityName": "El Peumo",
      "lat": -35.45,
      "lng": -72
    },
    {
      "cityName": "El Plumero",
      "lat": -34.8833333,
      "lng": -71.2666667
    },
    {
      "cityName": "El Pueblecillo",
      "lat": -35.55,
      "lng": -71.7
    },
    {
      "cityName": "El Puente",
      "lat": -35.3166667,
      "lng": -72.2166667
    },
    {
      "cityName": "El Rodeo",
      "lat": -34.7833333,
      "lng": -72.0833333
    },
    {
      "cityName": "El Rosal",
      "lat": -35.9166667,
      "lng": -72.3333333
    },
    {
      "cityName": "El Torreón",
      "lat": -35.4333333,
      "lng": -71.1833333
    },
    {
      "cityName": "Empedrado",
      "lat": -35.6,
      "lng": -72.2833333
    },
    {
      "cityName": "Esperanza",
      "lat": -35.6,
      "lng": -71.5
    },
    {
      "cityName": "Esquinas",
      "lat": -35.6,
      "lng": -71.4333333
    },
    {
      "cityName": "Estación San Javier",
      "lat": -35.6,
      "lng": -71.7
    },
    {
      "cityName": "Estación Villa Alegre",
      "lat": -35.6833333,
      "lng": -71.6833333
    },
    {
      "cityName": "Estrella",
      "lat": -35.5,
      "lng": -71.7833333
    },
    {
      "cityName": "Guaico",
      "lat": -36.1333333,
      "lng": -72.1833333
    },
    {
      "cityName": "Gualañe",
      "lat": -34.9833333,
      "lng": -71.8166667
    },
    {
      "cityName": "Gualleco",
      "lat": -35.25,
      "lng": -71.9666667
    },
    {
      "cityName": "Guanacos",
      "lat": -35.3166667,
      "lng": -72.2
    },
    {
      "cityName": "Guaquén",
      "lat": -35.1166667,
      "lng": -71.7166667
    },
    {
      "cityName": "Guilleumo",
      "lat": -35.1666667,
      "lng": -72.2166667
    },
    {
      "cityName": "Higuerilla",
      "lat": -34.8666667,
      "lng": -72.1
    },
    {
      "cityName": "Hornillas",
      "lat": -35.8666667,
      "lng": -71.15
    },
    {
      "cityName": "Huecahuecan",
      "lat": -35.05,
      "lng": -71.15
    },
    {
      "cityName": "Huelón",
      "lat": -35.0666667,
      "lng": -72.1
    },
    {
      "cityName": "Huepi",
      "lat": -35.4666667,
      "lng": -71.2833333
    },
    {
      "cityName": "Huerta del Maule",
      "lat": -35.6666667,
      "lng": -71.95
    },
    {
      "cityName": "Huilipatagua",
      "lat": -36.15,
      "lng": -72.2
    },
    {
      "cityName": "Huillín",
      "lat": -35.5,
      "lng": -72.25
    },
    {
      "cityName": "Huilquilemo",
      "lat": -35.45,
      "lng": -71.5666667
    },
    {
      "cityName": "Huiquile",
      "lat": -34.8833333,
      "lng": -71.4333333
    },
    {
      "cityName": "Infiernillo",
      "lat": -35.4166667,
      "lng": -72.0333333
    },
    {
      "cityName": "Itahue",
      "lat": -35.15,
      "lng": -71.35
    },
    {
      "cityName": "Junquillar",
      "lat": -35.2833333,
      "lng": -72.35
    },
    {
      "cityName": "La Aurora",
      "lat": -34.85,
      "lng": -71.1666667
    },
    {
      "cityName": "La Cabrería",
      "lat": -35.55,
      "lng": -71.85
    },
    {
      "cityName": "La Capilla",
      "lat": -34.95,
      "lng": -72.1833333
    },
    {
      "cityName": "Lagunillas",
      "lat": -35.75,
      "lng": -72.4833333
    },
    {
      "cityName": "La Higuera",
      "lat": -34.9166667,
      "lng": -72.15
    },
    {
      "cityName": "La Huerta",
      "lat": -35.0666667,
      "lng": -71.6666667
    },
    {
      "cityName": "La Isla",
      "lat": -35.1166667,
      "lng": -71.6333333
    },
    {
      "cityName": "La Junta",
      "lat": -36.1333333,
      "lng": -72.0666667
    },
    {
      "cityName": "La Laguna",
      "lat": -34.95,
      "lng": -71
    },
    {
      "cityName": "La Lechuza",
      "lat": -35.2,
      "lng": -72.3166667
    },
    {
      "cityName": "La Leonera",
      "lat": -36.95,
      "lng": -72.9166667
    },
    {
      "cityName": "La Matanza",
      "lat": -35.8166667,
      "lng": -72.45
    },
    {
      "cityName": "La Mina Fortuna",
      "lat": -35.8333333,
      "lng": -70.75
    },
    {
      "cityName": "La Montaña",
      "lat": -34.9,
      "lng": -72
    },
    {
      "cityName": "Lancagua",
      "lat": -35.7333333,
      "lng": -71.9
    },
    {
      "cityName": "La Ovejería",
      "lat": -35.3166667,
      "lng": -72.3166667
    },
    {
      "cityName": "La Palmilla",
      "lat": -34.8833333,
      "lng": -71.3166667
    },
    {
      "cityName": "La Patagüilla",
      "lat": -34.9,
      "lng": -72.1666667
    },
    {
      "cityName": "La Pesca",
      "lat": -34.9666667,
      "lng": -72.2
    },
    {
      "cityName": "Las Apancoras",
      "lat": -34.7333333,
      "lng": -72.0166667
    },
    {
      "cityName": "Las Arboledas",
      "lat": -34.8666667,
      "lng": -71.2166667
    },
    {
      "cityName": "Las Conchas",
      "lat": -34.7666667,
      "lng": -72.0666667
    },
    {
      "cityName": "La Silleta",
      "lat": -35.1666667,
      "lng": -72.2
    },
    {
      "cityName": "Las Juntas",
      "lat": -35.1833333,
      "lng": -71.8666667
    },
    {
      "cityName": "Las Lomas",
      "lat": -35.1333333,
      "lng": -72.2
    },
    {
      "cityName": "Las Minas",
      "lat": -35.35,
      "lng": -71.6833333
    },
    {
      "cityName": "Las Puertas",
      "lat": -34.95,
      "lng": -72.0666667
    },
    {
      "cityName": "Las Quilas",
      "lat": -35.9,
      "lng": -72.55
    },
    {
      "cityName": "Las Rosas",
      "lat": -36.0833333,
      "lng": -72.35
    },
    {
      "cityName": "Lastimas Pejerrey",
      "lat": -36.05,
      "lng": -71.35
    },
    {
      "cityName": "Las Tizas",
      "lat": -35.4,
      "lng": -71.8666667
    },
    {
      "cityName": "La Yesca",
      "lat": -34.9666667,
      "lng": -71.05
    },
    {
      "cityName": "Libun",
      "lat": -35.35,
      "lng": -71.9
    },
    {
      "cityName": "Licantén",
      "lat": -34.9833333,
      "lng": -72
    },
    {
      "cityName": "Linares de Perales",
      "lat": -35.4833333,
      "lng": -71.8666667
    },
    {
      "cityName": "Linares",
      "lat": -35.85,
      "lng": -71.6
    },
    {
      "cityName": "Lipimávida",
      "lat": -34.85,
      "lng": -72.15
    },
    {
      "cityName": "Lircai Arriba",
      "lat": -35.4,
      "lng": -71.6166667
    },
    {
      "cityName": "Lircai",
      "lat": -35.4,
      "lng": -71.65
    },
    {
      "cityName": "Llepo",
      "lat": -35.9166667,
      "lng": -71.5166667
    },
    {
      "cityName": "Llico",
      "lat": -34.7666667,
      "lng": -72.0833333
    },
    {
      "cityName": "Lo Figueroa",
      "lat": -35.4,
      "lng": -71.8
    },
    {
      "cityName": "Lo Hernandes",
      "lat": -35.9666667,
      "lng": -72.0666667
    },
    {
      "cityName": "Loma Blanca",
      "lat": -35.2,
      "lng": -72.1333333
    },
    {
      "cityName": "Loma de Torca",
      "lat": -36.1666667,
      "lng": -72
    },
    {
      "cityName": "Lomas",
      "lat": -35.8166667,
      "lng": -72.5833333
    },
    {
      "cityName": "Lo Mellado",
      "lat": -35.0833333,
      "lng": -71.5
    },
    {
      "cityName": "Longaví",
      "lat": -35.9666667,
      "lng": -71.6833333
    },
    {
      "cityName": "Lontué",
      "lat": -35.0666667,
      "lng": -71.2666667
    },
    {
      "cityName": "Lora",
      "lat": -35.0166667,
      "lng": -72.0666667
    },
    {
      "cityName": "Los Alisos",
      "lat": -34.9,
      "lng": -71.2833333
    },
    {
      "cityName": "Los Guindos",
      "lat": -34.9166667,
      "lng": -71.2166667
    },
    {
      "cityName": "Los Hornos",
      "lat": -35.1333333,
      "lng": -71.3166667
    },
    {
      "cityName": "Los Huesos",
      "lat": -35.3833333,
      "lng": -72.25
    },
    {
      "cityName": "Los Junquillos",
      "lat": -34.8666667,
      "lng": -72.15
    },
    {
      "cityName": "Los Laureles",
      "lat": -35.25,
      "lng": -72.2333333
    },
    {
      "cityName": "Los Lobos",
      "lat": -34.8166667,
      "lng": -72.1333333
    },
    {
      "cityName": "Los Maitenes",
      "lat": -35.6166667,
      "lng": -71.3833333
    },
    {
      "cityName": "Los Montes",
      "lat": -35.25,
      "lng": -71.3
    },
    {
      "cityName": "Los Niches Pobres",
      "lat": -35.1166667,
      "lng": -71.15
    },
    {
      "cityName": "Los Padres",
      "lat": -35.25,
      "lng": -71.2666667
    },
    {
      "cityName": "Los Queñes",
      "lat": -35.0166667,
      "lng": -70.8
    },
    {
      "cityName": "Los Quillayes",
      "lat": -35.25,
      "lng": -72.2
    },
    {
      "cityName": "Los Rábanos",
      "lat": -35.1166667,
      "lng": -72.2
    },
    {
      "cityName": "Los Rabones",
      "lat": -35.8333333,
      "lng": -71.3166667
    },
    {
      "cityName": "Los Tablones",
      "lat": -35.5666667,
      "lng": -72.45
    },
    {
      "cityName": "Los Treiles",
      "lat": -34.8833333,
      "lng": -72.1333333
    },
    {
      "cityName": "Lo Valdivia",
      "lat": -35,
      "lng": -71.3666667
    },
    {
      "cityName": "Lo Vargas",
      "lat": -35.3666667,
      "lng": -71.2666667
    },
    {
      "cityName": "Macal",
      "lat": -35.1833333,
      "lng": -72.15
    },
    {
      "cityName": "Majadilla",
      "lat": -35.0166667,
      "lng": -71.5
    },
    {
      "cityName": "Mancha de Relbún",
      "lat": -35.2,
      "lng": -72.2333333
    },
    {
      "cityName": "Matancilla",
      "lat": -35.2,
      "lng": -72.3
    },
    {
      "cityName": "Maule",
      "lat": -35.5333333,
      "lng": -71.7
    },
    {
      "cityName": "Medias Aguas",
      "lat": -35.2833333,
      "lng": -71.5
    },
    {
      "cityName": "Melado",
      "lat": -35.8666667,
      "lng": -71.0833333
    },
    {
      "cityName": "Melco",
      "lat": -35.7333333,
      "lng": -72.3833333
    },
    {
      "cityName": "Melozal",
      "lat": -35.7,
      "lng": -71.8
    },
    {
      "cityName": "Miraflores",
      "lat": -35.9166667,
      "lng": -71.65
    },
    {
      "cityName": "Mira Río",
      "lat": -35,
      "lng": -71.75
    },
    {
      "cityName": "Molina",
      "lat": -35.1166667,
      "lng": -71.2833333
    },
    {
      "cityName": "Molino Caracoles",
      "lat": -35.6833333,
      "lng": -71.4833333
    },
    {
      "cityName": "Molino",
      "lat": -35.85,
      "lng": -72.3166667
    },
    {
      "cityName": "Molinos",
      "lat": -35.9166667,
      "lng": -72.6333333
    },
    {
      "cityName": "Montella",
      "lat": -34.8333333,
      "lng": -71.1
    },
    {
      "cityName": "Morza",
      "lat": -34.8166667,
      "lng": -71.0333333
    },
    {
      "cityName": "Nirivilo",
      "lat": -35.55,
      "lng": -72.0833333
    },
    {
      "cityName": "Orilla del Maule",
      "lat": -35.5833333,
      "lng": -71.6833333
    },
    {
      "cityName": "Pahuil",
      "lat": -35.6166667,
      "lng": -72.5666667
    },
    {
      "cityName": "Palgua",
      "lat": -35.7666667,
      "lng": -71.9666667
    },
    {
      "cityName": "Palquibudi",
      "lat": -35.05,
      "lng": -71.55
    },
    {
      "cityName": "Panguilemo",
      "lat": -35.3666667,
      "lng": -71.5833333
    },
    {
      "cityName": "Parral",
      "lat": -36.15,
      "lng": -71.8333333
    },
    {
      "cityName": "Paso Tuna",
      "lat": -36.0166667,
      "lng": -72.15
    },
    {
      "cityName": "Patacón",
      "lat": -34.9,
      "lng": -71.7833333
    },
    {
      "cityName": "Pelarco",
      "lat": -35.3833333,
      "lng": -71.45
    },
    {
      "cityName": "Pellín",
      "lat": -35.5,
      "lng": -72.3333333
    },
    {
      "cityName": "Pencahue",
      "lat": -35.4,
      "lng": -71.8166667
    },
    {
      "cityName": "Peñón",
      "lat": -34.9833333,
      "lng": -70.8833333
    },
    {
      "cityName": "Peralillo",
      "lat": -35.15,
      "lng": -72.1666667
    },
    {
      "cityName": "Peumo",
      "lat": -35.2166667,
      "lng": -72.2166667
    },
    {
      "cityName": "Pichamán",
      "lat": -35.4333333,
      "lng": -72.1166667
    },
    {
      "cityName": "Pichibudi",
      "lat": -34.8833333,
      "lng": -72.1666667
    },
    {
      "cityName": "Pichihuedque",
      "lat": -36.0833333,
      "lng": -72.5
    },
    {
      "cityName": "Pichingal",
      "lat": -35.1166667,
      "lng": -71.2
    },
    {
      "cityName": "Pilén",
      "lat": -35.95,
      "lng": -72.4166667
    },
    {
      "cityName": "Pillay",
      "lat": -35.7833333,
      "lng": -72
    },
    {
      "cityName": "Placeta",
      "lat": -35.0333333,
      "lng": -70.7833333
    },
    {
      "cityName": "Pocillas",
      "lat": -36.1666667,
      "lng": -72.2333333
    },
    {
      "cityName": "Poeta González Bastias",
      "lat": -35.45,
      "lng": -72.0333333
    },
    {
      "cityName": "Pueblo del Hollín",
      "lat": -35.0833333,
      "lng": -71.1
    },
    {
      "cityName": "Pueblo Hundido",
      "lat": -35.7833333,
      "lng": -72.5333333
    },
    {
      "cityName": "Puente Alto",
      "lat": -35.1333333,
      "lng": -71.35
    },
    {
      "cityName": "Pununquén",
      "lat": -35.05,
      "lng": -72.1333333
    },
    {
      "cityName": "Putagán",
      "lat": -35.7666667,
      "lng": -71.6666667
    },
    {
      "cityName": "Putú",
      "lat": -35.2166667,
      "lng": -72.2833333
    },
    {
      "cityName": "Quella",
      "lat": -36.0666667,
      "lng": -72.0833333
    },
    {
      "cityName": "Querquel",
      "lat": -35.4666667,
      "lng": -71.7833333
    },
    {
      "cityName": "Quesería",
      "lat": -34.8666667,
      "lng": -72
    },
    {
      "cityName": "Quilico",
      "lat": -34.8833333,
      "lng": -71.9166667
    },
    {
      "cityName": "Quillayes",
      "lat": -35.3,
      "lng": -71.3833333
    },
    {
      "cityName": "Quilpoco",
      "lat": -34.9666667,
      "lng": -71.3666667
    },
    {
      "cityName": "Quinamávida",
      "lat": -35.7833333,
      "lng": -71.4333333
    },
    {
      "cityName": "Quinchamávida",
      "lat": -36.1166667,
      "lng": -72.05
    },
    {
      "cityName": "Quiñepeumo",
      "lat": -35.55,
      "lng": -71.65
    },
    {
      "cityName": "Quirquilinco",
      "lat": -35.8166667,
      "lng": -71.9666667
    },
    {
      "cityName": "Rahue",
      "lat": -35.7666667,
      "lng": -72.55
    },
    {
      "cityName": "Ramadillas",
      "lat": -36,
      "lng": -72.6666667
    },
    {
      "cityName": "Rancura",
      "lat": -34.9666667,
      "lng": -72.1833333
    },
    {
      "cityName": "Rapilermo",
      "lat": -35.2,
      "lng": -71.7833333
    },
    {
      "cityName": "Rarín",
      "lat": -34.7833333,
      "lng": -71.9333333
    },
    {
      "cityName": "Rari",
      "lat": -35.7666667,
      "lng": -71.4166667
    },
    {
      "cityName": "Rauco",
      "lat": -34.9333333,
      "lng": -71.3166667
    },
    {
      "cityName": "Reloca",
      "lat": -35.6333333,
      "lng": -72.55
    },
    {
      "cityName": "Retiro",
      "lat": -36.05,
      "lng": -71.7666667
    },
    {
      "cityName": "Retulemus",
      "lat": -35.95,
      "lng": -72.35
    },
    {
      "cityName": "Rinconada Los Quillayes",
      "lat": -35.1666667,
      "lng": -71.65
    },
    {
      "cityName": "Rinconada",
      "lat": -35.5,
      "lng": -72.2333333
    },
    {
      "cityName": "Romeral",
      "lat": -34.9666667,
      "lng": -71.1333333
    },
    {
      "cityName": "Rota",
      "lat": -35.6166667,
      "lng": -71.3666667
    },
    {
      "cityName": "Sagrada Familia",
      "lat": -35,
      "lng": -71.3833333
    },
    {
      "cityName": "San Antonio",
      "lat": -35.4,
      "lng": -72.5
    },
    {
      "cityName": "San Carlos",
      "lat": -35.9666667,
      "lng": -71.6333333
    },
    {
      "cityName": "San Clemente",
      "lat": -35.55,
      "lng": -71.4833333
    },
    {
      "cityName": "San Esteban",
      "lat": -35.8666667,
      "lng": -72.3833333
    },
    {
      "cityName": "San Francisco",
      "lat": -36.0666667,
      "lng": -72.4333333
    },
    {
      "cityName": "San Javier",
      "lat": -35.6,
      "lng": -71.75
    },
    {
      "cityName": "San José",
      "lat": -35.8833333,
      "lng": -71.9
    },
    {
      "cityName": "San Manuel",
      "lat": -35.6666667,
      "lng": -71.6333333
    },
    {
      "cityName": "San Nicolás",
      "lat": -36.05,
      "lng": -71.8666667
    },
    {
      "cityName": "San Rafael",
      "lat": -35.3166667,
      "lng": -71.5333333
    },
    {
      "cityName": "San Ramón",
      "lat": -35.7166667,
      "lng": -71.5666667
    },
    {
      "cityName": "Santa Ana de Queri",
      "lat": -35.6333333,
      "lng": -71.5333333
    },
    {
      "cityName": "Santa Blanca",
      "lat": -34.9333333,
      "lng": -71.0333333
    },
    {
      "cityName": "Santa Lucía",
      "lat": -35.0666667,
      "lng": -71.1833333
    },
    {
      "cityName": "Santa Rosa",
      "lat": -35.1,
      "lng": -71.2666667
    },
    {
      "cityName": "Sarmiento",
      "lat": -34.9333333,
      "lng": -71.2166667
    },
    {
      "cityName": "Sauzal",
      "lat": -35.75,
      "lng": -72.1166667
    },
    {
      "cityName": "Tabuco",
      "lat": -34.7666667,
      "lng": -71.9833333
    },
    {
      "cityName": "Tabunco",
      "lat": -35.2,
      "lng": -71.9833333
    },
    {
      "cityName": "Talcalonco",
      "lat": -36.0833333,
      "lng": -72.0833333
    },
    {
      "cityName": "Talca",
      "lat": -35.4333333,
      "lng": -71.6666667
    },
    {
      "cityName": "Tanguao",
      "lat": -35.4166667,
      "lng": -72.0666667
    },
    {
      "cityName": "Tejería",
      "lat": -35.7166667,
      "lng": -72.4333333
    },
    {
      "cityName": "Teno",
      "lat": -34.8666667,
      "lng": -71.1833333
    },
    {
      "cityName": "Tilicura",
      "lat": -34.8333333,
      "lng": -72
    },
    {
      "cityName": "Tiquel",
      "lat": -36.1333333,
      "lng": -72.3333333
    },
    {
      "cityName": "Toconey Alto",
      "lat": -35.4166667,
      "lng": -72.0833333
    },
    {
      "cityName": "Toconey",
      "lat": -35.4166667,
      "lng": -72.1166667
    },
    {
      "cityName": "Trapiche",
      "lat": -34.9666667,
      "lng": -71.3833333
    },
    {
      "cityName": "Tricao",
      "lat": -34.9833333,
      "lng": -71.4
    },
    {
      "cityName": "Trogualemo",
      "lat": -35.9833333,
      "lng": -72.7166667
    },
    {
      "cityName": "Troya",
      "lat": -36.2166667,
      "lng": -72.3
    },
    {
      "cityName": "Tutuquén",
      "lat": -34.9666667,
      "lng": -71.3166667
    },
    {
      "cityName": "Unicavén",
      "lat": -36.0833333,
      "lng": -72.0166667
    },
    {
      "cityName": "Upeo",
      "lat": -35.1333333,
      "lng": -71.0333333
    },
    {
      "cityName": "Valdivia",
      "lat": -35.2,
      "lng": -72.2666667
    },
    {
      "cityName": "Vaquería",
      "lat": -35.2,
      "lng": -72.2833333
    },
    {
      "cityName": "Vara Gruesa",
      "lat": -35.85,
      "lng": -71.5166667
    },
    {
      "cityName": "Vichuquén",
      "lat": -34.8833333,
      "lng": -72
    },
    {
      "cityName": "Villa Alegre",
      "lat": -35.6666667,
      "lng": -71.75
    },
    {
      "cityName": "Villa Prat",
      "lat": -35.0833333,
      "lng": -71.6166667
    },
    {
      "cityName": "Villa Seca",
      "lat": -35.8666667,
      "lng": -71.85
    },
    {
      "cityName": "Vilquico",
      "lat": -36.25,
      "lng": -72.2666667
    },
    {
      "cityName": "Viluco",
      "lat": -34.9,
      "lng": -71.1666667
    },
    {
      "cityName": "Yerbas Buenas",
      "lat": -35.75,
      "lng": -71.5833333
    }
  ]
}