{
  "name": "Kamuli",
  "cities": [
    {
      "cityName": "Balawoli",
      "lat": 1.0286111,
      "lng": 33.0927778
    },
    {
      "cityName": "Budatenwa",
      "lat": 0.8333333,
      "lng": 33.1666667
    },
    {
      "cityName": "Budatu",
      "lat": 0.9,
      "lng": 33.5833333
    },
    {
      "cityName": "Budehe",
      "lat": 0.9833333,
      "lng": 33.5
    },
    {
      "cityName": "Budini",
      "lat": 0.9166667,
      "lng": 33.5166667
    },
    {
      "cityName": "Budola",
      "lat": 1.1666667,
      "lng": 33.2833333
    },
    {
      "cityName": "Bugambo",
      "lat": 0.8833333,
      "lng": 33.4166667
    },
    {
      "cityName": "Bugayuwa",
      "lat": 0.9,
      "lng": 33.0333333
    },
    {
      "cityName": "Bugodo",
      "lat": 0.95,
      "lng": 33.55
    },
    {
      "cityName": "Bugole",
      "lat": 0.8666667,
      "lng": 33.3833333
    },
    {
      "cityName": "Bugongo",
      "lat": 0.85,
      "lng": 33.4
    },
    {
      "cityName": "Bugonyoka",
      "lat": 0.8,
      "lng": 33.3166667
    },
    {
      "cityName": "Bugulumbia",
      "lat": 0.8113889,
      "lng": 33.2111111
    },
    {
      "cityName": "Bugumira",
      "lat": 0.7833333,
      "lng": 33.05
    },
    {
      "cityName": "Bugwe",
      "lat": 0.9411111,
      "lng": 33.6002778
    },
    {
      "cityName": "Buiza",
      "lat": 0.9833333,
      "lng": 32.9666667
    },
    {
      "cityName": "Bujuba",
      "lat": 0.95,
      "lng": 33.35
    },
    {
      "cityName": "Bujugu",
      "lat": 1.1833333,
      "lng": 33.4333333
    },
    {
      "cityName": "Bujwaya",
      "lat": 0.9333333,
      "lng": 32.9333333
    },
    {
      "cityName": "Bukanga",
      "lat": 0.7091667,
      "lng": 33.3577778
    },
    {
      "cityName": "Bukanya",
      "lat": 0.8833333,
      "lng": 33.35
    },
    {
      "cityName": "Bukendi",
      "lat": 0.7666667,
      "lng": 33.3666667
    },
    {
      "cityName": "Bukobo",
      "lat": 1.0166667,
      "lng": 33.3333333
    },
    {
      "cityName": "Bukoma",
      "lat": 0.8716667,
      "lng": 33.3475
    },
    {
      "cityName": "Bukomba",
      "lat": 0.9166667,
      "lng": 32.9666667
    },
    {
      "cityName": "Bukonde",
      "lat": 1.05,
      "lng": 33.5333333
    },
    {
      "cityName": "Bukubaituba",
      "lat": 1.1,
      "lng": 33.3833333
    },
    {
      "cityName": "Bukungu",
      "lat": 1.4183333,
      "lng": 32.9430556
    },
    {
      "cityName": "Bukutu",
      "lat": 0.7833333,
      "lng": 33.25
    },
    {
      "cityName": "Bukutula",
      "lat": 1.2,
      "lng": 33.3666667
    },
    {
      "cityName": "Bulembo",
      "lat": 1.4,
      "lng": 32.9666667
    },
    {
      "cityName": "Bulongo",
      "lat": 0.7561111,
      "lng": 33.3338889
    },
    {
      "cityName": "Bulopa",
      "lat": 0.8483333,
      "lng": 33.2508333
    },
    {
      "cityName": "Bulumba",
      "lat": 1.0166667,
      "lng": 33.45
    },
    {
      "cityName": "Buluya",
      "lat": 0.8313889,
      "lng": 33.1033333
    },
    {
      "cityName": "Bulyaikubi",
      "lat": 1,
      "lng": 33.5166667
    },
    {
      "cityName": "Bumanya",
      "lat": 1,
      "lng": 33.4833333
    },
    {
      "cityName": "Bumogoli",
      "lat": 1.2666667,
      "lng": 33.2833333
    },
    {
      "cityName": "Bunabala",
      "lat": 0.9,
      "lng": 33.35
    },
    {
      "cityName": "Buologoma",
      "lat": 0.7333333,
      "lng": 33.3666667
    },
    {
      "cityName": "Bupajengo",
      "lat": 0.7158333,
      "lng": 33.1577778
    },
    {
      "cityName": "Bupyana",
      "lat": 1.0833333,
      "lng": 33.4833333
    },
    {
      "cityName": "Buseete",
      "lat": 0.8,
      "lng": 33.3
    },
    {
      "cityName": "Busini",
      "lat": 0.9166667,
      "lng": 33.5666667
    },
    {
      "cityName": "Busulumba",
      "lat": 1.1666667,
      "lng": 33.5166667
    },
    {
      "cityName": "Butansi",
      "lat": 0.9130556,
      "lng": 33.0833333
    },
    {
      "cityName": "Butayunja",
      "lat": 1.4,
      "lng": 32.9
    },
    {
      "cityName": "Butende",
      "lat": 0.9302778,
      "lng": 33.1591667
    },
    {
      "cityName": "Butoca",
      "lat": 0.8477778,
      "lng": 33.2483333
    },
    {
      "cityName": "Butongole",
      "lat": 0.9333333,
      "lng": 33.5333333
    },
    {
      "cityName": "Buvule",
      "lat": 0.8333333,
      "lng": 33.4666667
    },
    {
      "cityName": "Buvulunguti",
      "lat": 1.1666667,
      "lng": 33.4333333
    },
    {
      "cityName": "Buwaiswa",
      "lat": 0.9166667,
      "lng": 33.1333333
    },
    {
      "cityName": "Buwalira",
      "lat": 1,
      "lng": 33.6166667
    },
    {
      "cityName": "Buyende",
      "lat": 1.1516667,
      "lng": 33.155
    },
    {
      "cityName": "Buyonjo",
      "lat": 1.0533333,
      "lng": 33.4705556
    },
    {
      "cityName": "Buyuge",
      "lat": 1.1166667,
      "lng": 33.4833333
    },
    {
      "cityName": "Buyumba",
      "lat": 1.2833333,
      "lng": 33.3166667
    },
    {
      "cityName": "Buyunga",
      "lat": 0.8833333,
      "lng": 33.5333333
    },
    {
      "cityName": "Buyunze",
      "lat": 0.8166667,
      "lng": 33.3
    },
    {
      "cityName": "Bwite",
      "lat": 0.9666667,
      "lng": 33.4333333
    },
    {
      "cityName": "Byero",
      "lat": 1.2,
      "lng": 33.25
    },
    {
      "cityName": "Gadumire",
      "lat": 0.9166667,
      "lng": 33.6333333
    },
    {
      "cityName": "Idome",
      "lat": 1.0333333,
      "lng": 33.3333333
    },
    {
      "cityName": "Iganga",
      "lat": 0.7166667,
      "lng": 33.2333333
    },
    {
      "cityName": "Igola",
      "lat": 1.1833333,
      "lng": 33.2333333
    },
    {
      "cityName": "Ikumbya",
      "lat": 0.9747222,
      "lng": 33.3169444
    },
    {
      "cityName": "Iremerya",
      "lat": 1.2666667,
      "lng": 33.1333333
    },
    {
      "cityName": "Iringa",
      "lat": 1.2666667,
      "lng": 32.9833333
    },
    {
      "cityName": "Irundu",
      "lat": 1.2166667,
      "lng": 33.3666667
    },
    {
      "cityName": "Itamya",
      "lat": 1.3666667,
      "lng": 33.0166667
    },
    {
      "cityName": "Kabalongo",
      "lat": 1.4,
      "lng": 32.9333333
    },
    {
      "cityName": "Kabiga",
      "lat": 1.2166667,
      "lng": 33.4333333
    },
    {
      "cityName": "Kabukye",
      "lat": 1.2,
      "lng": 33.3166667
    },
    {
      "cityName": "Kagulu",
      "lat": 1.2327778,
      "lng": 33.305
    },
    {
      "cityName": "Kagumba",
      "lat": 1.1,
      "lng": 33.05
    },
    {
      "cityName": "Kakano",
      "lat": 1.0166667,
      "lng": 32.9833333
    },
    {
      "cityName": "Kakindu",
      "lat": 0.9127778,
      "lng": 33.0247222
    },
    {
      "cityName": "Kakoge",
      "lat": 0.9333333,
      "lng": 32.9666667
    },
    {
      "cityName": "Kakogwe",
      "lat": 0.8666667,
      "lng": 33.55
    },
    {
      "cityName": "Kaliro",
      "lat": 0.8944444,
      "lng": 33.4994444
    },
    {
      "cityName": "Kamugoya",
      "lat": 1.25,
      "lng": 33.2833333
    },
    {
      "cityName": "Kamuli",
      "lat": 0.9472222,
      "lng": 33.1197222
    },
    {
      "cityName": "Kanabugo",
      "lat": 1.1,
      "lng": 33.5166667
    },
    {
      "cityName": "Kanankamba",
      "lat": 0.95,
      "lng": 33.45
    },
    {
      "cityName": "Kasaikye",
      "lat": 1.0333333,
      "lng": 32.9833333
    },
    {
      "cityName": "Kasambika",
      "lat": 0.85,
      "lng": 33.4666667
    },
    {
      "cityName": "Kasambira",
      "lat": 0.8,
      "lng": 33.15
    },
    {
      "cityName": "Kasira",
      "lat": 1.3666667,
      "lng": 32.95
    },
    {
      "cityName": "Kasodo",
      "lat": 0.8833333,
      "lng": 33.65
    },
    {
      "cityName": "Kasokwe",
      "lat": 0.9333333,
      "lng": 33.5166667
    },
    {
      "cityName": "Kasolwe",
      "lat": 1.15,
      "lng": 33.0833333
    },
    {
      "cityName": "Kasozi",
      "lat": 0.8,
      "lng": 33.35
    },
    {
      "cityName": "Kasuleta",
      "lat": 1.0333333,
      "lng": 33.5166667
    },
    {
      "cityName": "Katini",
      "lat": 0.7333333,
      "lng": 33.0333333
    },
    {
      "cityName": "Kaule",
      "lat": 0.7,
      "lng": 33.1166667
    },
    {
      "cityName": "Kavule",
      "lat": 0.85,
      "lng": 33.55
    },
    {
      "cityName": "Kawanga",
      "lat": 1.0333333,
      "lng": 33.3833333
    },
    {
      "cityName": "Kiana",
      "lat": 0.9694444,
      "lng": 33.5108333
    },
    {
      "cityName": "Kibale",
      "lat": 0.8588889,
      "lng": 33.6052778
    },
    {
      "cityName": "Kibeto",
      "lat": 0.7333333,
      "lng": 33.1833333
    },
    {
      "cityName": "Kibinga",
      "lat": 0.7333333,
      "lng": 33.2666667
    },
    {
      "cityName": "Kibuye",
      "lat": 1.1833333,
      "lng": 32.9833333
    },
    {
      "cityName": "Kibwiza",
      "lat": 1.15,
      "lng": 33.5666667
    },
    {
      "cityName": "Kidukulu",
      "lat": 0.9666667,
      "lng": 32.9
    },
    {
      "cityName": "Kiganda",
      "lat": 1.0666667,
      "lng": 33.5833333
    },
    {
      "cityName": "Kige",
      "lat": 1.1833333,
      "lng": 33.0166667
    },
    {
      "cityName": "Kigunda",
      "lat": 1,
      "lng": 33.6333333
    },
    {
      "cityName": "Kigweri",
      "lat": 1.125,
      "lng": 33.1638889
    },
    {
      "cityName": "Kikoge",
      "lat": 1.0166667,
      "lng": 33.5333333
    },
    {
      "cityName": "Kikubi",
      "lat": 1.1333333,
      "lng": 33.1
    },
    {
      "cityName": "Kimbaya",
      "lat": 1.0833333,
      "lng": 33.3333333
    },
    {
      "cityName": "Kinaitakali",
      "lat": 1.1333333,
      "lng": 33.2
    },
    {
      "cityName": "Kinambogo",
      "lat": 1.2,
      "lng": 33.1
    },
    {
      "cityName": "Kinu",
      "lat": 0.95,
      "lng": 33.2833333
    },
    {
      "cityName": "Kirimwa",
      "lat": 0.8833333,
      "lng": 33.3
    },
    {
      "cityName": "Kirongo",
      "lat": 0.9666667,
      "lng": 33.6666667
    },
    {
      "cityName": "Kiroro",
      "lat": 0.7333333,
      "lng": 33.15
    },
    {
      "cityName": "Kisega",
      "lat": 1.0333333,
      "lng": 33.6333333
    },
    {
      "cityName": "Kisiki",
      "lat": 1.05,
      "lng": 33.4666667
    },
    {
      "cityName": "Kisinda",
      "lat": 1.1666667,
      "lng": 33.5333333
    },
    {
      "cityName": "Kitayunjwa",
      "lat": 0.8986111,
      "lng": 33.1533333
    },
    {
      "cityName": "Kivule",
      "lat": 0.85,
      "lng": 33.65
    },
    {
      "cityName": "Kiwalazi",
      "lat": 0.75,
      "lng": 33.2833333
    },
    {
      "cityName": "Kiyunga",
      "lat": 0.7613889,
      "lng": 33.3236111
    },
    {
      "cityName": "Kyamatende",
      "lat": 1.1166667,
      "lng": 32.9833333
    },
    {
      "cityName": "Kyanfuba",
      "lat": 1.0666667,
      "lng": 33.45
    },
    {
      "cityName": "Lukotaime",
      "lat": 1.1333333,
      "lng": 33.35
    },
    {
      "cityName": "Lusenke",
      "lat": 0.9,
      "lng": 32.9833333
    },
    {
      "cityName": "Luzinga",
      "lat": 0.6861111,
      "lng": 33.2094444
    },
    {
      "cityName": "Lwamba",
      "lat": 1.15,
      "lng": 33.4
    },
    {
      "cityName": "Madibira",
      "lat": 1.0333333,
      "lng": 33.55
    },
    {
      "cityName": "Malima",
      "lat": 1.3216667,
      "lng": 33.0616667
    },
    {
      "cityName": "Malugulya",
      "lat": 0.95,
      "lng": 32.9666667
    },
    {
      "cityName": "Mango",
      "lat": 1.2,
      "lng": 33.2166667
    },
    {
      "cityName": "Mbulamuti",
      "lat": 0.8416667,
      "lng": 33.0486111
    },
    {
      "cityName": "Meri",
      "lat": 1.2833333,
      "lng": 33.0166667
    },
    {
      "cityName": "Mpulira",
      "lat": 0.8536111,
      "lng": 33.5988889
    },
    {
      "cityName": "Museru",
      "lat": 1.3666667,
      "lng": 32.9833333
    },
    {
      "cityName": "Nababirye",
      "lat": 0.75,
      "lng": 33.05
    },
    {
      "cityName": "Nabinyonyi",
      "lat": 0.9166667,
      "lng": 33.65
    },
    {
      "cityName": "Nabirumba",
      "lat": 1.0333333,
      "lng": 33.1833333
    },
    {
      "cityName": "Nabitama",
      "lat": 0.7833333,
      "lng": 33.3666667
    },
    {
      "cityName": "Nabitende",
      "lat": 0.8588889,
      "lng": 33.4952778
    },
    {
      "cityName": "Nabitula",
      "lat": 0.9272222,
      "lng": 33.6097222
    },
    {
      "cityName": "Nabiwigulu",
      "lat": 0.9758333,
      "lng": 33.1238889
    },
    {
      "cityName": "Nabulezi",
      "lat": 1.0833333,
      "lng": 33.05
    },
    {
      "cityName": "Nabyoto",
      "lat": 0.9,
      "lng": 33.3666667
    },
    {
      "cityName": "Naibiri",
      "lat": 0.8166667,
      "lng": 33.5
    },
    {
      "cityName": "Naigobia",
      "lat": 0.8261111,
      "lng": 33.3563889
    },
    {
      "cityName": "Naigot",
      "lat": 0.8294444,
      "lng": 33.3747222
    },
    {
      "cityName": "Naisamula",
      "lat": 0.9833333,
      "lng": 33.65
    },
    {
      "cityName": "Nakabale",
      "lat": 0.7666667,
      "lng": 33.2833333
    },
    {
      "cityName": "Nakabira",
      "lat": 1.15,
      "lng": 33.0666667
    },
    {
      "cityName": "Nakabugu",
      "lat": 0.7413889,
      "lng": 33.0833333
    },
    {
      "cityName": "Nakatoke",
      "lat": 0.7166667,
      "lng": 33.0333333
    },
    {
      "cityName": "Nakibengo",
      "lat": 1.3333333,
      "lng": 33.0333333
    },
    {
      "cityName": "Nakibungulia",
      "lat": 0.8338889,
      "lng": 33.1922222
    },
    {
      "cityName": "Nakiswiga",
      "lat": 0.7166667,
      "lng": 33.3
    },
    {
      "cityName": "Nakyangwa",
      "lat": 0.85,
      "lng": 33.3166667
    },
    {
      "cityName": "Namaganda",
      "lat": 0.8833333,
      "lng": 33.2169444
    },
    {
      "cityName": "Namakoko",
      "lat": 1.0166667,
      "lng": 33.65
    },
    {
      "cityName": "Namalemba",
      "lat": 0.9166667,
      "lng": 33.6666667
    },
    {
      "cityName": "Namansenda",
      "lat": 0.8666667,
      "lng": 33.3
    },
    {
      "cityName": "Namasagali",
      "lat": 1.0166667,
      "lng": 32.95
    },
    {
      "cityName": "Namawa",
      "lat": 1.1333333,
      "lng": 33.3833333
    },
    {
      "cityName": "Nambula",
      "lat": 1.2,
      "lng": 33.1666667
    },
    {
      "cityName": "Naminage",
      "lat": 0.8372222,
      "lng": 33.1336111
    },
    {
      "cityName": "Namisu",
      "lat": 1.0138889,
      "lng": 32.95
    },
    {
      "cityName": "Namukunyu",
      "lat": 1.0833333,
      "lng": 33.1833333
    },
    {
      "cityName": "Namulekya",
      "lat": 0.75,
      "lng": 33.1166667
    },
    {
      "cityName": "Namulungu",
      "lat": 1.1166667,
      "lng": 33.55
    },
    {
      "cityName": "Namunyagwe",
      "lat": 0.7166667,
      "lng": 33.1166667
    },
    {
      "cityName": "Namunyingi",
      "lat": 1,
      "lng": 33.0833333
    },
    {
      "cityName": "Namusita",
      "lat": 1.1,
      "lng": 33.1166667
    },
    {
      "cityName": "Namutya",
      "lat": 0.8666667,
      "lng": 33
    },
    {
      "cityName": "Namwendwa",
      "lat": 0.9172222,
      "lng": 33.2636111
    },
    {
      "cityName": "Namwiwa",
      "lat": 1.0811111,
      "lng": 33.5455556
    },
    {
      "cityName": "Nangala",
      "lat": 1.2166667,
      "lng": 33.4166667
    },
    {
      "cityName": "Nankandulo",
      "lat": 0.6894444,
      "lng": 33.0705556
    },
    {
      "cityName": "Nansololo",
      "lat": 1.05,
      "lng": 33.4
    },
    {
      "cityName": "Nantamali",
      "lat": 1,
      "lng": 33.3833333
    },
    {
      "cityName": "Natwana",
      "lat": 0.8861111,
      "lng": 33.4886111
    },
    {
      "cityName": "Nawaikoke",
      "lat": 1.0861111,
      "lng": 33.4027778
    },
    {
      "cityName": "Nawaka",
      "lat": 0.9938889,
      "lng": 33.3947222
    },
    {
      "cityName": "Nawampiti",
      "lat": 1.2,
      "lng": 33.4333333
    },
    {
      "cityName": "Nawanago",
      "lat": 0.7380556,
      "lng": 33.1502778
    },
    {
      "cityName": "Nawandala",
      "lat": 0.83,
      "lng": 33.3919444
    },
    {
      "cityName": "Nawandyo",
      "lat": 0.7666667,
      "lng": 33.2
    },
    {
      "cityName": "Nawangaiza",
      "lat": 1.0166667,
      "lng": 33.1
    },
    {
      "cityName": "Nawangoma",
      "lat": 0.7588889,
      "lng": 33.2213889
    },
    {
      "cityName": "Nawango",
      "lat": 0.7794444,
      "lng": 33.1505556
    },
    {
      "cityName": "Nawansega",
      "lat": 0.9166667,
      "lng": 33.3166667
    },
    {
      "cityName": "Nawantale",
      "lat": 1.0516667,
      "lng": 33.0905556
    },
    {
      "cityName": "Nawantumbi",
      "lat": 0.7666667,
      "lng": 33.1333333
    },
    {
      "cityName": "Ndalike",
      "lat": 0.9833333,
      "lng": 33.2666667
    },
    {
      "cityName": "Ndolwa",
      "lat": 1.1961111,
      "lng": 33.0794444
    },
    {
      "cityName": "Ndulya",
      "lat": 1.25,
      "lng": 33.0666667
    },
    {
      "cityName": "Nganjo",
      "lat": 1,
      "lng": 33.2333333
    },
    {
      "cityName": "Ngole",
      "lat": 1.2166667,
      "lng": 33.2833333
    },
    {
      "cityName": "Njwejwe",
      "lat": 1.3,
      "lng": 33.0833333
    },
    {
      "cityName": "Nkondo",
      "lat": 1.3166667,
      "lng": 33.1
    },
    {
      "cityName": "Nsamule",
      "lat": 1.0666667,
      "lng": 33.3833333
    },
    {
      "cityName": "Nsomba",
      "lat": 1.2,
      "lng": 33.2666667
    },
    {
      "cityName": "Saka",
      "lat": 1.1166667,
      "lng": 33.5833333
    },
    {
      "cityName": "Vukula",
      "lat": 0.9433333,
      "lng": 33.6225
    },
    {
      "cityName": "Waigalo",
      "lat": 0.95,
      "lng": 33.5166667
    },
    {
      "cityName": "Wampologoma",
      "lat": 0.8,
      "lng": 33.0166667
    },
    {
      "cityName": "Wesunire",
      "lat": 1.2333333,
      "lng": 33.1666667
    },
    {
      "cityName": "Wunga",
      "lat": 0.9833333,
      "lng": 32.9166667
    }
  ]
}