{
  "name": "Mbale",
  "cities": [
    {
      "cityName": "Apokori",
      "lat": 0.7916667,
      "lng": 34.1591667
    },
    {
      "cityName": "Asinge",
      "lat": 0.7333333,
      "lng": 34.25
    },
    {
      "cityName": "Atiri",
      "lat": 0.7666667,
      "lng": 34.1833333
    },
    {
      "cityName": "Aukot",
      "lat": 0.7833333,
      "lng": 34.1833333
    },
    {
      "cityName": "Baduda",
      "lat": 0.9966667,
      "lng": 34.3308333
    },
    {
      "cityName": "Bomwega",
      "lat": 0.8666667,
      "lng": 34.4333333
    },
    {
      "cityName": "Bubulo",
      "lat": 0.9416667,
      "lng": 34.2794444
    },
    {
      "cityName": "Bubutu",
      "lat": 0.8163889,
      "lng": 34.3247222
    },
    {
      "cityName": "Bugema",
      "lat": 1.0333333,
      "lng": 34.1666667
    },
    {
      "cityName": "Bugobero",
      "lat": 0.8602778,
      "lng": 34.2555556
    },
    {
      "cityName": "Bukalasi",
      "lat": 1.0052778,
      "lng": 34.4011111
    },
    {
      "cityName": "Bukhabusi",
      "lat": 0.95,
      "lng": 34.3333333
    },
    {
      "cityName": "Bukhaweka",
      "lat": 0.9188889,
      "lng": 34.33
    },
    {
      "cityName": "Bukiga",
      "lat": 1.05,
      "lng": 34.3333333
    },
    {
      "cityName": "Bukigai",
      "lat": 1.0030556,
      "lng": 34.3488889
    },
    {
      "cityName": "Bulako",
      "lat": 0.8666667,
      "lng": 34.2166667
    },
    {
      "cityName": "Bulucheke",
      "lat": 1.0333333,
      "lng": 34.3833333
    },
    {
      "cityName": "Bumageni",
      "lat": 1.0166667,
      "lng": 34.1833333
    },
    {
      "cityName": "Bumbo",
      "lat": 0.8611111,
      "lng": 34.3980556
    },
    {
      "cityName": "Bunakomola",
      "lat": 0.9833333,
      "lng": 34.3166667
    },
    {
      "cityName": "Bunambale",
      "lat": 0.9569444,
      "lng": 34.3697222
    },
    {
      "cityName": "Bunkoko",
      "lat": 1.0666667,
      "lng": 34.2
    },
    {
      "cityName": "Bupota",
      "lat": 0.9,
      "lng": 34.35
    },
    {
      "cityName": "Busumbu",
      "lat": 0.8366667,
      "lng": 34.2797222
    },
    {
      "cityName": "Butiru",
      "lat": 0.8163889,
      "lng": 34.2925
    },
    {
      "cityName": "Buwabwala",
      "lat": 0.9063889,
      "lng": 34.3619444
    },
    {
      "cityName": "Buwasyu",
      "lat": 0.9166667,
      "lng": 34.35
    },
    {
      "cityName": "Kabole",
      "lat": 0.8833333,
      "lng": 34.4166667
    },
    {
      "cityName": "Khabutale",
      "lat": 0.9,
      "lng": 34.2666667
    },
    {
      "cityName": "Kigunga",
      "lat": 0.9666667,
      "lng": 34.35
    },
    {
      "cityName": "Kochoge",
      "lat": 0.7833333,
      "lng": 34.2
    },
    {
      "cityName": "Kwapa",
      "lat": 0.7552778,
      "lng": 34.2447222
    },
    {
      "cityName": "Lukhonge",
      "lat": 0.9333333,
      "lng": 34.2166667
    },
    {
      "cityName": "Lwaboba",
      "lat": 0.8666667,
      "lng": 34.1666667
    },
    {
      "cityName": "Lwakaka",
      "lat": 0.7911111,
      "lng": 34.3794444
    },
    {
      "cityName": "Magala",
      "lat": 0.8725,
      "lng": 34.3672222
    },
    {
      "cityName": "Mahala",
      "lat": 0.85,
      "lng": 34.3333333
    },
    {
      "cityName": "Maliri",
      "lat": 0.8166667,
      "lng": 34.15
    },
    {
      "cityName": "Matuwa",
      "lat": 0.9,
      "lng": 34.3666667
    },
    {
      "cityName": "Mbale",
      "lat": 1.0644444,
      "lng": 34.1794444
    },
    {
      "cityName": "Molo",
      "lat": 0.8327778,
      "lng": 34.1755556
    },
    {
      "cityName": "Mukuju",
      "lat": 0.7666667,
      "lng": 34.2
    },
    {
      "cityName": "Mulazi",
      "lat": 0.95,
      "lng": 34.2166667
    },
    {
      "cityName": "Nabumali",
      "lat": 0.9877778,
      "lng": 34.2091667
    },
    {
      "cityName": "Nakhupa",
      "lat": 0.8666667,
      "lng": 34.25
    },
    {
      "cityName": "Nalondo",
      "lat": 0.8947222,
      "lng": 34.2397222
    },
    {
      "cityName": "Namba",
      "lat": 0.8233333,
      "lng": 34.3580556
    },
    {
      "cityName": "Namboko",
      "lat": 0.7666667,
      "lng": 34.3
    },
    {
      "cityName": "Nambola",
      "lat": 0.9236111,
      "lng": 34.3569444
    },
    {
      "cityName": "Namunsi",
      "lat": 1.1166667,
      "lng": 34.1833333
    },
    {
      "cityName": "Nangya",
      "lat": 0.9333333,
      "lng": 34.2833333
    },
    {
      "cityName": "Nemba",
      "lat": 0.8,
      "lng": 34.3333333
    },
    {
      "cityName": "Nkoma",
      "lat": 1.1,
      "lng": 34.2
    },
    {
      "cityName": "Nyondo",
      "lat": 0.9836111,
      "lng": 34.2255556
    },
    {
      "cityName": "Sinya",
      "lat": 0.8333333,
      "lng": 34.2333333
    },
    {
      "cityName": "Situi",
      "lat": 0.8833333,
      "lng": 34.3333333
    },
    {
      "cityName": "Toma",
      "lat": 0.9286111,
      "lng": 34.2663889
    },
    {
      "cityName": "Tuba",
      "lat": 0.8033333,
      "lng": 34.1716667
    }
  ]
}