{
  "name": "Pampanga",
  "cities": [
    {
      "cityName": "Acle",
      "lat": 15.125556,
      "lng": 120.643611
    },
    {
      "cityName": "Agdao",
      "lat": 15.916667,
      "lng": 120.45
    },
    {
      "cityName": "Alauli",
      "lat": 14.866667,
      "lng": 120.716667
    },
    {
      "cityName": "Anao",
      "lat": 15.140833,
      "lng": 120.694444
    },
    {
      "cityName": "Anon",
      "lat": 14.919444,
      "lng": 120.479167
    },
    {
      "cityName": "Apalit",
      "lat": 14.953333,
      "lng": 120.77
    },
    {
      "cityName": "Arayat",
      "lat": 15.150833,
      "lng": 120.773056
    },
    {
      "cityName": "Arenas",
      "lat": 15.174444,
      "lng": 120.683333
    },
    {
      "cityName": "Asuncion",
      "lat": 15.1,
      "lng": 120.816667
    },
    {
      "cityName": "Atlubola",
      "lat": 15.233333,
      "lng": 120.583333
    },
    {
      "cityName": "Babo-pañgulu",
      "lat": 15.083333,
      "lng": 120.516667
    },
    {
      "cityName": "Bacolor",
      "lat": 15.001389,
      "lng": 120.653889
    },
    {
      "cityName": "Bagang",
      "lat": 14.883333,
      "lng": 120.7
    },
    {
      "cityName": "Bahay Pare",
      "lat": 15.032222,
      "lng": 120.883333
    },
    {
      "cityName": "Balas",
      "lat": 15.032778,
      "lng": 120.605833
    },
    {
      "cityName": "Balibago",
      "lat": 15.233333,
      "lng": 120.683333
    },
    {
      "cityName": "Balite",
      "lat": 15.108611,
      "lng": 120.622222
    },
    {
      "cityName": "Balitucan",
      "lat": 15.266667,
      "lng": 120.716667
    },
    {
      "cityName": "Balubad",
      "lat": 15.033333,
      "lng": 120.533333
    },
    {
      "cityName": "Balucog",
      "lat": 14.963611,
      "lng": 120.837778
    },
    {
      "cityName": "Bambang",
      "lat": 15.083333,
      "lng": 120.816667
    },
    {
      "cityName": "Banaba",
      "lat": 15.116667,
      "lng": 120.5
    },
    {
      "cityName": "Bancal",
      "lat": 14.952222,
      "lng": 120.634444
    },
    {
      "cityName": "Bancal-Pugad",
      "lat": 14.857222,
      "lng": 120.594722
    },
    {
      "cityName": "Bancal-Sinubli",
      "lat": 14.883333,
      "lng": 120.583333
    },
    {
      "cityName": "Baño",
      "lat": 15.172778,
      "lng": 120.768611
    },
    {
      "cityName": "Baruya",
      "lat": 14.866944,
      "lng": 120.538056
    },
    {
      "cityName": "Batang 1st",
      "lat": 14.827222,
      "lng": 120.621389
    },
    {
      "cityName": "Batang 2nd",
      "lat": 14.817778,
      "lng": 120.6175
    },
    {
      "cityName": "Batasan",
      "lat": 14.9,
      "lng": 120.716667
    },
    {
      "cityName": "Batasang",
      "lat": 14.8,
      "lng": 120.55
    },
    {
      "cityName": "Bebe",
      "lat": 14.866667,
      "lng": 120.7
    },
    {
      "cityName": "Becuran",
      "lat": 15,
      "lng": 120.583333
    },
    {
      "cityName": "Betis",
      "lat": 14.983333,
      "lng": 120.633333
    },
    {
      "cityName": "Bical",
      "lat": 15.196389,
      "lng": 120.622778
    },
    {
      "cityName": "Binupsuc",
      "lat": 14.825833,
      "lng": 120.585556
    },
    {
      "cityName": "Biria",
      "lat": 15.25,
      "lng": 120.583333
    },
    {
      "cityName": "Bisal",
      "lat": 15.052778,
      "lng": 120.923056
    },
    {
      "cityName": "Booloosong",
      "lat": 15.016667,
      "lng": 120.7
    },
    {
      "cityName": "Buenavista",
      "lat": 15.166667,
      "lng": 120.666667
    },
    {
      "cityName": "Buensuceso",
      "lat": 15.196667,
      "lng": 120.672778
    },
    {
      "cityName": "Bulacas",
      "lat": 14.835556,
      "lng": 120.678889
    },
    {
      "cityName": "Bulac",
      "lat": 15.1,
      "lng": 120.55
    },
    {
      "cityName": "Bulaon",
      "lat": 15.088333,
      "lng": 120.667222
    },
    {
      "cityName": "Bundagul",
      "lat": 15.228889,
      "lng": 120.604722
    },
    {
      "cityName": "Cabalantian",
      "lat": 15,
      "lng": 120.666667
    },
    {
      "cityName": "Cabambañgan",
      "lat": 15,
      "lng": 120.65
    },
    {
      "cityName": "Cabancalan",
      "lat": 14.983333,
      "lng": 120.533333
    },
    {
      "cityName": "Cacutud",
      "lat": 15.15,
      "lng": 120.766667
    },
    {
      "cityName": "Caiñgin",
      "lat": 14.864444,
      "lng": 120.699167
    },
    {
      "cityName": "Calañgain",
      "lat": 14.899444,
      "lng": 120.546111
    },
    {
      "cityName": "Calantas",
      "lat": 15.016667,
      "lng": 120.516667
    },
    {
      "cityName": "Calauitan",
      "lat": 15.083333,
      "lng": 120.916667
    },
    {
      "cityName": "Calawitan Pancalara",
      "lat": 15.1,
      "lng": 120.916667
    },
    {
      "cityName": "Calibutbut",
      "lat": 15.1,
      "lng": 120.616667
    },
    {
      "cityName": "Calsada Bayu",
      "lat": 15.089444,
      "lng": 120.596111
    },
    {
      "cityName": "Calulut",
      "lat": 15.095556,
      "lng": 120.648611
    },
    {
      "cityName": "Calzadangbayu",
      "lat": 15.100278,
      "lng": 120.584444
    },
    {
      "cityName": "Cambasi",
      "lat": 14.866667,
      "lng": 120.683333
    },
    {
      "cityName": "Camias",
      "lat": 15.191111,
      "lng": 120.651389
    },
    {
      "cityName": "Camp Sanchez",
      "lat": 15.116667,
      "lng": 120.366667
    },
    {
      "cityName": "Camp Stolsenburg",
      "lat": 15.183333,
      "lng": 120.516667
    },
    {
      "cityName": "Camuning",
      "lat": 15.066667,
      "lng": 120.716667
    },
    {
      "cityName": "Canachile",
      "lat": 15.196944,
      "lng": 120.593333
    },
    {
      "cityName": "Candaba",
      "lat": 15.093333,
      "lng": 120.828333
    },
    {
      "cityName": "Candating",
      "lat": 15.150833,
      "lng": 120.8125
    },
    {
      "cityName": "Cañgatba",
      "lat": 15.066667,
      "lng": 120.533333
    },
    {
      "cityName": "Canotas",
      "lat": 15.266667,
      "lng": 120.683333
    },
    {
      "cityName": "Cansinala",
      "lat": 14.968611,
      "lng": 120.7825
    },
    {
      "cityName": "Capalangan",
      "lat": 14.915833,
      "lng": 120.755
    },
    {
      "cityName": "Carmen",
      "lat": 15.016667,
      "lng": 120.533333
    },
    {
      "cityName": "Castuli",
      "lat": 14.933333,
      "lng": 120.683333
    },
    {
      "cityName": "Cauayanbugtung",
      "lat": 15.2,
      "lng": 120.916667
    },
    {
      "cityName": "Cauayan",
      "lat": 15.15,
      "lng": 120.666667
    },
    {
      "cityName": "Clark",
      "lat": 15.214167,
      "lng": 120.581389
    },
    {
      "cityName": "Concepcion",
      "lat": 14.945833,
      "lng": 120.583889
    },
    {
      "cityName": "Consuelo",
      "lat": 14.9,
      "lng": 120.666667
    },
    {
      "cityName": "Cotod",
      "lat": 15.0575,
      "lng": 120.6
    },
    {
      "cityName": "Cruz",
      "lat": 15.029167,
      "lng": 120.935278
    },
    {
      "cityName": "Culayo",
      "lat": 15.183333,
      "lng": 120.566667
    },
    {
      "cityName": "Culitang",
      "lat": 14.933333,
      "lng": 120.6
    },
    {
      "cityName": "Culubasa",
      "lat": 15.144167,
      "lng": 120.652222
    },
    {
      "cityName": "Culut Mabuanbuan",
      "lat": 14.833333,
      "lng": 120.6
    },
    {
      "cityName": "Cutcut",
      "lat": 15.134444,
      "lng": 120.578333
    },
    {
      "cityName": "Dalayap",
      "lat": 14.916667,
      "lng": 120.633333
    },
    {
      "cityName": "Dalisdis",
      "lat": 15.116667,
      "lng": 120.666667
    },
    {
      "cityName": "Dampe",
      "lat": 14.943333,
      "lng": 120.476944
    },
    {
      "cityName": "Dao",
      "lat": 15.176389,
      "lng": 120.586111
    },
    {
      "cityName": "Dapdap",
      "lat": 15.216667,
      "lng": 120.616667
    },
    {
      "cityName": "Darabulbul",
      "lat": 15.133333,
      "lng": 120.716667
    },
    {
      "cityName": "De la Paz",
      "lat": 14.933333,
      "lng": 120.516667
    },
    {
      "cityName": "Dela Paz Norte",
      "lat": 15.088333,
      "lng": 120.6275
    },
    {
      "cityName": "Del Carmen",
      "lat": 14.933056,
      "lng": 120.561389
    },
    {
      "cityName": "Del Pilar",
      "lat": 15.033333,
      "lng": 120.7
    },
    {
      "cityName": "Del Rosario",
      "lat": 15.016667,
      "lng": 120.6
    },
    {
      "cityName": "Dila-Dila",
      "lat": 15.017778,
      "lng": 120.578611
    },
    {
      "cityName": "Divisoria",
      "lat": 15.083333,
      "lng": 120.683333
    },
    {
      "cityName": "Dolores",
      "lat": 15.095278,
      "lng": 120.528889
    },
    {
      "cityName": "Duquit",
      "lat": 15.178611,
      "lng": 120.598611
    },
    {
      "cityName": "Ebus",
      "lat": 15.016667,
      "lng": 120.566667
    },
    {
      "cityName": "Floridablanca",
      "lat": 14.976667,
      "lng": 120.5275
    },
    {
      "cityName": "Fortuna",
      "lat": 14.983333,
      "lng": 120.516667
    },
    {
      "cityName": "Galalang",
      "lat": 15.116667,
      "lng": 120.95
    },
    {
      "cityName": "Galzadang",
      "lat": 15.1,
      "lng": 120.583333
    },
    {
      "cityName": "Gandus",
      "lat": 15.125278,
      "lng": 120.624722
    },
    {
      "cityName": "Gatiauin",
      "lat": 15.151944,
      "lng": 120.743056
    },
    {
      "cityName": "Guagua",
      "lat": 14.968611,
      "lng": 120.635556
    },
    {
      "cityName": "Gulad",
      "lat": 14.937222,
      "lng": 120.480278
    },
    {
      "cityName": "Gulap",
      "lat": 15.116667,
      "lng": 120.816667
    },
    {
      "cityName": "Gumi",
      "lat": 14.889167,
      "lng": 120.588333
    },
    {
      "cityName": "Gutad",
      "lat": 14.933333,
      "lng": 120.5
    },
    {
      "cityName": "Himacay",
      "lat": 15.020278,
      "lng": 120.887222
    },
    {
      "cityName": "Iba",
      "lat": 15.25,
      "lng": 120.566667
    },
    {
      "cityName": "Jalung",
      "lat": 15.065,
      "lng": 120.534444
    },
    {
      "cityName": "Lacmit",
      "lat": 14.95,
      "lng": 120.716667
    },
    {
      "cityName": "Lagundi",
      "lat": 15.05,
      "lng": 120.7
    },
    {
      "cityName": "Lambac",
      "lat": 14.983056,
      "lng": 120.580833
    },
    {
      "cityName": "Lana",
      "lat": 15.1,
      "lng": 120.6
    },
    {
      "cityName": "Laput",
      "lat": 15.091111,
      "lng": 120.713611
    },
    {
      "cityName": "Lara",
      "lat": 15.094444,
      "lng": 120.611944
    },
    {
      "cityName": "Laug",
      "lat": 15.05,
      "lng": 120.75
    },
    {
      "cityName": "Layug",
      "lat": 15,
      "lng": 120.533333
    },
    {
      "cityName": "Lourdes",
      "lat": 15.020278,
      "lng": 120.852778
    },
    {
      "cityName": "Lubao",
      "lat": 14.935278,
      "lng": 120.601111
    },
    {
      "cityName": "Lucsuan",
      "lat": 15.05,
      "lng": 120.516667
    },
    {
      "cityName": "Mabalacat",
      "lat": 15.223333,
      "lng": 120.579167
    },
    {
      "cityName": "Mabical",
      "lat": 15.083333,
      "lng": 120.566667
    },
    {
      "cityName": "Mabiga",
      "lat": 15.193333,
      "lng": 120.5875
    },
    {
      "cityName": "Mabuambuan",
      "lat": 14.833611,
      "lng": 120.606389
    },
    {
      "cityName": "Macabaclay",
      "lat": 15.133333,
      "lng": 120.8
    },
    {
      "cityName": "Macabebe",
      "lat": 14.898333,
      "lng": 120.716667
    },
    {
      "cityName": "Macapsa",
      "lat": 15.266667,
      "lng": 120.7
    },
    {
      "cityName": "Magalang",
      "lat": 15.215,
      "lng": 120.661944
    },
    {
      "cityName": "Magliman",
      "lat": 15.034444,
      "lng": 120.664722
    },
    {
      "cityName": "Magumbali",
      "lat": 15.133333,
      "lng": 120.9
    },
    {
      "cityName": "Maimpis",
      "lat": 15.066667,
      "lng": 120.666667
    },
    {
      "cityName": "Malabu",
      "lat": 14.9,
      "lng": 120.483333
    },
    {
      "cityName": "Malauli",
      "lat": 14.829167,
      "lng": 120.668333
    },
    {
      "cityName": "Malino",
      "lat": 15.126944,
      "lng": 120.673889
    },
    {
      "cityName": "Maliualu",
      "lat": 15.083333,
      "lng": 120.6
    },
    {
      "cityName": "Malpitic",
      "lat": 15.083333,
      "lng": 120.65
    },
    {
      "cityName": "Malusac",
      "lat": 14.85,
      "lng": 120.616667
    },
    {
      "cityName": "Mamanpen",
      "lat": 15.188611,
      "lng": 120.58
    },
    {
      "cityName": "Mamatitang",
      "lat": 15.233333,
      "lng": 120.566667
    },
    {
      "cityName": "Mancatian",
      "lat": 15.087778,
      "lng": 120.554167
    },
    {
      "cityName": "Mandile",
      "lat": 15.167222,
      "lng": 120.900278
    },
    {
      "cityName": "Manga",
      "lat": 15.1,
      "lng": 120.833333
    },
    {
      "cityName": "Manibang Paralaya",
      "lat": 15.11,
      "lng": 120.564722
    },
    {
      "cityName": "Manibaug Pasig",
      "lat": 15.099444,
      "lng": 120.56
    },
    {
      "cityName": "Mapiga",
      "lat": 15.206389,
      "lng": 120.585556
    },
    {
      "cityName": "Maquiapo",
      "lat": 14.983333,
      "lng": 120.55
    },
    {
      "cityName": "Marino",
      "lat": 15.133333,
      "lng": 120.616667
    },
    {
      "cityName": "Masantol",
      "lat": 14.893611,
      "lng": 120.713889
    },
    {
      "cityName": "Masera Malapit",
      "lat": 14.85,
      "lng": 120.516667
    },
    {
      "cityName": "Masera Malayo",
      "lat": 14.85,
      "lng": 120.533333
    },
    {
      "cityName": "Matulid",
      "lat": 15.05,
      "lng": 120.716667
    },
    {
      "cityName": "Mauli P'mable",
      "lat": 15.000833,
      "lng": 120.5575
    },
    {
      "cityName": "Mawaque",
      "lat": 15.216667,
      "lng": 120.6
    },
    {
      "cityName": "Mexico",
      "lat": 15.065556,
      "lng": 120.721667
    },
    {
      "cityName": "Minalin",
      "lat": 14.966389,
      "lng": 120.685
    },
    {
      "cityName": "Mitia Proper",
      "lat": 15.064444,
      "lng": 120.58
    },
    {
      "cityName": "Navaling",
      "lat": 15.266667,
      "lng": 120.65
    },
    {
      "cityName": "Old Santo Rosario",
      "lat": 15.45,
      "lng": 120.783333
    },
    {
      "cityName": "Pabanlag",
      "lat": 14.897778,
      "lng": 120.470833
    },
    {
      "cityName": "Palat",
      "lat": 15.043333,
      "lng": 120.538056
    },
    {
      "cityName": "Paligui",
      "lat": 15.083333,
      "lng": 120.9
    },
    {
      "cityName": "Palusapis",
      "lat": 15.139444,
      "lng": 120.529444
    },
    {
      "cityName": "Pamugsuc",
      "lat": 14.866667,
      "lng": 120.583333
    },
    {
      "cityName": "Pandacaqui",
      "lat": 15.183333,
      "lng": 120.65
    },
    {
      "cityName": "Pangasanan",
      "lat": 14.966667,
      "lng": 120.716667
    },
    {
      "cityName": "Pañgatlan",
      "lat": 15.116667,
      "lng": 120.683333
    },
    {
      "cityName": "Panipuan Malino",
      "lat": 15.116667,
      "lng": 120.65
    },
    {
      "cityName": "Panipuan Mexico",
      "lat": 15.110833,
      "lng": 120.664444
    },
    {
      "cityName": "Panipuan San Fernando",
      "lat": 15.116667,
      "lng": 120.633333
    },
    {
      "cityName": "Panlag",
      "lat": 14.965278,
      "lng": 120.468611
    },
    {
      "cityName": "Panlinlang",
      "lat": 15.166667,
      "lng": 120.7
    },
    {
      "cityName": "Pansinao",
      "lat": 15.133333,
      "lng": 120.816667
    },
    {
      "cityName": "Pasbul",
      "lat": 15.116667,
      "lng": 120.516667
    },
    {
      "cityName": "Pasig",
      "lat": 15.096389,
      "lng": 120.819722
    },
    {
      "cityName": "Pau",
      "lat": 15.033333,
      "lng": 120.716667
    },
    {
      "cityName": "Paytan",
      "lat": 15.15,
      "lng": 120.833333
    },
    {
      "cityName": "Pias",
      "lat": 15.019722,
      "lng": 120.561667
    },
    {
      "cityName": "Pinañganakan",
      "lat": 14.85,
      "lng": 120.566667
    },
    {
      "cityName": "Pio",
      "lat": 15.0475,
      "lng": 120.519722
    },
    {
      "cityName": "Planas",
      "lat": 15.036389,
      "lng": 120.513889
    },
    {
      "cityName": "Plaza Luma",
      "lat": 15.148333,
      "lng": 120.762778
    },
    {
      "cityName": "Polo",
      "lat": 15.016667,
      "lng": 120.733333
    },
    {
      "cityName": "Porac",
      "lat": 15.072222,
      "lng": 120.542222
    },
    {
      "cityName": "Potrero",
      "lat": 15.048611,
      "lng": 120.613333
    },
    {
      "cityName": "Prado",
      "lat": 14.883333,
      "lng": 120.516667
    },
    {
      "cityName": "Pulong Bayabas",
      "lat": 15.033333,
      "lng": 120.9
    },
    {
      "cityName": "Pulong Cacutud",
      "lat": 15.183333,
      "lng": 120.633333
    },
    {
      "cityName": "Pulong Santol",
      "lat": 15.044722,
      "lng": 120.561111
    },
    {
      "cityName": "Pulungbulu",
      "lat": 15.033333,
      "lng": 120.683333
    },
    {
      "cityName": "Pulung-Mababa",
      "lat": 15.133333,
      "lng": 120.55
    },
    {
      "cityName": "Pulungmaragul",
      "lat": 15.166667,
      "lng": 120.6
    },
    {
      "cityName": "Pulungmasle",
      "lat": 15.010556,
      "lng": 120.544167
    },
    {
      "cityName": "Quitangil",
      "lat": 15.216667,
      "lng": 120.583333
    },
    {
      "cityName": "Quitanpuil",
      "lat": 15.21,
      "lng": 120.583611
    },
    {
      "cityName": "Remedios",
      "lat": 14.916667,
      "lng": 120.583333
    },
    {
      "cityName": "Rizal",
      "lat": 14.983333,
      "lng": 120.583333
    },
    {
      "cityName": "Sabanilla",
      "lat": 15.066667,
      "lng": 120.7
    },
    {
      "cityName": "Salapuñgan",
      "lat": 15.134722,
      "lng": 120.928611
    },
    {
      "cityName": "Salbac",
      "lat": 15.183333,
      "lng": 120.666667
    },
    {
      "cityName": "San Agustin",
      "lat": 14.966667,
      "lng": 120.633333
    },
    {
      "cityName": "San Antonio",
      "lat": 15.151667,
      "lng": 120.689722
    },
    {
      "cityName": "San Augustin",
      "lat": 15.043056,
      "lng": 120.675
    },
    {
      "cityName": "San Bartolome",
      "lat": 14.983333,
      "lng": 120.7
    },
    {
      "cityName": "San Basilio",
      "lat": 15.032778,
      "lng": 120.583056
    },
    {
      "cityName": "San Carlos",
      "lat": 15.04,
      "lng": 120.764722
    },
    {
      "cityName": "San Esteban",
      "lat": 14.854444,
      "lng": 120.6475
    },
    {
      "cityName": "San Fernando",
      "lat": 15.030278,
      "lng": 120.685556
    },
    {
      "cityName": "San Francisco First",
      "lat": 14.966667,
      "lng": 120.666667
    },
    {
      "cityName": "San Francisco",
      "lat": 14.951667,
      "lng": 120.548056
    },
    {
      "cityName": "San Gabriel",
      "lat": 14.916667,
      "lng": 120.716667
    },
    {
      "cityName": "San Isidro de Bacolor",
      "lat": 15.035556,
      "lng": 120.648333
    },
    {
      "cityName": "San Isidro",
      "lat": 15.166667,
      "lng": 120.65
    },
    {
      "cityName": "San Joaquin",
      "lat": 15.094444,
      "lng": 120.767778
    },
    {
      "cityName": "San José Apunan",
      "lat": 14.966667,
      "lng": 120.566667
    },
    {
      "cityName": "San Jose",
      "lat": 15.033333,
      "lng": 120.783333
    },
    {
      "cityName": "San Juan Pambilog",
      "lat": 15.066667,
      "lng": 120.8
    },
    {
      "cityName": "San Luis",
      "lat": 15.04,
      "lng": 120.792222
    },
    {
      "cityName": "San Mateo",
      "lat": 15.202778,
      "lng": 120.795833
    },
    {
      "cityName": "San Matias",
      "lat": 14.95,
      "lng": 120.583333
    },
    {
      "cityName": "San Nicolas Primero",
      "lat": 14.933333,
      "lng": 120.616667
    },
    {
      "cityName": "San Nicolas",
      "lat": 14.95,
      "lng": 120.616667
    },
    {
      "cityName": "San Nicolas Segundo",
      "lat": 14.933333,
      "lng": 120.583333
    },
    {
      "cityName": "San Pablo Primero",
      "lat": 14.929444,
      "lng": 120.513611
    },
    {
      "cityName": "San Pablo",
      "lat": 14.966667,
      "lng": 120.616667
    },
    {
      "cityName": "San Pablo Segundo",
      "lat": 14.916667,
      "lng": 120.55
    },
    {
      "cityName": "San Patricio",
      "lat": 15.095556,
      "lng": 120.730278
    },
    {
      "cityName": "San Pedaro Primero",
      "lat": 14.945278,
      "lng": 120.506389
    },
    {
      "cityName": "San Pedro",
      "lat": 14.916667,
      "lng": 120.516667
    },
    {
      "cityName": "San Pedro Secundo",
      "lat": 14.915,
      "lng": 120.540556
    },
    {
      "cityName": "San Rafael",
      "lat": 14.9,
      "lng": 120.7
    },
    {
      "cityName": "San Roque Arbol",
      "lat": 14.902778,
      "lng": 120.528611
    },
    {
      "cityName": "San Roque Cutcut",
      "lat": 15.133333,
      "lng": 120.583333
    },
    {
      "cityName": "San Roque",
      "lat": 15.261944,
      "lng": 120.650556
    },
    {
      "cityName": "San Rosario",
      "lat": 15.244444,
      "lng": 120.636667
    },
    {
      "cityName": "San Sebastian",
      "lat": 15.05,
      "lng": 120.8
    },
    {
      "cityName": "San Simon",
      "lat": 14.993056,
      "lng": 120.776667
    },
    {
      "cityName": "Santa Catalina",
      "lat": 14.926111,
      "lng": 120.591111
    },
    {
      "cityName": "Santa Cruz Pambilog",
      "lat": 15.065833,
      "lng": 120.815
    },
    {
      "cityName": "Santa Cruz",
      "lat": 14.910278,
      "lng": 120.561944
    },
    {
      "cityName": "Santa Domingo",
      "lat": 15.074722,
      "lng": 120.760278
    },
    {
      "cityName": "Santa Ines",
      "lat": 14.995556,
      "lng": 120.653333
    },
    {
      "cityName": "Santa Lutgarda",
      "lat": 14.916667,
      "lng": 120.7
    },
    {
      "cityName": "Santa Maria",
      "lat": 15.078611,
      "lng": 120.7775
    },
    {
      "cityName": "Santa Monica",
      "lat": 14.946667,
      "lng": 120.598889
    },
    {
      "cityName": "Santa Monica Tacforsan",
      "lat": 14.983333,
      "lng": 120.75
    },
    {
      "cityName": "Santa Rita",
      "lat": 14.995278,
      "lng": 120.615278
    },
    {
      "cityName": "Santa Teresa Primera",
      "lat": 14.933333,
      "lng": 120.55
    },
    {
      "cityName": "Santa Teresa Secunda",
      "lat": 14.886111,
      "lng": 120.563333
    },
    {
      "cityName": "Santa Ursula",
      "lat": 14.966667,
      "lng": 120.65
    },
    {
      "cityName": "Santiago",
      "lat": 14.898889,
      "lng": 120.521111
    },
    {
      "cityName": "Santo Cristo",
      "lat": 14.95,
      "lng": 120.516667
    },
    {
      "cityName": "Santol",
      "lat": 15,
      "lng": 120.516667
    },
    {
      "cityName": "Santo Niño",
      "lat": 15.228056,
      "lng": 120.703056
    },
    {
      "cityName": "Santo Rosario Segundo",
      "lat": 15.033333,
      "lng": 120.733333
    },
    {
      "cityName": "Santo Tomas",
      "lat": 14.991111,
      "lng": 120.743056
    },
    {
      "cityName": "Sapalibutad",
      "lat": 15.166667,
      "lng": 120.633333
    },
    {
      "cityName": "Sapangbalen",
      "lat": 15.25,
      "lng": 120.6
    },
    {
      "cityName": "Sapangbiabas",
      "lat": 15.2,
      "lng": 120.6
    },
    {
      "cityName": "Sasmoan",
      "lat": 14.938611,
      "lng": 120.616111
    },
    {
      "cityName": "Sepung Bulaon",
      "lat": 15.050833,
      "lng": 120.554722
    },
    {
      "cityName": "Sindalan",
      "lat": 15.079722,
      "lng": 120.643333
    },
    {
      "cityName": "Siñura",
      "lat": 15.116667,
      "lng": 120.583333
    },
    {
      "cityName": "Sucad",
      "lat": 14.966111,
      "lng": 120.775556
    },
    {
      "cityName": "Suclaban",
      "lat": 15.133333,
      "lng": 120.65
    },
    {
      "cityName": "Tabagan",
      "lat": 14.75,
      "lng": 120.683333
    },
    {
      "cityName": "Tabuyuc",
      "lat": 14.966667,
      "lng": 120.766667
    },
    {
      "cityName": "Tacasan",
      "lat": 14.933333,
      "lng": 120.716667
    },
    {
      "cityName": "Tagulis",
      "lat": 15.208056,
      "lng": 120.917222
    },
    {
      "cityName": "Talaga",
      "lat": 15.116667,
      "lng": 120.483333
    },
    {
      "cityName": "Talang",
      "lat": 15.017222,
      "lng": 120.866667
    },
    {
      "cityName": "Talba",
      "lat": 14.983333,
      "lng": 120.666667
    },
    {
      "cityName": "Talimunduc",
      "lat": 15.216667,
      "lng": 120.683333
    },
    {
      "cityName": "Tanglay",
      "lat": 15.168056,
      "lng": 120.653056
    },
    {
      "cityName": "Telabastagan",
      "lat": 15.116667,
      "lng": 120.616667
    },
    {
      "cityName": "Telapayung",
      "lat": 15.183333,
      "lng": 120.683333
    },
    {
      "cityName": "Telaxan",
      "lat": 14.9,
      "lng": 120.65
    },
    {
      "cityName": "Teracan",
      "lat": 14.833333,
      "lng": 120.633333
    },
    {
      "cityName": "Tibo",
      "lat": 15.2,
      "lng": 120.516667
    },
    {
      "cityName": "Tibu",
      "lat": 15.1,
      "lng": 120.516667
    },
    {
      "cityName": "Tilapayong",
      "lat": 14.983333,
      "lng": 120.866667
    },
    {
      "cityName": "Tinabang",
      "lat": 15.25,
      "lng": 120.633333
    },
    {
      "cityName": "Tinajeros",
      "lat": 14.983611,
      "lng": 120.669722
    },
    {
      "cityName": "Vizal Santo Niño",
      "lat": 15.066667,
      "lng": 120.916667
    },
    {
      "cityName": "Zapote",
      "lat": 15.083333,
      "lng": 120.7
    }
  ]
}