{
  "name": "Unnamed region 06",
  "cities": [
    {
      "cityName": "Bicutan",
      "lat": 14.4996,
      "lng": 121.0507
    },
    {
      "cityName": "Calzada",
      "lat": 14.534167,
      "lng": 121.080556
    },
    {
      "cityName": "Hagonoy",
      "lat": 14.5122,
      "lng": 121.0788
    },
    {
      "cityName": "Ibayo",
      "lat": 14.5417,
      "lng": 121.0923
    },
    {
      "cityName": "Ligid-Tipas",
      "lat": 14.5422,
      "lng": 121.0825
    },
    {
      "cityName": "Maharlika Village",
      "lat": 14.5038,
      "lng": 121.0546
    },
    {
      "cityName": "Martires Del '96",
      "lat": 14.5385,
      "lng": 121.0707
    },
    {
      "cityName": "Paglingon",
      "lat": 14.5383,
      "lng": 121.0807
    },
    {
      "cityName": "Pateros",
      "lat": 14.5391,
      "lng": 121.0726
    },
    {
      "cityName": "Poblacion",
      "lat": 14.5432,
      "lng": 121.0691
    },
    {
      "cityName": "San Roque",
      "lat": 14.5414,
      "lng": 121.0697
    },
    {
      "cityName": "Santa Ana",
      "lat": 14.5226,
      "lng": 121.0824
    },
    {
      "cityName": "Santo Rosario Silangan",
      "lat": 14.5456,
      "lng": 121.0766
    },
    {
      "cityName": "Signal Village",
      "lat": 14.5068,
      "lng": 121.0532
    },
    {
      "cityName": "Tagig",
      "lat": 14.5243,
      "lng": 121.0792
    },
    {
      "cityName": "Tuktukan",
      "lat": 14.5321,
      "lng": 121.075
    },
    {
      "cityName": "Ususan",
      "lat": 14.5339,
      "lng": 121.0739
    },
    {
      "cityName": "Wawa",
      "lat": 14.5189,
      "lng": 121.0784
    },
    {
      "cityName": "Western Bicutan",
      "lat": 14.5097,
      "lng": 121.04
    }
  ]
}