{
  "name": "Davao Oriental",
  "cities": [
    {
      "cityName": "Anibongan",
      "lat": 7.198889,
      "lng": 126.4375
    },
    {
      "cityName": "Anitap",
      "lat": 6.641389,
      "lng": 126.075556
    },
    {
      "cityName": "Aragon",
      "lat": 7.787222,
      "lng": 126.391389
    },
    {
      "cityName": "Ascension",
      "lat": 6.483611,
      "lng": 126.103889
    },
    {
      "cityName": "Babiasan",
      "lat": 6.900833,
      "lng": 126.273889
    },
    {
      "cityName": "Baculin",
      "lat": 7.4525,
      "lng": 126.584167
    },
    {
      "cityName": "Baganga",
      "lat": 7.573889,
      "lng": 126.56
    },
    {
      "cityName": "Bajucan",
      "lat": 6.896776,
      "lng": 126.149821
    },
    {
      "cityName": "Banao",
      "lat": 7.730556,
      "lng": 126.54
    },
    {
      "cityName": "Banaybanay",
      "lat": 6.96233,
      "lng": 126.017172
    },
    {
      "cityName": "Baon",
      "lat": 6.798056,
      "lng": 126.086111
    },
    {
      "cityName": "Batiano",
      "lat": 7.553611,
      "lng": 126.489167
    },
    {
      "cityName": "Batobato",
      "lat": 6.824444,
      "lng": 126.082778
    },
    {
      "cityName": "Bayog",
      "lat": 7.148056,
      "lng": 126.491111
    },
    {
      "cityName": "Bitanagan",
      "lat": 6.939167,
      "lng": 126.301944
    },
    {
      "cityName": "Bitaogan",
      "lat": 6.770833,
      "lng": 126.077222
    },
    {
      "cityName": "Bobon",
      "lat": 6.870556,
      "lng": 126.329722
    },
    {
      "cityName": "Bosobosa",
      "lat": 6.332222,
      "lng": 126.1925
    },
    {
      "cityName": "Boston",
      "lat": 7.871111,
      "lng": 126.364167
    },
    {
      "cityName": "Buso",
      "lat": 7.007187,
      "lng": 126.235592
    },
    {
      "cityName": "Cabasagan",
      "lat": 7.843333,
      "lng": 126.371389
    },
    {
      "cityName": "Cabuaga",
      "lat": 6.52,
      "lng": 126.213889
    },
    {
      "cityName": "Camansi",
      "lat": 6.938507,
      "lng": 126.182975
    },
    {
      "cityName": "Cambaleon",
      "lat": 6.752222,
      "lng": 126.090833
    },
    {
      "cityName": "Campawan",
      "lat": 7.666667,
      "lng": 126.479167
    },
    {
      "cityName": "Candoos",
      "lat": 7.473611,
      "lng": 126.333056
    },
    {
      "cityName": "Caniñgag",
      "lat": 7.35,
      "lng": 126.383333
    },
    {
      "cityName": "Caraga",
      "lat": 7.329722,
      "lng": 126.5675
    },
    {
      "cityName": "Carmelo",
      "lat": 7.35,
      "lng": 126.4
    },
    {
      "cityName": "Carmen",
      "lat": 7.871389,
      "lng": 126.339444
    },
    {
      "cityName": "Cateel",
      "lat": 7.791389,
      "lng": 126.453333
    },
    {
      "cityName": "Central",
      "lat": 7.333333,
      "lng": 126.55
    },
    {
      "cityName": "Cocornon",
      "lat": 6.925498,
      "lng": 126.050325
    },
    {
      "cityName": "Concepcion",
      "lat": 7.246389,
      "lng": 126.5675
    },
    {
      "cityName": "Coronon",
      "lat": 7.022347,
      "lng": 126.090841
    },
    {
      "cityName": "Cuabo",
      "lat": 6.87795,
      "lng": 126.037378
    },
    {
      "cityName": "Dahikan",
      "lat": 6.929444,
      "lng": 126.278333
    },
    {
      "cityName": "Dandog",
      "lat": 7.120833,
      "lng": 126.449167
    },
    {
      "cityName": "Dapnan",
      "lat": 7.636389,
      "lng": 126.550556
    },
    {
      "cityName": "Dauan",
      "lat": 6.914867,
      "lng": 126.153226
    },
    {
      "cityName": "Govenor Generoso",
      "lat": 6.654722,
      "lng": 126.071944
    },
    {
      "cityName": "Guanguang",
      "lat": 6.946428,
      "lng": 126.231209
    },
    {
      "cityName": "Holy-Cross",
      "lat": 7.146111,
      "lng": 126.515556
    },
    {
      "cityName": "Ilangay",
      "lat": 6.912842,
      "lng": 126.050076
    },
    {
      "cityName": "Jerrico",
      "lat": 6.793333,
      "lng": 126.2275
    },
    {
      "cityName": "Jovellari",
      "lat": 7.064444,
      "lng": 126.456944
    },
    {
      "cityName": "Kadahanan",
      "lat": 7.51,
      "lng": 126.441111
    },
    {
      "cityName": "Kaganuhan",
      "lat": 6.421667,
      "lng": 126.151389
    },
    {
      "cityName": "Kalampuyangan",
      "lat": 7.071875,
      "lng": 126.187028
    },
    {
      "cityName": "Kamo",
      "lat": 7.755833,
      "lng": 126.341111
    },
    {
      "cityName": "Karingag",
      "lat": 7.3,
      "lng": 126.5
    },
    {
      "cityName": "Katagbakan",
      "lat": 7.4925,
      "lng": 126.302778
    },
    {
      "cityName": "Kinablañgan",
      "lat": 7.694722,
      "lng": 126.550278
    },
    {
      "cityName": "Lakud",
      "lat": 7.567222,
      "lng": 126.568889
    },
    {
      "cityName": "Lamiawan",
      "lat": 7.433333,
      "lng": 126.5
    },
    {
      "cityName": "Langca",
      "lat": 6.948251,
      "lng": 126.04006
    },
    {
      "cityName": "Languyan",
      "lat": 7.466389,
      "lng": 126.594444
    },
    {
      "cityName": "La Union",
      "lat": 6.704444,
      "lng": 126.088333
    },
    {
      "cityName": "Libuan",
      "lat": 7.356667,
      "lng": 126.498611
    },
    {
      "cityName": "Limot",
      "lat": 7.041667,
      "lng": 126.272778
    },
    {
      "cityName": "Luban",
      "lat": 6.436389,
      "lng": 126.22
    },
    {
      "cityName": "Lucatan",
      "lat": 7.009444,
      "lng": 126.423611
    },
    {
      "cityName": "Lumbong",
      "lat": 7.270278,
      "lng": 126.333611
    },
    {
      "cityName": "Lupon",
      "lat": 6.898143,
      "lng": 126.009614
    },
    {
      "cityName": "Luzon",
      "lat": 6.519444,
      "lng": 126.094444
    },
    {
      "cityName": "Macangao",
      "lat": 6.892957,
      "lng": 126.0739
    },
    {
      "cityName": "Magdalena",
      "lat": 7.803056,
      "lng": 126.445833
    },
    {
      "cityName": "Magdug",
      "lat": 6.546389,
      "lng": 126.087778
    },
    {
      "cityName": "Maglahos",
      "lat": 7.752222,
      "lng": 126.319722
    },
    {
      "cityName": "Magum",
      "lat": 6.770556,
      "lng": 126.245278
    },
    {
      "cityName": "Mahanob",
      "lat": 7.578333,
      "lng": 126.504167
    },
    {
      "cityName": "Mainit",
      "lat": 7.838611,
      "lng": 126.361111
    },
    {
      "cityName": "Makumbol",
      "lat": 6.831667,
      "lng": 126.198889
    },
    {
      "cityName": "Mampanon",
      "lat": 7.1175,
      "lng": 126.473056
    },
    {
      "cityName": "Manay",
      "lat": 7.215,
      "lng": 126.539722
    },
    {
      "cityName": "Manikling",
      "lat": 6.879074,
      "lng": 126.060626
    },
    {
      "cityName": "Manorigao",
      "lat": 7.404722,
      "lng": 126.550278
    },
    {
      "cityName": "Manreza",
      "lat": 7.243611,
      "lng": 126.484444
    },
    {
      "cityName": "Manserat",
      "lat": 6.599167,
      "lng": 126.093056
    },
    {
      "cityName": "Masa",
      "lat": 7.631111,
      "lng": 126.515278
    },
    {
      "cityName": "Mati",
      "lat": 6.955081,
      "lng": 126.216552
    },
    {
      "cityName": "Mayo",
      "lat": 6.999167,
      "lng": 126.327222
    },
    {
      "cityName": "Mercedes",
      "lat": 7.309722,
      "lng": 126.517222
    },
    {
      "cityName": "Migit",
      "lat": 7.566667,
      "lng": 126.516667
    },
    {
      "cityName": "Nangan",
      "lat": 6.469444,
      "lng": 126.118611
    },
    {
      "cityName": "Nazaret",
      "lat": 6.475,
      "lng": 126.116111
    },
    {
      "cityName": "New Bataan",
      "lat": 7.516667,
      "lng": 126.366667
    },
    {
      "cityName": "Pagoawan",
      "lat": 7.253611,
      "lng": 126.403333
    },
    {
      "cityName": "Pagsilaan",
      "lat": 7.019722,
      "lng": 126.288889
    },
    {
      "cityName": "Panalsalan",
      "lat": 7.6025,
      "lng": 126.296111
    },
    {
      "cityName": "Panikian",
      "lat": 7.012013,
      "lng": 126.022927
    },
    {
      "cityName": "Panombon",
      "lat": 6.975278,
      "lng": 126.306944
    },
    {
      "cityName": "Pinamihagan",
      "lat": 13.8,
      "lng": 123.433333
    },
    {
      "cityName": "Piso",
      "lat": 6.994722,
      "lng": 125.988056
    },
    {
      "cityName": "Pondaguitan",
      "lat": 6.361667,
      "lng": 126.18
    },
    {
      "cityName": "Quinonoan",
      "lat": 7.0925,
      "lng": 126.472778
    },
    {
      "cityName": "Rizal",
      "lat": 7.268333,
      "lng": 126.410278
    },
    {
      "cityName": "Salvacion",
      "lat": 7.978889,
      "lng": 126.253889
    },
    {
      "cityName": "San Alfonso",
      "lat": 7.780278,
      "lng": 126.420278
    },
    {
      "cityName": "San Antonio",
      "lat": 7.733889,
      "lng": 126.501944
    },
    {
      "cityName": "San Fermin",
      "lat": 7.271944,
      "lng": 126.448889
    },
    {
      "cityName": "San Ignacio",
      "lat": 7.119167,
      "lng": 126.4875
    },
    {
      "cityName": "San Isidro",
      "lat": 7.233889,
      "lng": 126.5575
    },
    {
      "cityName": "San Jose",
      "lat": 7.317778,
      "lng": 126.549722
    },
    {
      "cityName": "San Luis",
      "lat": 7.441389,
      "lng": 126.551111
    },
    {
      "cityName": "San Miguel",
      "lat": 7.291111,
      "lng": 126.518889
    },
    {
      "cityName": "San Pedro",
      "lat": 7.341944,
      "lng": 126.5175
    },
    {
      "cityName": "San Rafael",
      "lat": 7.763889,
      "lng": 126.455833
    },
    {
      "cityName": "Santa Fe",
      "lat": 7.378611,
      "lng": 126.555
    },
    {
      "cityName": "Santa Filomena",
      "lat": 7.81,
      "lng": 126.439167
    },
    {
      "cityName": "Santiago",
      "lat": 7.288889,
      "lng": 126.573333
    },
    {
      "cityName": "San Victor",
      "lat": 7.670833,
      "lng": 126.548056
    },
    {
      "cityName": "Saukigue",
      "lat": 7.586111,
      "lng": 126.555556
    },
    {
      "cityName": "Sebio",
      "lat": 7.281389,
      "lng": 126.384167
    },
    {
      "cityName": "Silad",
      "lat": 6.882138,
      "lng": 126.166292
    },
    {
      "cityName": "Sumlog",
      "lat": 6.891465,
      "lng": 126.026594
    },
    {
      "cityName": "Surop",
      "lat": 6.396111,
      "lng": 126.166667
    },
    {
      "cityName": "Tagabakid",
      "lat": 7.02,
      "lng": 126.348611
    },
    {
      "cityName": "Tagabibi",
      "lat": 6.373889,
      "lng": 126.165278
    },
    {
      "cityName": "Taganilao",
      "lat": 6.809167,
      "lng": 126.347222
    },
    {
      "cityName": "Tagbabolo",
      "lat": 6.981961,
      "lng": 126.220194
    },
    {
      "cityName": "Tagibo",
      "lat": 7.028594,
      "lng": 126.215196
    },
    {
      "cityName": "Taglandasa",
      "lat": 7.068887,
      "lng": 126.08615
    },
    {
      "cityName": "Tagugpo",
      "lat": 7.037071,
      "lng": 126.096694
    },
    {
      "cityName": "Talisay",
      "lat": 6.721111,
      "lng": 126.098889
    },
    {
      "cityName": "Tamisan",
      "lat": 6.846944,
      "lng": 126.295278
    },
    {
      "cityName": "Taocanga",
      "lat": 7.285833,
      "lng": 126.4475
    },
    {
      "cityName": "Tarragona",
      "lat": 7.044722,
      "lng": 126.448056
    },
    {
      "cityName": "Tauantauan",
      "lat": 7.234444,
      "lng": 126.366667
    },
    {
      "cityName": "Tibanbang",
      "lat": 6.628611,
      "lng": 126.100556
    },
    {
      "cityName": "Tipdas",
      "lat": 6.828056,
      "lng": 126.113056
    },
    {
      "cityName": "Tuatua",
      "lat": 6.975114,
      "lng": 126.243753
    },
    {
      "cityName": "Tumacob",
      "lat": 6.861389,
      "lng": 126.301944
    },
    {
      "cityName": "Wason",
      "lat": 6.844737,
      "lng": 126.080576
    },
    {
      "cityName": "Zaragosa",
      "lat": 7.177222,
      "lng": 126.523889
    }
  ]
}