{
  "name": "Dapitan",
  "cities": [
    {
      "cityName": "Banbanan",
      "lat": 8.7202,
      "lng": 123.4217
    },
    {
      "cityName": "Barcelona",
      "lat": 8.5275,
      "lng": 123.4587
    },
    {
      "cityName": "Baylimango",
      "lat": 8.6995,
      "lng": 123.4397
    },
    {
      "cityName": "Cavite",
      "lat": 8.706,
      "lng": 123.4387
    },
    {
      "cityName": "Dampalan",
      "lat": 8.5484,
      "lng": 123.4178
    },
    {
      "cityName": "Dapitan City",
      "lat": 8.6561,
      "lng": 123.4227
    },
    {
      "cityName": "Darapug",
      "lat": 8.6993,
      "lng": 123.4026
    },
    {
      "cityName": "Diwa-an",
      "lat": 8.607778,
      "lng": 123.4175
    },
    {
      "cityName": "Dohinob",
      "lat": 8.6335,
      "lng": 123.3497
    },
    {
      "cityName": "Dutunan",
      "lat": 8.5431,
      "lng": 123.4927
    },
    {
      "cityName": "Guba",
      "lat": 8.7099,
      "lng": 123.3783
    },
    {
      "cityName": "Ilaya",
      "lat": 8.5459,
      "lng": 123.4308
    },
    {
      "cityName": "Inoiod",
      "lat": 8.6851,
      "lng": 123.4838
    },
    {
      "cityName": "Lamatia",
      "lat": 8.6692,
      "lng": 123.4177
    },
    {
      "cityName": "Lipa-an",
      "lat": 8.5426,
      "lng": 123.4133
    },
    {
      "cityName": "Loang",
      "lat": 8.4896,
      "lng": 123.4739
    },
    {
      "cityName": "Malubog",
      "lat": 8.6179,
      "lng": 123.3865
    },
    {
      "cityName": "Mapang",
      "lat": 8.5231,
      "lng": 123.4956
    },
    {
      "cityName": "Napo",
      "lat": 8.683,
      "lng": 123.4737
    },
    {
      "cityName": "Oro",
      "lat": 8.6794,
      "lng": 123.4563
    },
    {
      "cityName": "Palawan",
      "lat": 8.633333,
      "lng": 123.4
    },
    {
      "cityName": "Potogan",
      "lat": 8.5743,
      "lng": 123.4159
    },
    {
      "cityName": "Rizal Park",
      "lat": 8.6773,
      "lng": 123.4154
    },
    {
      "cityName": "Tag-olo",
      "lat": 8.7279,
      "lng": 123.3796
    },
    {
      "cityName": "Tangi-an",
      "lat": 8.677,
      "lng": 123.4005
    }
  ]
}