{
  "name": "Sulu",
  "cities": [
    {
      "cityName": "Adjid",
      "lat": 5.992222,
      "lng": 121.009722
    },
    {
      "cityName": "Agahun",
      "lat": 5.984167,
      "lng": 120.939722
    },
    {
      "cityName": "Agal-Agal",
      "lat": 6.2983,
      "lng": 120.5757
    },
    {
      "cityName": "Ala Buna",
      "lat": 6.1538,
      "lng": 120.4483
    },
    {
      "cityName": "Alolayag",
      "lat": 5.96,
      "lng": 120.8797
    },
    {
      "cityName": "Alomatagnipa",
      "lat": 5.983333,
      "lng": 120.883333
    },
    {
      "cityName": "Alu",
      "lat": 5.716667,
      "lng": 121
    },
    {
      "cityName": "Aludapdap",
      "lat": 5.682222,
      "lng": 120.879722
    },
    {
      "cityName": "Alu Duyung",
      "lat": 5.6756,
      "lng": 120.8683
    },
    {
      "cityName": "Aluduyung",
      "lat": 5.683333,
      "lng": 120.866667
    },
    {
      "cityName": "Andalan",
      "lat": 5.959444,
      "lng": 121.390278
    },
    {
      "cityName": "Andres",
      "lat": 5.9684,
      "lng": 121.3122
    },
    {
      "cityName": "Angilan",
      "lat": 5.981389,
      "lng": 121.373611
    },
    {
      "cityName": "Anogal",
      "lat": 6.016667,
      "lng": 120.9
    },
    {
      "cityName": "Anuling",
      "lat": 6.035556,
      "lng": 121.006667
    },
    {
      "cityName": "Asin",
      "lat": 5.9089,
      "lng": 121.2353
    },
    {
      "cityName": "Asturias",
      "lat": 6.05,
      "lng": 121
    },
    {
      "cityName": "Babag",
      "lat": 5.916667,
      "lng": 120.916667
    },
    {
      "cityName": "Bag Sak",
      "lat": 5.8976,
      "lng": 120.9284
    },
    {
      "cityName": "Bagsak",
      "lat": 5.933333,
      "lng": 121.35
    },
    {
      "cityName": "Bagun Banga",
      "lat": 5.9168,
      "lng": 121.1085
    },
    {
      "cityName": "Baila-Uwak",
      "lat": 5.936667,
      "lng": 121.337222
    },
    {
      "cityName": "Bait Bait",
      "lat": 6.003889,
      "lng": 121.402222
    },
    {
      "cityName": "Bait-Bait",
      "lat": 6.296667,
      "lng": 120.581944
    },
    {
      "cityName": "Bakong",
      "lat": 6.069722,
      "lng": 121.07
    },
    {
      "cityName": "Bakud",
      "lat": 6.3025,
      "lng": 120.574444
    },
    {
      "cityName": "Bakuud",
      "lat": 5.949722,
      "lng": 121.348333
    },
    {
      "cityName": "Balaghao",
      "lat": 6.021111,
      "lng": 121.400278
    },
    {
      "cityName": "Balubuk",
      "lat": 6.2887,
      "lng": 120.649
    },
    {
      "cityName": "Bandahala",
      "lat": 5.880833,
      "lng": 121.298611
    },
    {
      "cityName": "Bandak",
      "lat": 6.301944,
      "lng": 120.561111
    },
    {
      "cityName": "Bandang",
      "lat": 5.977778,
      "lng": 121.067778
    },
    {
      "cityName": "Bangalao",
      "lat": 6.019771,
      "lng": 121.533463
    },
    {
      "cityName": "Bangay",
      "lat": 6.323333,
      "lng": 120.581389
    },
    {
      "cityName": "Bangcowan",
      "lat": 5.8866,
      "lng": 121.0601
    },
    {
      "cityName": "Bangday",
      "lat": 5.971389,
      "lng": 121.259167
    },
    {
      "cityName": "Bangkal",
      "lat": 6.066667,
      "lng": 121.066667
    },
    {
      "cityName": "Bangkalsay",
      "lat": 6.2906,
      "lng": 120.5657
    },
    {
      "cityName": "Bangngas",
      "lat": 6.103889,
      "lng": 120.962778
    },
    {
      "cityName": "Bangoal",
      "lat": 5.896111,
      "lng": 121.273889
    },
    {
      "cityName": "Bantang",
      "lat": 5.954722,
      "lng": 121.320556
    },
    {
      "cityName": "Banting",
      "lat": 5.5462,
      "lng": 120.8145
    },
    {
      "cityName": "Bantukan",
      "lat": 5.695556,
      "lng": 120.996944
    },
    {
      "cityName": "Barokaw",
      "lat": 6.295278,
      "lng": 120.583889
    },
    {
      "cityName": "Bas",
      "lat": 5.7089,
      "lng": 120.8405
    },
    {
      "cityName": "Bas Bolipongpong",
      "lat": 5.6675,
      "lng": 120.8036
    },
    {
      "cityName": "Bas Mangkalay",
      "lat": 5.693333,
      "lng": 120.803333
    },
    {
      "cityName": "Bata Bata",
      "lat": 6.0344,
      "lng": 120.9463
    },
    {
      "cityName": "Bata-Bata Buanza",
      "lat": 6.033333,
      "lng": 121
    },
    {
      "cityName": "Bata Punta",
      "lat": 5.905,
      "lng": 121.101944
    },
    {
      "cityName": "Batobato",
      "lat": 5.894444,
      "lng": 120.925833
    },
    {
      "cityName": "Bato-Ugis",
      "lat": 5.914,
      "lng": 120.991
    },
    {
      "cityName": "Batu Batu",
      "lat": 5.966667,
      "lng": 120.983333
    },
    {
      "cityName": "Batutay",
      "lat": 7.0175,
      "lng": 118.519722
    },
    {
      "cityName": "Baubo",
      "lat": 5.9742,
      "lng": 121.3879
    },
    {
      "cityName": "Baubu",
      "lat": 5.9377,
      "lng": 121.2682
    },
    {
      "cityName": "Baunoh",
      "lat": 5.957222,
      "lng": 121.236389
    },
    {
      "cityName": "Baunu\" Bata\"",
      "lat": 5.966667,
      "lng": 121.3
    },
    {
      "cityName": "Baunu-Timbangan",
      "lat": 6.005468,
      "lng": 120.994055
    },
    {
      "cityName": "Bawisan",
      "lat": 5.9375,
      "lng": 120.8745
    },
    {
      "cityName": "Bay Datu",
      "lat": 5.8944,
      "lng": 120.9376
    },
    {
      "cityName": "Bayog",
      "lat": 5.960278,
      "lng": 121.0875
    },
    {
      "cityName": "Berona",
      "lat": 6.374722,
      "lng": 120.583056
    },
    {
      "cityName": "Bila\"an",
      "lat": 5.976389,
      "lng": 121.116111
    },
    {
      "cityName": "Binuang",
      "lat": 5.956944,
      "lng": 121.06
    },
    {
      "cityName": "Bitanag",
      "lat": 5.963333,
      "lng": 121.235556
    },
    {
      "cityName": "Boal",
      "lat": 6.013333,
      "lng": 121.274444
    },
    {
      "cityName": "Bodbod",
      "lat": 5.9055,
      "lng": 121.2349
    },
    {
      "cityName": "Bogsak",
      "lat": 6.352778,
      "lng": 120.558333
    },
    {
      "cityName": "Bonbon",
      "lat": 6.059722,
      "lng": 121.158611
    },
    {
      "cityName": "Bonin",
      "lat": 5.7972,
      "lng": 121.1885
    },
    {
      "cityName": "Bonso",
      "lat": 5.9213,
      "lng": 120.9852
    },
    {
      "cityName": "Bontas",
      "lat": 5.9162,
      "lng": 121.0483
    },
    {
      "cityName": "Boto Manga",
      "lat": 6.291111,
      "lng": 120.532222
    },
    {
      "cityName": "Bowol",
      "lat": 5.89,
      "lng": 121.262222
    },
    {
      "cityName": "Bual Bual",
      "lat": 6.3092,
      "lng": 120.5512
    },
    {
      "cityName": "Bual Nangka",
      "lat": 5.929444,
      "lng": 121.11
    },
    {
      "cityName": "Bualo Lahi",
      "lat": 5.9275,
      "lng": 121.004722
    },
    {
      "cityName": "Bualo Lipid",
      "lat": 5.931111,
      "lng": 121.004444
    },
    {
      "cityName": "Buan",
      "lat": 5.5508,
      "lng": 120.8815
    },
    {
      "cityName": "Buangen Mahaba",
      "lat": 5.9,
      "lng": 120.933333
    },
    {
      "cityName": "Buansa",
      "lat": 6.0258,
      "lng": 120.9614
    },
    {
      "cityName": "Bubuam",
      "lat": 6.1792,
      "lng": 120.9699
    },
    {
      "cityName": "Bucutua",
      "lat": 6.162778,
      "lng": 121.802778
    },
    {
      "cityName": "Bu-Datu",
      "lat": 6.0234,
      "lng": 120.9977
    },
    {
      "cityName": "Bud Dakula\"",
      "lat": 5.983333,
      "lng": 121.216667
    },
    {
      "cityName": "Bud Indahan",
      "lat": 5.984722,
      "lng": 121.313889
    },
    {
      "cityName": "Buhagnanapan",
      "lat": 5.716667,
      "lng": 120.933333
    },
    {
      "cityName": "Buhanguin Puti",
      "lat": 5.900278,
      "lng": 121.080833
    },
    {
      "cityName": "Buhwang",
      "lat": 6.361667,
      "lng": 120.594444
    },
    {
      "cityName": "Buka Buka",
      "lat": 5.9304,
      "lng": 120.9108
    },
    {
      "cityName": "Bukut",
      "lat": 5.466667,
      "lng": 120.733333
    },
    {
      "cityName": "Bukut Taming",
      "lat": 6.264444,
      "lng": 120.479167
    },
    {
      "cityName": "Bulaanon",
      "lat": 5.8077,
      "lng": 121.149
    },
    {
      "cityName": "Bulampora",
      "lat": 5.816389,
      "lng": 121.171111
    },
    {
      "cityName": "Bulan",
      "lat": 6.1188,
      "lng": 121.8479
    },
    {
      "cityName": "Bulangal",
      "lat": 5.98,
      "lng": 121.295278
    },
    {
      "cityName": "Bulibawang",
      "lat": 5.924722,
      "lng": 120.969167
    },
    {
      "cityName": "Buli",
      "lat": 5.9184,
      "lng": 120.9534
    },
    {
      "cityName": "Bulicullul",
      "lat": 5.5118,
      "lng": 120.9072
    },
    {
      "cityName": "Bulun",
      "lat": 6.320278,
      "lng": 120.570556
    },
    {
      "cityName": "Bunan",
      "lat": 5.895,
      "lng": 121.249444
    },
    {
      "cityName": "Bunat",
      "lat": 5.993204,
      "lng": 120.992835
    },
    {
      "cityName": "Bunay",
      "lat": 5.934167,
      "lng": 121.378333
    },
    {
      "cityName": "Bunga-Bunga",
      "lat": 5.966667,
      "lng": 121.398611
    },
    {
      "cityName": "Bunog",
      "lat": 5.548889,
      "lng": 120.853333
    },
    {
      "cityName": "Buol",
      "lat": 6.245,
      "lng": 120.562222
    },
    {
      "cityName": "Busay",
      "lat": 5.930833,
      "lng": 121.269167
    },
    {
      "cityName": "Bus-Bus",
      "lat": 6.056667,
      "lng": 121.010278
    },
    {
      "cityName": "Busi Buai",
      "lat": 5.912778,
      "lng": 121.340556
    },
    {
      "cityName": "Butoll",
      "lat": 5.8944,
      "lng": 120.9313
    },
    {
      "cityName": "Button",
      "lat": 5.8275,
      "lng": 121.148333
    },
    {
      "cityName": "Butun",
      "lat": 5.989444,
      "lng": 120.891667
    },
    {
      "cityName": "Cabucan",
      "lat": 6.1491,
      "lng": 120.9325
    },
    {
      "cityName": "Caduayan",
      "lat": 6,
      "lng": 121.216667
    },
    {
      "cityName": "Calang",
      "lat": 5.466667,
      "lng": 120.716667
    },
    {
      "cityName": "Caloo",
      "lat": 5.6942,
      "lng": 120.8849
    },
    {
      "cityName": "Camongia",
      "lat": 5.733,
      "lng": 120.8846
    },
    {
      "cityName": "Camp Andres",
      "lat": 5.9669,
      "lng": 121.3122
    },
    {
      "cityName": "Campo",
      "lat": 5.893333,
      "lng": 121.271111
    },
    {
      "cityName": "Canawai",
      "lat": 5.7058,
      "lng": 120.9168
    },
    {
      "cityName": "Candea",
      "lat": 6.033333,
      "lng": 120.933333
    },
    {
      "cityName": "Capual",
      "lat": 6.045278,
      "lng": 121.396389
    },
    {
      "cityName": "Caumpang",
      "lat": 5.7571,
      "lng": 120.9105
    },
    {
      "cityName": "Cepe",
      "lat": 5.965556,
      "lng": 121.348889
    },
    {
      "cityName": "Cilancan",
      "lat": 5.9788,
      "lng": 120.8915
    },
    {
      "cityName": "Comput",
      "lat": 5.483333,
      "lng": 120.716667
    },
    {
      "cityName": "Cota Cota",
      "lat": 5.797222,
      "lng": 121.146667
    },
    {
      "cityName": "Cottab",
      "lat": 5.897222,
      "lng": 121.253889
    },
    {
      "cityName": "Dablocan",
      "lat": 5.969167,
      "lng": 120.918889
    },
    {
      "cityName": "Dahagan",
      "lat": 6.269167,
      "lng": 120.554722
    },
    {
      "cityName": "Daho",
      "lat": 6.275278,
      "lng": 120.56
    },
    {
      "cityName": "Dakud Lantong",
      "lat": 6.3223,
      "lng": 120.5604
    },
    {
      "cityName": "Dalau",
      "lat": 6.293056,
      "lng": 120.573889
    },
    {
      "cityName": "Dampis",
      "lat": 6.262778,
      "lng": 120.496389
    },
    {
      "cityName": "Danag",
      "lat": 6.024722,
      "lng": 121.075556
    },
    {
      "cityName": "Danding",
      "lat": 6.030833,
      "lng": 121.046389
    },
    {
      "cityName": "Dandulit",
      "lat": 5.933333,
      "lng": 121.033333
    },
    {
      "cityName": "Danog",
      "lat": 6.366111,
      "lng": 120.580278
    },
    {
      "cityName": "Daongdong",
      "lat": 5.8411,
      "lng": 121.2262
    },
    {
      "cityName": "Darian Batang",
      "lat": 6.261667,
      "lng": 120.570556
    },
    {
      "cityName": "Darol-Gambangan",
      "lat": 5.943889,
      "lng": 121.04
    },
    {
      "cityName": "Datag",
      "lat": 5.973611,
      "lng": 121.220556
    },
    {
      "cityName": "Datu Tubig",
      "lat": 6.1574,
      "lng": 121.8262
    },
    {
      "cityName": "Dayuan",
      "lat": 5.998354,
      "lng": 120.991853
    },
    {
      "cityName": "Dicong",
      "lat": 5.9295,
      "lng": 120.9167
    },
    {
      "cityName": "Digpe",
      "lat": 5.8954,
      "lng": 121.2601
    },
    {
      "cityName": "Docotansu",
      "lat": 5.816667,
      "lng": 121.133333
    },
    {
      "cityName": "Dohol Bato",
      "lat": 7.045,
      "lng": 118.514444
    },
    {
      "cityName": "Dumag",
      "lat": 6.305556,
      "lng": 120.573333
    },
    {
      "cityName": "Dundang",
      "lat": 5.915556,
      "lng": 121.244444
    },
    {
      "cityName": "Dungun",
      "lat": 6.1493,
      "lng": 121.8273
    },
    {
      "cityName": "Duplinan",
      "lat": 6.2629,
      "lng": 120.6228
    },
    {
      "cityName": "Gabon",
      "lat": 6.2846,
      "lng": 120.5536
    },
    {
      "cityName": "Gamai",
      "lat": 5.985556,
      "lng": 121.195
    },
    {
      "cityName": "Gandabuli",
      "lat": 6.075,
      "lng": 121.015278
    },
    {
      "cityName": "Ganon",
      "lat": 5.9485,
      "lng": 121.4101
    },
    {
      "cityName": "Gantang",
      "lat": 5.9479,
      "lng": 121.3309
    },
    {
      "cityName": "Gapas",
      "lat": 5.697275,
      "lng": 120.87549
    },
    {
      "cityName": "Gata",
      "lat": 5.9778,
      "lng": 121.3708
    },
    {
      "cityName": "Geppa",
      "lat": 7.0325,
      "lng": 118.5175
    },
    {
      "cityName": "Gimba Luuk",
      "lat": 6.2575,
      "lng": 120.516944
    },
    {
      "cityName": "Gimbaon",
      "lat": 5.9077,
      "lng": 121.3377
    },
    {
      "cityName": "Gitong",
      "lat": 6.021944,
      "lng": 121.324444
    },
    {
      "cityName": "Guimba",
      "lat": 5.9088,
      "lng": 120.951
    },
    {
      "cityName": "Guitong",
      "lat": 5.924167,
      "lng": 120.901389
    },
    {
      "cityName": "Gulangan",
      "lat": 5.956667,
      "lng": 121.028333
    },
    {
      "cityName": "Habuogan",
      "lat": 6.320556,
      "lng": 120.575278
    },
    {
      "cityName": "Hagupit",
      "lat": 5.9105,
      "lng": 121.2605
    },
    {
      "cityName": "Halamon Pababag",
      "lat": 6.3145,
      "lng": 120.5529
    },
    {
      "cityName": "Hambilan",
      "lat": 5.5633,
      "lng": 120.8069
    },
    {
      "cityName": "Howit Howit",
      "lat": 5.70648,
      "lng": 120.822877
    },
    {
      "cityName": "Howit-Howit",
      "lat": 5.949167,
      "lng": 121.384167
    },
    {
      "cityName": "Igangan",
      "lat": 5.966667,
      "lng": 120.883333
    },
    {
      "cityName": "Igang",
      "lat": 5.9186,
      "lng": 121.3817
    },
    {
      "cityName": "Igasan",
      "lat": 6.086389,
      "lng": 121.095833
    },
    {
      "cityName": "Imodan",
      "lat": 5.974444,
      "lng": 121.085556
    },
    {
      "cityName": "Indanan",
      "lat": 5.9735,
      "lng": 120.9698
    },
    {
      "cityName": "Ipil",
      "lat": 5.925278,
      "lng": 121.070556
    },
    {
      "cityName": "Jambangan",
      "lat": 5.5141,
      "lng": 120.8472
    },
    {
      "cityName": "Jati Baud",
      "lat": 5.9625,
      "lng": 120.955278
    },
    {
      "cityName": "Jati' Tunggal",
      "lat": 5.9656,
      "lng": 120.9751
    },
    {
      "cityName": "Jolo",
      "lat": 6.052222,
      "lng": 121.002222
    },
    {
      "cityName": "Kabatuhan Tiis",
      "lat": 5.969167,
      "lng": 121.1025
    },
    {
      "cityName": "Kabbon-Takas",
      "lat": 6.046389,
      "lng": 121.078056
    },
    {
      "cityName": "Kabbu Dakulab",
      "lat": 5.981389,
      "lng": 121.296389
    },
    {
      "cityName": "Kabinga An",
      "lat": 5.6677,
      "lng": 121.01
    },
    {
      "cityName": "Kabudu",
      "lat": 5.5325,
      "lng": 120.8765
    },
    {
      "cityName": "Kabugan",
      "lat": 6.270833,
      "lng": 120.571944
    },
    {
      "cityName": "Kabungkagan",
      "lat": 6.286111,
      "lng": 120.545278
    },
    {
      "cityName": "Kabungkul",
      "lat": 5.934722,
      "lng": 121.151667
    },
    {
      "cityName": "Kadang Tukay",
      "lat": 5.948333,
      "lng": 120.958056
    },
    {
      "cityName": "Kadday-Mampallan",
      "lat": 6.085556,
      "lng": 121.068611
    },
    {
      "cityName": "Kagay",
      "lat": 6.0088,
      "lng": 120.9074
    },
    {
      "cityName": "Kahoy Sina",
      "lat": 5.996667,
      "lng": 120.895556
    },
    {
      "cityName": "Kajatian",
      "lat": 6.031111,
      "lng": 120.991944
    },
    {
      "cityName": "Kakao",
      "lat": 5.542778,
      "lng": 120.846389
    },
    {
      "cityName": "Kalang",
      "lat": 5.919722,
      "lng": 121.363056
    },
    {
      "cityName": "Kalanpang",
      "lat": 5.815,
      "lng": 121.2055
    },
    {
      "cityName": "Kalgay",
      "lat": 5.994722,
      "lng": 121.120278
    },
    {
      "cityName": "Kalingalan Caluang",
      "lat": 5.89,
      "lng": 121.2675
    },
    {
      "cityName": "Kaloang",
      "lat": 5.901667,
      "lng": 121.325833
    },
    {
      "cityName": "Kalong",
      "lat": 6.376111,
      "lng": 120.596389
    },
    {
      "cityName": "Kamalig",
      "lat": 5.978889,
      "lng": 121.228056
    },
    {
      "cityName": "Kamawi Gamay",
      "lat": 5.822222,
      "lng": 121.2
    },
    {
      "cityName": "Kamawi",
      "lat": 5.817778,
      "lng": 121.235278
    },
    {
      "cityName": "Kambangtuli",
      "lat": 5.983333,
      "lng": 121.083333
    },
    {
      "cityName": "Kambing",
      "lat": 5.9478,
      "lng": 121.3064
    },
    {
      "cityName": "Kampo Naga",
      "lat": 5.9568,
      "lng": 120.8984
    },
    {
      "cityName": "Kanaipat",
      "lat": 6.009722,
      "lng": 121.255833
    },
    {
      "cityName": "Kan-ali",
      "lat": 5.97,
      "lng": 121.3035
    },
    {
      "cityName": "Kanangon",
      "lat": 5.757778,
      "lng": 120.911944
    },
    {
      "cityName": "Kan Asal",
      "lat": 5.716667,
      "lng": 120.916667
    },
    {
      "cityName": "Kanawa",
      "lat": 5.979722,
      "lng": 121.364444
    },
    {
      "cityName": "Kan Basilan",
      "lat": 5.984444,
      "lng": 121.34
    },
    {
      "cityName": "Kanbual",
      "lat": 5.948333,
      "lng": 121.318056
    },
    {
      "cityName": "Kan Bulak",
      "lat": 5.98,
      "lng": 121.303333
    },
    {
      "cityName": "Kandayok",
      "lat": 6.004722,
      "lng": 121.166389
    },
    {
      "cityName": "Kandulan",
      "lat": 5.9104,
      "lng": 120.9421
    },
    {
      "cityName": "Kangadjal",
      "lat": 5.935833,
      "lng": 121.2675
    },
    {
      "cityName": "Kangkanga Kamawi",
      "lat": 5.8198,
      "lng": 121.2003
    },
    {
      "cityName": "Kan Iko",
      "lat": 5.9575,
      "lng": 120.956389
    },
    {
      "cityName": "Kanjarang",
      "lat": 5.790833,
      "lng": 121.168889
    },
    {
      "cityName": "Kan-Kabaya",
      "lat": 5.998889,
      "lng": 121.294722
    },
    {
      "cityName": "Kan-Kabiting",
      "lat": 5.9575,
      "lng": 121.393056
    },
    {
      "cityName": "Kankabuting",
      "lat": 5.945833,
      "lng": 121.398889
    },
    {
      "cityName": "Kanlagay",
      "lat": 5.8788,
      "lng": 121.2903
    },
    {
      "cityName": "Kanlibot",
      "lat": 5.992222,
      "lng": 121.159722
    },
    {
      "cityName": "Kan Ligas Kara",
      "lat": 5.546389,
      "lng": 120.853611
    },
    {
      "cityName": "Kan Masillan",
      "lat": 5.545278,
      "lng": 120.867222
    },
    {
      "cityName": "Kan Midus",
      "lat": 5.994722,
      "lng": 121.39
    },
    {
      "cityName": "Kan Mindus",
      "lat": 5.982222,
      "lng": 121.317222
    },
    {
      "cityName": "Kan Munot",
      "lat": 5.540556,
      "lng": 120.861667
    },
    {
      "cityName": "Kanpagaya",
      "lat": 5.938333,
      "lng": 121.295278
    },
    {
      "cityName": "Kan-Salihan",
      "lat": 5.98,
      "lng": 121.381667
    },
    {
      "cityName": "Kansipati",
      "lat": 6.001111,
      "lng": 121.234444
    },
    {
      "cityName": "Kapandak",
      "lat": 5.978,
      "lng": 120.9364
    },
    {
      "cityName": "Karawan",
      "lat": 5.946667,
      "lng": 120.950833
    },
    {
      "cityName": "Karungdong",
      "lat": 5.8844,
      "lng": 121.263
    },
    {
      "cityName": "Kasigkas",
      "lat": 5.940556,
      "lng": 121.275556
    },
    {
      "cityName": "Kataan",
      "lat": 6.283889,
      "lng": 120.557778
    },
    {
      "cityName": "Katian",
      "lat": 5.971389,
      "lng": 120.955
    },
    {
      "cityName": "Katibung",
      "lat": 6.3422,
      "lng": 120.5482
    },
    {
      "cityName": "Katubuh",
      "lat": 5.515,
      "lng": 120.863333
    },
    {
      "cityName": "Kaunayan",
      "lat": 6.085278,
      "lng": 121.083611
    },
    {
      "cityName": "Kawasan",
      "lat": 5.955278,
      "lng": 121.265556
    },
    {
      "cityName": "Kawayan",
      "lat": 5.843,
      "lng": 121.1812
    },
    {
      "cityName": "Kawetan",
      "lat": 6.2526,
      "lng": 120.489
    },
    {
      "cityName": "Kayapuh",
      "lat": 6.3223,
      "lng": 120.5528
    },
    {
      "cityName": "Kehe Niog",
      "lat": 6.3719,
      "lng": 120.5619
    },
    {
      "cityName": "Kiput",
      "lat": 5.832,
      "lng": 121.1382
    },
    {
      "cityName": "Kong-Kong Laminusa",
      "lat": 5.5453,
      "lng": 120.9292
    },
    {
      "cityName": "Kono",
      "lat": 6.257778,
      "lng": 120.538889
    },
    {
      "cityName": "Koppong",
      "lat": 5.9747,
      "lng": 120.9578
    },
    {
      "cityName": "Kubig Kutah",
      "lat": 5.519722,
      "lng": 120.886389
    },
    {
      "cityName": "Kublihan",
      "lat": 5.989167,
      "lng": 120.938333
    },
    {
      "cityName": "Kuhawa",
      "lat": 5.976667,
      "lng": 121.144444
    },
    {
      "cityName": "Kukab",
      "lat": 5.8932,
      "lng": 121.2815
    },
    {
      "cityName": "Kulambo",
      "lat": 6.005278,
      "lng": 121.160278
    },
    {
      "cityName": "Kulase",
      "lat": 5.9052,
      "lng": 120.9569
    },
    {
      "cityName": "Kulassian",
      "lat": 6.4251,
      "lng": 120.6804
    },
    {
      "cityName": "Kulay-Kulay",
      "lat": 5.945278,
      "lng": 121.2325
    },
    {
      "cityName": "Kulaykulay",
      "lat": 5.95,
      "lng": 121.191667
    },
    {
      "cityName": "Kulid",
      "lat": 6.3268,
      "lng": 120.5522
    },
    {
      "cityName": "Kunalum",
      "lat": 5.95,
      "lng": 121
    },
    {
      "cityName": "Kungtad",
      "lat": 5.5572,
      "lng": 120.8472
    },
    {
      "cityName": "Kurol",
      "lat": 5.540278,
      "lng": 120.838889
    },
    {
      "cityName": "Kuta\" Parang",
      "lat": 5.683333,
      "lng": 120.833333
    },
    {
      "cityName": "Kuta Sihi",
      "lat": 5.911667,
      "lng": 121.343056
    },
    {
      "cityName": "Lagasan Asibi",
      "lat": 5.913056,
      "lng": 120.98
    },
    {
      "cityName": "Lagasan",
      "lat": 5.9025,
      "lng": 120.9509
    },
    {
      "cityName": "Lagonding",
      "lat": 5.6841,
      "lng": 120.8854
    },
    {
      "cityName": "Lagtoh",
      "lat": 5.982222,
      "lng": 121.0525
    },
    {
      "cityName": "Lahing-Lahing",
      "lat": 6.004444,
      "lng": 121.388611
    },
    {
      "cityName": "Lambago",
      "lat": 5.98,
      "lng": 121.2792
    },
    {
      "cityName": "Lambaking",
      "lat": 5.981667,
      "lng": 121.004722
    },
    {
      "cityName": "Lambana",
      "lat": 5.971944,
      "lng": 121.145278
    },
    {
      "cityName": "Laminusa",
      "lat": 5.5549,
      "lng": 120.9136
    },
    {
      "cityName": "Lanao-Bato",
      "lat": 5.9741,
      "lng": 120.9241
    },
    {
      "cityName": "Lanao Dahula",
      "lat": 5.969824,
      "lng": 120.919024
    },
    {
      "cityName": "Langab",
      "lat": 6.281944,
      "lng": 120.571667
    },
    {
      "cityName": "Langkaan",
      "lat": 5.9218,
      "lng": 120.8818
    },
    {
      "cityName": "Langpas",
      "lat": 5.975,
      "lng": 120.949
    },
    {
      "cityName": "Langus",
      "lat": 6.2875,
      "lng": 120.5752
    },
    {
      "cityName": "Lantis",
      "lat": 6.375,
      "lng": 120.563611
    },
    {
      "cityName": "Lantong Babag",
      "lat": 6.3,
      "lng": 120.55
    },
    {
      "cityName": "Lapac",
      "lat": 5.5419,
      "lng": 120.7955
    },
    {
      "cityName": "Lapa",
      "lat": 5.9162,
      "lng": 120.9995
    },
    {
      "cityName": "Laparan",
      "lat": 5.683333,
      "lng": 120.216667
    },
    {
      "cityName": "Larap",
      "lat": 5.7106,
      "lng": 120.8395
    },
    {
      "cityName": "Latang",
      "lat": 5.561667,
      "lng": 120.876111
    },
    {
      "cityName": "Lati",
      "lat": 6.033889,
      "lng": 121.033611
    },
    {
      "cityName": "Latung",
      "lat": 5.5,
      "lng": 120.883333
    },
    {
      "cityName": "Laud",
      "lat": 5.501944,
      "lng": 120.860833
    },
    {
      "cityName": "Laum Buahan",
      "lat": 5.9135,
      "lng": 120.9428
    },
    {
      "cityName": "Laum Luuk",
      "lat": 5.5951,
      "lng": 120.8604
    },
    {
      "cityName": "Laum Suah",
      "lat": 5.929722,
      "lng": 120.9125
    },
    {
      "cityName": "Layag-Layag",
      "lat": 5.950278,
      "lng": 120.886389
    },
    {
      "cityName": "Lejanan",
      "lat": 5.8601,
      "lng": 121.0903
    },
    {
      "cityName": "Lerong",
      "lat": 5.9069,
      "lng": 120.9801
    },
    {
      "cityName": "Lianagan",
      "lat": 5.983333,
      "lng": 121.1
    },
    {
      "cityName": "Liang",
      "lat": 5.928611,
      "lng": 121.072778
    },
    {
      "cityName": "Lianutan",
      "lat": 5.935833,
      "lng": 121.340556
    },
    {
      "cityName": "Liban",
      "lat": 5.987778,
      "lng": 121.108611
    },
    {
      "cityName": "Libobong",
      "lat": 5.9425,
      "lng": 120.9954
    },
    {
      "cityName": "Libug Kabaw",
      "lat": 5.996389,
      "lng": 121.266944
    },
    {
      "cityName": "Libung",
      "lat": 5.940278,
      "lng": 121.371389
    },
    {
      "cityName": "Licud",
      "lat": 6.3193,
      "lng": 120.5467
    },
    {
      "cityName": "Licup",
      "lat": 5.977222,
      "lng": 120.984722
    },
    {
      "cityName": "Lihiman",
      "lat": 6.1,
      "lng": 118.233333
    },
    {
      "cityName": "Likad",
      "lat": 5.8089,
      "lng": 121.1922
    },
    {
      "cityName": "Likbah",
      "lat": 5.955556,
      "lng": 121.196389
    },
    {
      "cityName": "Likud",
      "lat": 5.790556,
      "lng": 121.185278
    },
    {
      "cityName": "Limawa",
      "lat": 6.003056,
      "lng": 121.305278
    },
    {
      "cityName": "Limbuaya",
      "lat": 5.906667,
      "lng": 121.29
    },
    {
      "cityName": "Lingan",
      "lat": 5.961389,
      "lng": 121.313333
    },
    {
      "cityName": "Linuho",
      "lat": 5.926389,
      "lng": 120.936667
    },
    {
      "cityName": "Liong",
      "lat": 6.133611,
      "lng": 120.916389
    },
    {
      "cityName": "Lipunos",
      "lat": 5.9189,
      "lng": 120.9446
    },
    {
      "cityName": "Loas",
      "lat": 5.8975,
      "lng": 120.924
    },
    {
      "cityName": "Loctulay",
      "lat": 5.8247,
      "lng": 121.1427
    },
    {
      "cityName": "Looc Daniagan",
      "lat": 5.75,
      "lng": 120.9
    },
    {
      "cityName": "Lood",
      "lat": 6.285556,
      "lng": 120.575278
    },
    {
      "cityName": "Loog",
      "lat": 6.0721,
      "lng": 121.7845
    },
    {
      "cityName": "Look",
      "lat": 6.2536,
      "lng": 120.5036
    },
    {
      "cityName": "Lubak Kawak",
      "lat": 6.315556,
      "lng": 120.573333
    },
    {
      "cityName": "Lubak",
      "lat": 6.307778,
      "lng": 120.582222
    },
    {
      "cityName": "Lubang",
      "lat": 5.9066,
      "lng": 120.9753
    },
    {
      "cityName": "Lublubah",
      "lat": 6.2722,
      "lng": 120.5379
    },
    {
      "cityName": "Luboc",
      "lat": 5.9115,
      "lng": 121.1127
    },
    {
      "cityName": "Lubok-Lubok",
      "lat": 5.945833,
      "lng": 121.165278
    },
    {
      "cityName": "Luctulayan",
      "lat": 5.809722,
      "lng": 121.141944
    },
    {
      "cityName": "Lugastaun",
      "lat": 6.269167,
      "lng": 120.570278
    },
    {
      "cityName": "Lugus",
      "lat": 5.703611,
      "lng": 120.820278
    },
    {
      "cityName": "Lugus Lugus",
      "lat": 6.349722,
      "lng": 120.565
    },
    {
      "cityName": "Lukad",
      "lat": 6.3865,
      "lng": 120.6014
    },
    {
      "cityName": "Luki Tara",
      "lat": 5.5943,
      "lng": 120.871
    },
    {
      "cityName": "Luma Dapdap",
      "lat": 6.2702,
      "lng": 120.5519
    },
    {
      "cityName": "Lumapid",
      "lat": 5.9055,
      "lng": 121.0611
    },
    {
      "cityName": "Lumbaan",
      "lat": 5.941944,
      "lng": 121.320556
    },
    {
      "cityName": "Lunagan",
      "lat": 6.3662,
      "lng": 120.577
    },
    {
      "cityName": "Lungagas",
      "lat": 5.9498,
      "lng": 120.9912
    },
    {
      "cityName": "Lungas",
      "lat": 6.265,
      "lng": 120.533611
    },
    {
      "cityName": "Lung Kiaban",
      "lat": 5.955,
      "lng": 121.150833
    },
    {
      "cityName": "Lungon-lungon",
      "lat": 5.983056,
      "lng": 120.910278
    },
    {
      "cityName": "Lupa Abu",
      "lat": 5.933333,
      "lng": 120.901944
    },
    {
      "cityName": "Luukbon",
      "lat": 5.823333,
      "lng": 121.146944
    },
    {
      "cityName": "Luuk Pataw",
      "lat": 6.359167,
      "lng": 120.555278
    },
    {
      "cityName": "Luuk Tulal",
      "lat": 5.792222,
      "lng": 121.154722
    },
    {
      "cityName": "Maandog",
      "lat": 5.850833,
      "lng": 121.095556
    },
    {
      "cityName": "Mabahay",
      "lat": 5.911111,
      "lng": 121.126111
    },
    {
      "cityName": "Mabbuk",
      "lat": 6.2619,
      "lng": 120.5196
    },
    {
      "cityName": "Maganda",
      "lat": 5.9114,
      "lng": 120.9693
    },
    {
      "cityName": "Mahaela",
      "lat": 5.916667,
      "lng": 121.133333
    },
    {
      "cityName": "Maibun",
      "lat": 5.9285,
      "lng": 121.0274
    },
    {
      "cityName": "Malanta",
      "lat": 5.5027,
      "lng": 120.7536
    },
    {
      "cityName": "Maligay",
      "lat": 6.046389,
      "lng": 121.062222
    },
    {
      "cityName": "Malopa",
      "lat": 5.9544,
      "lng": 120.8745
    },
    {
      "cityName": "Mangalia",
      "lat": 6.0395,
      "lng": 120.9615
    },
    {
      "cityName": "Mangal Mangal",
      "lat": 5.941944,
      "lng": 121.299167
    },
    {
      "cityName": "Mangas",
      "lat": 5.9161,
      "lng": 121.3777
    },
    {
      "cityName": "Mangcalay",
      "lat": 5.6853,
      "lng": 120.8006
    },
    {
      "cityName": "Manginoapo",
      "lat": 5.7509,
      "lng": 120.9272
    },
    {
      "cityName": "Manta",
      "lat": 5.5773,
      "lng": 120.8733
    },
    {
      "cityName": "Manubal",
      "lat": 5.4732,
      "lng": 120.7986
    },
    {
      "cityName": "Maoacat-Uraan",
      "lat": 6.05,
      "lng": 120.483333
    },
    {
      "cityName": "Marsada",
      "lat": 5.931389,
      "lng": 121.106944
    },
    {
      "cityName": "Masok",
      "lat": 5.9,
      "lng": 121.316667
    },
    {
      "cityName": "Matanda",
      "lat": 6.033,
      "lng": 120.9696
    },
    {
      "cityName": "Matatal",
      "lat": 5.962778,
      "lng": 121.008333
    },
    {
      "cityName": "Mauboh",
      "lat": 5.99,
      "lng": 121.093611
    },
    {
      "cityName": "Maubo",
      "lat": 6.068056,
      "lng": 121.018333
    },
    {
      "cityName": "Mimul",
      "lat": 5.5,
      "lng": 120.766667
    },
    {
      "cityName": "Musa",
      "lat": 5.5,
      "lng": 120.8376
    },
    {
      "cityName": "Nagay",
      "lat": 6.016944,
      "lng": 120.949444
    },
    {
      "cityName": "New Panamao",
      "lat": 5.95,
      "lng": 121.2
    },
    {
      "cityName": "Niog Niog",
      "lat": 5.9514,
      "lng": 121.3061
    },
    {
      "cityName": "Niug Niug",
      "lat": 5.55,
      "lng": 120.783333
    },
    {
      "cityName": "Niug Sangahan",
      "lat": 5.954722,
      "lng": 121.097778
    },
    {
      "cityName": "Niyangkaan",
      "lat": 5.966111,
      "lng": 121.414444
    },
    {
      "cityName": "North Parol",
      "lat": 6.076638,
      "lng": 121.708381
    },
    {
      "cityName": "North Ubian",
      "lat": 6.15,
      "lng": 120.433333
    },
    {
      "cityName": "Nuitnuit",
      "lat": 5.7,
      "lng": 120.816667
    },
    {
      "cityName": "Nunukan",
      "lat": 6.4365,
      "lng": 120.712
    },
    {
      "cityName": "Pagans",
      "lat": 5.8812,
      "lng": 121.2586
    },
    {
      "cityName": "Pagasinan",
      "lat": 6.133333,
      "lng": 120.983333
    },
    {
      "cityName": "Pagatpat",
      "lat": 5.5754,
      "lng": 120.8331
    },
    {
      "cityName": "Pagsakulan",
      "lat": 6.315,
      "lng": 120.5634
    },
    {
      "cityName": "Paiksa",
      "lat": 5.966667,
      "lng": 121.2
    },
    {
      "cityName": "Pait",
      "lat": 5.7013,
      "lng": 120.8691
    },
    {
      "cityName": "Palan",
      "lat": 5.982778,
      "lng": 121.031111
    },
    {
      "cityName": "Paligi",
      "lat": 5.958611,
      "lng": 120.926389
    },
    {
      "cityName": "Palikul",
      "lat": 6.088056,
      "lng": 121.033056
    },
    {
      "cityName": "Pampang",
      "lat": 5.7116,
      "lng": 120.9271
    },
    {
      "cityName": "Panabuan",
      "lat": 5.9616,
      "lng": 120.9627
    },
    {
      "cityName": "Panamao",
      "lat": 5.981111,
      "lng": 121.214722
    },
    {
      "cityName": "Pandakan",
      "lat": 5.988889,
      "lng": 121.165833
    },
    {
      "cityName": "Pandami",
      "lat": 5.5379,
      "lng": 120.7553
    },
    {
      "cityName": "Pandan Niog",
      "lat": 6.2282,
      "lng": 120.5631
    },
    {
      "cityName": "Pandanpanaan",
      "lat": 5.8962,
      "lng": 121.2413
    },
    {
      "cityName": "Pandugo",
      "lat": 6.267222,
      "lng": 120.496667
    },
    {
      "cityName": "Pangadnan",
      "lat": 6.309167,
      "lng": 120.578889
    },
    {
      "cityName": "Pangdanon",
      "lat": 6.080833,
      "lng": 121.118611
    },
    {
      "cityName": "Panggol",
      "lat": 5.535,
      "lng": 120.863056
    },
    {
      "cityName": "Panglayahan",
      "lat": 6.050278,
      "lng": 121.118611
    },
    {
      "cityName": "Pang",
      "lat": 5.9497,
      "lng": 121.2871
    },
    {
      "cityName": "Pangtikan",
      "lat": 6.274167,
      "lng": 120.548611
    },
    {
      "cityName": "Pangutaran",
      "lat": 6.3032,
      "lng": 120.5836
    },
    {
      "cityName": "Paninuran",
      "lat": 6.385556,
      "lng": 120.575556
    },
    {
      "cityName": "Panko",
      "lat": 5.95,
      "lng": 120.883333
    },
    {
      "cityName": "Pansulon",
      "lat": 5.916944,
      "lng": 121.315
    },
    {
      "cityName": "Pansul",
      "lat": 6.049444,
      "lng": 121.135278
    },
    {
      "cityName": "Pantao",
      "lat": 5.987222,
      "lng": 121.041667
    },
    {
      "cityName": "Pantaw",
      "lat": 6,
      "lng": 121.033333
    },
    {
      "cityName": "Panungan",
      "lat": 5.527,
      "lng": 120.9089
    },
    {
      "cityName": "Paragon",
      "lat": 5.8375,
      "lng": 121.1862
    },
    {
      "cityName": "Parang Mawag",
      "lat": 5.9428,
      "lng": 120.8997
    },
    {
      "cityName": "Parang",
      "lat": 5.9137,
      "lng": 120.9056
    },
    {
      "cityName": "Parian Dacula",
      "lat": 5.556667,
      "lng": 120.771944
    },
    {
      "cityName": "Parian Kawayan",
      "lat": 5.668889,
      "lng": 120.863611
    },
    {
      "cityName": "Parian Laha",
      "lat": 5.666667,
      "lng": 120.816667
    },
    {
      "cityName": "Parian Langgal",
      "lat": 6.308889,
      "lng": 120.550556
    },
    {
      "cityName": "Parian",
      "lat": 5.6714,
      "lng": 120.8626
    },
    {
      "cityName": "Parian Sai",
      "lat": 6.2861,
      "lng": 120.53
    },
    {
      "cityName": "Parisan",
      "lat": 6.277222,
      "lng": 120.557778
    },
    {
      "cityName": "Pasil",
      "lat": 5.9557,
      "lng": 120.9462
    },
    {
      "cityName": "Patao",
      "lat": 5.921111,
      "lng": 121.039167
    },
    {
      "cityName": "Patian",
      "lat": 5.8548,
      "lng": 121.0938
    },
    {
      "cityName": "Patotoi",
      "lat": 5.982778,
      "lng": 121.371389
    },
    {
      "cityName": "Patukon",
      "lat": 6.2625,
      "lng": 120.507222
    },
    {
      "cityName": "Payahan",
      "lat": 6.008889,
      "lng": 120.986944
    },
    {
      "cityName": "Payuhan",
      "lat": 5.941667,
      "lng": 120.901111
    },
    {
      "cityName": "Payukan",
      "lat": 6.065,
      "lng": 121.154167
    },
    {
      "cityName": "Pialong",
      "lat": 5.542222,
      "lng": 120.849444
    },
    {
      "cityName": "Pigi Band",
      "lat": 5.543611,
      "lng": 120.874444
    },
    {
      "cityName": "Pisak",
      "lat": 5.553611,
      "lng": 120.861389
    },
    {
      "cityName": "Pisak Pisak",
      "lat": 5.843333,
      "lng": 121.160556
    },
    {
      "cityName": "Pitogo",
      "lat": 5.8896,
      "lng": 121.311
    },
    {
      "cityName": "Pongdong",
      "lat": 5.846,
      "lng": 121.2221
    },
    {
      "cityName": "Potat",
      "lat": 6.015833,
      "lng": 120.988333
    },
    {
      "cityName": "Pugad Manaul",
      "lat": 5.989167,
      "lng": 121.254444
    },
    {
      "cityName": "Puhakan",
      "lat": 5.9611,
      "lng": 121.2525
    },
    {
      "cityName": "Pukol Nain",
      "lat": 6.289444,
      "lng": 120.543611
    },
    {
      "cityName": "Punai",
      "lat": 5.961389,
      "lng": 121.198056
    },
    {
      "cityName": "Pungkapaan",
      "lat": 5.716667,
      "lng": 121.016667
    },
    {
      "cityName": "Punnon",
      "lat": 6.288333,
      "lng": 120.556389
    },
    {
      "cityName": "Punungan",
      "lat": 5.908333,
      "lng": 121.060556
    },
    {
      "cityName": "Punyao",
      "lat": 5.514444,
      "lng": 120.872778
    },
    {
      "cityName": "Sablay",
      "lat": 5.5299,
      "lng": 120.8253
    },
    {
      "cityName": "Saimbangon",
      "lat": 5.839167,
      "lng": 121.1425
    },
    {
      "cityName": "Sait Higud",
      "lat": 6.003333,
      "lng": 121.238889
    },
    {
      "cityName": "Saldang",
      "lat": 5.937222,
      "lng": 120.908889
    },
    {
      "cityName": "Saligpang",
      "lat": 5.9663,
      "lng": 121.3191
    },
    {
      "cityName": "Salimbangan",
      "lat": 6.264167,
      "lng": 120.559167
    },
    {
      "cityName": "Samak",
      "lat": 5.976111,
      "lng": 121.073611
    },
    {
      "cityName": "Sampalaum",
      "lat": 5.808333,
      "lng": 121.136944
    },
    {
      "cityName": "Sampunay",
      "lat": 5.948611,
      "lng": 120.91
    },
    {
      "cityName": "Sanda",
      "lat": 6.076944,
      "lng": 121.068611
    },
    {
      "cityName": "Sangay",
      "lat": 6.271111,
      "lng": 120.481667
    },
    {
      "cityName": "Sangkap",
      "lat": 5.806944,
      "lng": 121.173611
    },
    {
      "cityName": "Sang",
      "lat": 5.8729,
      "lng": 121.2702
    },
    {
      "cityName": "Sapa Bagan",
      "lat": 5.883056,
      "lng": 121.286389
    },
    {
      "cityName": "Sapa Bunuan",
      "lat": 5.966667,
      "lng": 121.133333
    },
    {
      "cityName": "Sar",
      "lat": 5.866667,
      "lng": 121.266667
    },
    {
      "cityName": "Sarukut",
      "lat": 5.504167,
      "lng": 120.874444
    },
    {
      "cityName": "Sedapantung",
      "lat": 6.315,
      "lng": 120.556389
    },
    {
      "cityName": "Segimban",
      "lat": 6.315278,
      "lng": 120.578611
    },
    {
      "cityName": "Se Ipang",
      "lat": 6.3014,
      "lng": 120.5559
    },
    {
      "cityName": "Seit Tayungan",
      "lat": 5.967,
      "lng": 121.2674
    },
    {
      "cityName": "Sekilangal",
      "lat": 6.066847,
      "lng": 121.707115
    },
    {
      "cityName": "Senogan",
      "lat": 6.001,
      "lng": 120.9004
    },
    {
      "cityName": "Sibabag",
      "lat": 5.7042,
      "lng": 121.0163
    },
    {
      "cityName": "Sibalan",
      "lat": 5.516667,
      "lng": 120.816667
    },
    {
      "cityName": "Sibaud",
      "lat": 5.4999,
      "lng": 120.7814
    },
    {
      "cityName": "Sibimbum",
      "lat": 5.483333,
      "lng": 120.733333
    },
    {
      "cityName": "Sicumbang",
      "lat": 6.295278,
      "lng": 120.544444
    },
    {
      "cityName": "Sigangan",
      "lat": 5.567,
      "lng": 120.7972
    },
    {
      "cityName": "Si Kub",
      "lat": 7.015556,
      "lng": 118.435
    },
    {
      "cityName": "Sikulay",
      "lat": 6.020833,
      "lng": 121.406944
    },
    {
      "cityName": "Silanbun",
      "lat": 6.286667,
      "lng": 120.530278
    },
    {
      "cityName": "Silancot",
      "lat": 5.5,
      "lng": 120.75
    },
    {
      "cityName": "Silat",
      "lat": 5.939722,
      "lng": 121.338889
    },
    {
      "cityName": "Silumpac",
      "lat": 5.5068,
      "lng": 120.8922
    },
    {
      "cityName": "Simigang",
      "lat": 6.2785,
      "lng": 120.539
    },
    {
      "cityName": "Simundang",
      "lat": 6.293611,
      "lng": 120.543056
    },
    {
      "cityName": "Sindang",
      "lat": 6.039722,
      "lng": 120.973333
    },
    {
      "cityName": "Singkab",
      "lat": 6.280833,
      "lng": 120.573056
    },
    {
      "cityName": "Singko",
      "lat": 5.510556,
      "lng": 120.860278
    },
    {
      "cityName": "Siondo",
      "lat": 5.5525,
      "lng": 120.830556
    },
    {
      "cityName": "Sionogan",
      "lat": 6.005278,
      "lng": 120.948611
    },
    {
      "cityName": "Si Panbing",
      "lat": 5.5359,
      "lng": 120.8809
    },
    {
      "cityName": "Siparong",
      "lat": 6.030278,
      "lng": 121.324167
    },
    {
      "cityName": "Sisagan",
      "lat": 5.5187,
      "lng": 120.815
    },
    {
      "cityName": "Sitacaya",
      "lat": 6.3825,
      "lng": 120.569722
    },
    {
      "cityName": "Siunugan",
      "lat": 5.516667,
      "lng": 120.9
    },
    {
      "cityName": "Siyunuyan",
      "lat": 5.897222,
      "lng": 121.240833
    },
    {
      "cityName": "Soang Buna",
      "lat": 6.1473,
      "lng": 120.4282
    },
    {
      "cityName": "Soa Soa",
      "lat": 5.8554,
      "lng": 121.0814
    },
    {
      "cityName": "Suahauah",
      "lat": 5.949722,
      "lng": 121.273056
    },
    {
      "cityName": "Subah",
      "lat": 6.323333,
      "lng": 120.573889
    },
    {
      "cityName": "Subasaba",
      "lat": 5.8295,
      "lng": 121.1383
    },
    {
      "cityName": "Subatandu",
      "lat": 5.940556,
      "lng": 120.877778
    },
    {
      "cityName": "Sucuban",
      "lat": 5.9182,
      "lng": 121.3485
    },
    {
      "cityName": "Sula",
      "lat": 6.2958,
      "lng": 120.5578
    },
    {
      "cityName": "Sumambat",
      "lat": 5.75,
      "lng": 120.916667
    },
    {
      "cityName": "Sungab",
      "lat": 5.878056,
      "lng": 121.281944
    },
    {
      "cityName": "Sungal",
      "lat": 6.083333,
      "lng": 121.083333
    },
    {
      "cityName": "Sungkal",
      "lat": 5.995278,
      "lng": 121.065556
    },
    {
      "cityName": "Suoc",
      "lat": 6.016667,
      "lng": 121.183333
    },
    {
      "cityName": "Tabialan",
      "lat": 6.0286,
      "lng": 121.8924
    },
    {
      "cityName": "Tabo Manok",
      "lat": 5.933333,
      "lng": 121.233333
    },
    {
      "cityName": "Tabon Sigumbal",
      "lat": 6.0851,
      "lng": 121.7774
    },
    {
      "cityName": "Tabu Kalang",
      "lat": 5.716667,
      "lng": 120.883333
    },
    {
      "cityName": "Tabukan",
      "lat": 6.2799,
      "lng": 120.5623
    },
    {
      "cityName": "Tabulian",
      "lat": 7.004444,
      "lng": 118.473889
    },
    {
      "cityName": "Tagbak",
      "lat": 6.0165,
      "lng": 120.9929
    },
    {
      "cityName": "Tagibi",
      "lat": 6.089167,
      "lng": 121.105278
    },
    {
      "cityName": "Taguias",
      "lat": 5.995833,
      "lng": 121.385556
    },
    {
      "cityName": "Talaclac",
      "lat": 6.0363,
      "lng": 120.9562
    },
    {
      "cityName": "Talatak",
      "lat": 5.538611,
      "lng": 120.840833
    },
    {
      "cityName": "Talipaw",
      "lat": 5.91,
      "lng": 121.094444
    },
    {
      "cityName": "Talisan",
      "lat": 5.581944,
      "lng": 120.84
    },
    {
      "cityName": "Talisay",
      "lat": 6.1178,
      "lng": 121.8256
    },
    {
      "cityName": "Talucap",
      "lat": 6.1184,
      "lng": 121.8428
    },
    {
      "cityName": "Tamba King",
      "lat": 5.926,
      "lng": 120.9946
    },
    {
      "cityName": "Tambobo",
      "lat": 6.1303,
      "lng": 121.8525
    },
    {
      "cityName": "Tambulian",
      "lat": 5.8711,
      "lng": 121.213
    },
    {
      "cityName": "Tambun Bubu",
      "lat": 6.1255,
      "lng": 121.8511
    },
    {
      "cityName": "Tampunai",
      "lat": 5.75,
      "lng": 120.933333
    },
    {
      "cityName": "Tandiara",
      "lat": 5.796389,
      "lng": 121.137222
    },
    {
      "cityName": "Tandinnoy",
      "lat": 6.0444,
      "lng": 120.9793
    },
    {
      "cityName": "Tandiung",
      "lat": 6.019722,
      "lng": 121.32
    },
    {
      "cityName": "Tandu'an",
      "lat": 7.005556,
      "lng": 118.462778
    },
    {
      "cityName": "Tandu Bagua",
      "lat": 6.078889,
      "lng": 121.032778
    },
    {
      "cityName": "Tandu Bnuga",
      "lat": 5.9275,
      "lng": 120.8846
    },
    {
      "cityName": "Tandu-dagmay",
      "lat": 6.082222,
      "lng": 121.015556
    },
    {
      "cityName": "Tandu Guso",
      "lat": 6.038611,
      "lng": 121.386667
    },
    {
      "cityName": "Tangan",
      "lat": 5.766667,
      "lng": 120.9
    },
    {
      "cityName": "Tangcapan",
      "lat": 5.719,
      "lng": 121.0209
    },
    {
      "cityName": "Tangkuan",
      "lat": 5.9628,
      "lng": 121.3537
    },
    {
      "cityName": "Tangluba",
      "lat": 5.9493,
      "lng": 121.3646
    },
    {
      "cityName": "Tanquique",
      "lat": 5.8,
      "lng": 121.216667
    },
    {
      "cityName": "Taong",
      "lat": 6.075,
      "lng": 121.140833
    },
    {
      "cityName": "Tapaan",
      "lat": 5.45,
      "lng": 120.733333
    },
    {
      "cityName": "Tapul",
      "lat": 5.706,
      "lng": 120.881
    },
    {
      "cityName": "Tara",
      "lat": 5.595833,
      "lng": 120.855278
    },
    {
      "cityName": "Taytayan",
      "lat": 5.808889,
      "lng": 121.2075
    },
    {
      "cityName": "Teomabal",
      "lat": 6.341944,
      "lng": 120.856389
    },
    {
      "cityName": "Tigbas",
      "lat": 5.9525,
      "lng": 121.4008
    },
    {
      "cityName": "Tiil",
      "lat": 5.9617,
      "lng": 121.3317
    },
    {
      "cityName": "Tiis",
      "lat": 5.955556,
      "lng": 121.073611
    },
    {
      "cityName": "Timaho",
      "lat": 5.944722,
      "lng": 121.174444
    },
    {
      "cityName": "Timahu",
      "lat": 6.0191,
      "lng": 120.921
    },
    {
      "cityName": "Timballing",
      "lat": 5.5796,
      "lng": 120.8451
    },
    {
      "cityName": "Timbayan",
      "lat": 5.896389,
      "lng": 121.315
    },
    {
      "cityName": "Timpak",
      "lat": 6.021111,
      "lng": 121.166111
    },
    {
      "cityName": "Tinah",
      "lat": 5.971111,
      "lng": 121.267778
    },
    {
      "cityName": "Tingcanan",
      "lat": 5.695278,
      "lng": 120.802778
    },
    {
      "cityName": "Tiptipon",
      "lat": 5.996944,
      "lng": 121.166389
    },
    {
      "cityName": "Tolansing",
      "lat": 5.6014,
      "lng": 120.8552
    },
    {
      "cityName": "Tompong",
      "lat": 5.6977,
      "lng": 120.8932
    },
    {
      "cityName": "Tongah Tong-Tong",
      "lat": 5.5015,
      "lng": 120.8598
    },
    {
      "cityName": "Tongasong",
      "lat": 6.3137,
      "lng": 120.6614
    },
    {
      "cityName": "Tong Bas",
      "lat": 6.2577,
      "lng": 120.574
    },
    {
      "cityName": "Tongol",
      "lat": 5.9218,
      "lng": 121.2634
    },
    {
      "cityName": "Tong Tara",
      "lat": 5.5905,
      "lng": 120.8575
    },
    {
      "cityName": "Tongtong",
      "lat": 6.1325,
      "lng": 120.884167
    },
    {
      "cityName": "Tubigan",
      "lat": 6.4294,
      "lng": 120.7834
    },
    {
      "cityName": "Tubig Buan",
      "lat": 5.54,
      "lng": 120.861944
    },
    {
      "cityName": "Tubig Dapdap",
      "lat": 5.831667,
      "lng": 121.159167
    },
    {
      "cityName": "Tubig Jati",
      "lat": 5.978333,
      "lng": 121.251389
    },
    {
      "cityName": "Tubig-Kambl",
      "lat": 5.943,
      "lng": 121.2862
    },
    {
      "cityName": "Tubig Kutah",
      "lat": 5.5108,
      "lng": 120.8845
    },
    {
      "cityName": "Tubig Lanut",
      "lat": 6.315833,
      "lng": 120.561111
    },
    {
      "cityName": "Tubig Maasin",
      "lat": 6.2436,
      "lng": 120.5329
    },
    {
      "cityName": "Tubig Nanok",
      "lat": 6.3602,
      "lng": 120.5538
    },
    {
      "cityName": "Tubig Nonok",
      "lat": 6.3075,
      "lng": 120.576389
    },
    {
      "cityName": "Tubig Pansol",
      "lat": 5.520556,
      "lng": 120.856111
    },
    {
      "cityName": "Tubig Parang",
      "lat": 5.944444,
      "lng": 120.965556
    },
    {
      "cityName": "Tubig Patong",
      "lat": 5.948333,
      "lng": 120.993611
    },
    {
      "cityName": "Tubig Petong",
      "lat": 6.303611,
      "lng": 120.564722
    },
    {
      "cityName": "Tubig Sallang",
      "lat": 6.3558,
      "lng": 120.5583
    },
    {
      "cityName": "Tubig Sua",
      "lat": 5.5202,
      "lng": 120.8244
    },
    {
      "cityName": "Tubig",
      "lat": 6.2815,
      "lng": 120.5394
    },
    {
      "cityName": "Tubig Zina",
      "lat": 5.533333,
      "lng": 120.75
    },
    {
      "cityName": "Tubli",
      "lat": 5.9122,
      "lng": 120.9636
    },
    {
      "cityName": "Tubod",
      "lat": 5.982778,
      "lng": 121.0975
    },
    {
      "cityName": "Tugas",
      "lat": 6.06,
      "lng": 121.0525
    },
    {
      "cityName": "Tukay",
      "lat": 5.922222,
      "lng": 120.956944
    },
    {
      "cityName": "Tulakan",
      "lat": 5.7187,
      "lng": 120.8838
    },
    {
      "cityName": "Tulayan",
      "lat": 6.02,
      "lng": 121.316111
    },
    {
      "cityName": "Tulling",
      "lat": 5.5631,
      "lng": 120.8325
    },
    {
      "cityName": "Tumangas",
      "lat": 5.932778,
      "lng": 120.889167
    },
    {
      "cityName": "Tumpok",
      "lat": 5.550833,
      "lng": 120.867222
    },
    {
      "cityName": "Tundaan",
      "lat": 5.783056,
      "lng": 121.150833
    },
    {
      "cityName": "Tunggol",
      "lat": 5.845833,
      "lng": 121.149444
    },
    {
      "cityName": "Tuung Ligid",
      "lat": 6.256944,
      "lng": 120.483333
    },
    {
      "cityName": "Tuup",
      "lat": 6.078889,
      "lng": 121.126944
    },
    {
      "cityName": "Tuyang",
      "lat": 5.921389,
      "lng": 121.1375
    },
    {
      "cityName": "Uba-Uba",
      "lat": 5.975671,
      "lng": 120.906877
    },
    {
      "cityName": "Umus Matahan",
      "lat": 7.029167,
      "lng": 118.467222
    },
    {
      "cityName": "Ungas Moluha",
      "lat": 5.45,
      "lng": 120.75
    },
    {
      "cityName": "Urat",
      "lat": 5.980278,
      "lng": 121.283056
    },
    {
      "cityName": "Usada",
      "lat": 6.1279,
      "lng": 120.5389
    },
    {
      "cityName": "Wani Tungkal",
      "lat": 5.9798,
      "lng": 120.9699
    },
    {
      "cityName": "Wanni Pianjihan",
      "lat": 5.942778,
      "lng": 120.918333
    }
  ]
}