{
  "name": "Lipetsk",
  "cities": [
    {
      "cityName": "Abazinka",
      "lat": 52.3711111,
      "lng": 40.1966667
    },
    {
      "cityName": "Abazinovka",
      "lat": 52.35,
      "lng": 40.4
    },
    {
      "cityName": "Abdulovo",
      "lat": 53.3025,
      "lng": 38.6288889
    },
    {
      "cityName": "Aberets",
      "lat": 52.5994444,
      "lng": 37.8044444
    },
    {
      "cityName": "Achkasovo",
      "lat": 52.5833333,
      "lng": 38.05
    },
    {
      "cityName": "Adonyevo",
      "lat": 52.7666667,
      "lng": 38.15
    },
    {
      "cityName": "Afanasyevo",
      "lat": 52.5808333,
      "lng": 38.2108333
    },
    {
      "cityName": "Afrikanka",
      "lat": 52.4313889,
      "lng": 40.2241667
    },
    {
      "cityName": "Afrosimovka",
      "lat": 52.1666667,
      "lng": 38.0833333
    },
    {
      "cityName": "Agronom",
      "lat": 53.0477778,
      "lng": 39.0372222
    },
    {
      "cityName": "Agzybovka",
      "lat": 52.1333333,
      "lng": 40.25
    },
    {
      "cityName": "Aksay",
      "lat": 52.25,
      "lng": 39.7166667
    },
    {
      "cityName": "Aladino",
      "lat": 52.9166667,
      "lng": 37.85
    },
    {
      "cityName": "Albychevo",
      "lat": 52.2436111,
      "lng": 40.2658333
    },
    {
      "cityName": "Aleksandro-Bibikovo",
      "lat": 52.0111111,
      "lng": 38.2238889
    },
    {
      "cityName": "Aleksandro-Bibikovskiye Vyselki",
      "lat": 52.0166667,
      "lng": 38.2666667
    },
    {
      "cityName": "Aleksandrovka",
      "lat": 52.0833333,
      "lng": 38.0333333
    },
    {
      "cityName": "Aleksandrovka Pervaya",
      "lat": 52.1344444,
      "lng": 40.3405556
    },
    {
      "cityName": "Aleksandrovka Vtoraya",
      "lat": 52.1325,
      "lng": 40.4030556
    },
    {
      "cityName": "Alekseyevka",
      "lat": 51.9605556,
      "lng": 40.4225
    },
    {
      "cityName": "Alekseyevskiy",
      "lat": 53.1872222,
      "lng": 38.6291667
    },
    {
      "cityName": "Alekseyevskiye Vyselki",
      "lat": 53.1069444,
      "lng": 38.9708333
    },
    {
      "cityName": "Alekseyevskiy Poselok",
      "lat": 53.4047222,
      "lng": 39.5319444
    },
    {
      "cityName": "Alekseyevskoye",
      "lat": 52.8208333,
      "lng": 39.5105556
    },
    {
      "cityName": "Alennaya",
      "lat": 52.2333333,
      "lng": 38.7333333
    },
    {
      "cityName": "Alennyy Verkh",
      "lat": 52.2166667,
      "lng": 38.7166667
    },
    {
      "cityName": "Aleshki",
      "lat": 52.1394444,
      "lng": 38.1027778
    },
    {
      "cityName": "Alinka",
      "lat": 52.5444444,
      "lng": 38.6902778
    },
    {
      "cityName": "Alisovo",
      "lat": 52.35,
      "lng": 38.7333333
    },
    {
      "cityName": "Almazovka",
      "lat": 53.4316667,
      "lng": 39.5847222
    },
    {
      "cityName": "Andreyevka",
      "lat": 52.1736111,
      "lng": 40.3469444
    },
    {
      "cityName": "Androsovka",
      "lat": 52.2380556,
      "lng": 39.9241667
    },
    {
      "cityName": "Anichkovo",
      "lat": 52.1483333,
      "lng": 40.3205556
    },
    {
      "cityName": "Annenskoye",
      "lat": 52.2433333,
      "lng": 38.2633333
    },
    {
      "cityName": "Anninka",
      "lat": 52.3333333,
      "lng": 39.65
    },
    {
      "cityName": "Annino",
      "lat": 52.2333333,
      "lng": 38.2833333
    },
    {
      "cityName": "Anyutina",
      "lat": 52.3833333,
      "lng": 38.4833333
    },
    {
      "cityName": "Apukhtina",
      "lat": 52.45,
      "lng": 38.85
    },
    {
      "cityName": "Argamach",
      "lat": 52.6333333,
      "lng": 38.5166667
    },
    {
      "cityName": "Argamachi",
      "lat": 52.6808333,
      "lng": 38.5952778
    },
    {
      "cityName": "Arkany",
      "lat": 52.3666667,
      "lng": 38.9333333
    },
    {
      "cityName": "Arkatovo",
      "lat": 52.6,
      "lng": 38.7666667
    },
    {
      "cityName": "Arkhangelsk",
      "lat": 52.55,
      "lng": 38.6
    },
    {
      "cityName": "Arkhangelskiye Borki",
      "lat": 52.4202778,
      "lng": 39.1686111
    },
    {
      "cityName": "Arkhangelskoye",
      "lat": 52.2008333,
      "lng": 38.7066667
    },
    {
      "cityName": "Arkhipovka",
      "lat": 52.2955556,
      "lng": 40.39
    },
    {
      "cityName": "Arkhisvyatka",
      "lat": 52.4044444,
      "lng": 40.2052778
    },
    {
      "cityName": "Arsentyevskiye",
      "lat": 52.7833333,
      "lng": 38.2
    },
    {
      "cityName": "Arsenyeva",
      "lat": 52.7333333,
      "lng": 38.2333333
    },
    {
      "cityName": "Arzybovka",
      "lat": 52.0927778,
      "lng": 39.5027778
    },
    {
      "cityName": "Aslamovo",
      "lat": 52.5166667,
      "lng": 38.15
    },
    {
      "cityName": "Astapovo",
      "lat": 53.2075,
      "lng": 39.5375
    },
    {
      "cityName": "Astashevka",
      "lat": 52.1452778,
      "lng": 40.1955556
    },
    {
      "cityName": "Astrevskiy",
      "lat": 52.4333333,
      "lng": 38.4
    },
    {
      "cityName": "Avrora",
      "lat": 52.3833333,
      "lng": 38.7833333
    },
    {
      "cityName": "Babarykino",
      "lat": 52.95,
      "lng": 38.25
    },
    {
      "cityName": "Bakhmetevka",
      "lat": 52.9694444,
      "lng": 38.0422222
    },
    {
      "cityName": "Bakhtiarovka",
      "lat": 52.7752778,
      "lng": 37.9977778
    },
    {
      "cityName": "Bakhtinka",
      "lat": 52.3,
      "lng": 38.3666667
    },
    {
      "cityName": "Balakhna",
      "lat": 52.2869444,
      "lng": 38.8586111
    },
    {
      "cityName": "Balashevo",
      "lat": 52.1952778,
      "lng": 39.8588889
    },
    {
      "cityName": "Balavinki",
      "lat": 53.4044444,
      "lng": 38.8288889
    },
    {
      "cityName": "Balovnevo",
      "lat": 53.2152778,
      "lng": 39.0469444
    },
    {
      "cityName": "Bandurovka",
      "lat": 52.8536111,
      "lng": 37.9569444
    },
    {
      "cityName": "Bannaya",
      "lat": 52.2166667,
      "lng": 38.1333333
    },
    {
      "cityName": "Baranova",
      "lat": 52.1833333,
      "lng": 40.3333333
    },
    {
      "cityName": "Baranovka",
      "lat": 52.4333333,
      "lng": 38.6333333
    },
    {
      "cityName": "Baranovo",
      "lat": 52.5519444,
      "lng": 38.1152778
    },
    {
      "cityName": "Bardenevka",
      "lat": 52.4833333,
      "lng": 40.0166667
    },
    {
      "cityName": "Baronovka",
      "lat": 52.6722222,
      "lng": 38.2072222
    },
    {
      "cityName": "Barsukovo",
      "lat": 52.9644444,
      "lng": 37.9036111
    },
    {
      "cityName": "Baryatino",
      "lat": 53.2658333,
      "lng": 39.5030556
    },
    {
      "cityName": "Basovka",
      "lat": 52.9333333,
      "lng": 38.3
    },
    {
      "cityName": "Batarovo",
      "lat": 53.0813889,
      "lng": 40.0194444
    },
    {
      "cityName": "Bayevka",
      "lat": 52.8833333,
      "lng": 38.3
    },
    {
      "cityName": "Baygora",
      "lat": 52.05,
      "lng": 39.9833333
    },
    {
      "cityName": "Bayshevo",
      "lat": 52.1833333,
      "lng": 40.6666667
    },
    {
      "cityName": "Begichevka",
      "lat": 53.5719444,
      "lng": 38.9077778
    },
    {
      "cityName": "Bekhteyevka",
      "lat": 52.1666667,
      "lng": 38.7666667
    },
    {
      "cityName": "Belevets",
      "lat": 52.7319444,
      "lng": 38.4672222
    },
    {
      "cityName": "Belokolodets",
      "lat": 52.4180556,
      "lng": 39.4416667
    },
    {
      "cityName": "Belonosovka",
      "lat": 51.9686111,
      "lng": 40.2772222
    },
    {
      "cityName": "Belyayevo",
      "lat": 51.9913889,
      "lng": 39.5352778
    },
    {
      "cityName": "Belyayevskiy",
      "lat": 51.9797222,
      "lng": 39.5152778
    },
    {
      "cityName": "Bereslavka",
      "lat": 52.2166667,
      "lng": 39.9166667
    },
    {
      "cityName": "Berezevskiye Vyselki",
      "lat": 53.3586111,
      "lng": 39.0283333
    },
    {
      "cityName": "Berezhki",
      "lat": 52.5319444,
      "lng": 37.9252778
    },
    {
      "cityName": "Bereznegovatka",
      "lat": 52.0644444,
      "lng": 40.3361111
    },
    {
      "cityName": "Berezovaya Roshcha",
      "lat": 52.8469444,
      "lng": 38.4886111
    },
    {
      "cityName": "Berezovka",
      "lat": 52.0113889,
      "lng": 38.3122222
    },
    {
      "cityName": "Bessonovka",
      "lat": 51.9780556,
      "lng": 39.9511111
    },
    {
      "cityName": "Bessonoye",
      "lat": 52.9833333,
      "lng": 39.3333333
    },
    {
      "cityName": "Bestuzhevo",
      "lat": 52.0666667,
      "lng": 39.2
    },
    {
      "cityName": "Bezvodnaya",
      "lat": 53.4236111,
      "lng": 39.4852778
    },
    {
      "cityName": "Bezymyanovka",
      "lat": 52.2666667,
      "lng": 39.8666667
    },
    {
      "cityName": "Bibikovo",
      "lat": 53.1241667,
      "lng": 38.7205556
    },
    {
      "cityName": "Bigildino",
      "lat": 53.3569444,
      "lng": 39.1502778
    },
    {
      "cityName": "Blagodat",
      "lat": 52.23,
      "lng": 40.3483333
    },
    {
      "cityName": "Bobarykino",
      "lat": 52.85,
      "lng": 39.15
    },
    {
      "cityName": "Bobrovka",
      "lat": 52.6833333,
      "lng": 38.1
    },
    {
      "cityName": "Bobyli",
      "lat": 52.9666667,
      "lng": 39.2666667
    },
    {
      "cityName": "Bochinovka",
      "lat": 52.0833333,
      "lng": 39.7666667
    },
    {
      "cityName": "Bochkovo",
      "lat": 52.85,
      "lng": 38.25
    },
    {
      "cityName": "Bodyayevka",
      "lat": 53.4327778,
      "lng": 39.1597222
    },
    {
      "cityName": "Bogatyye-Ploty",
      "lat": 52.3236111,
      "lng": 38.2194444
    },
    {
      "cityName": "Bogdanovo",
      "lat": 52.05,
      "lng": 37.95
    },
    {
      "cityName": "Bogokhranilovka",
      "lat": 52.6666667,
      "lng": 38.0833333
    },
    {
      "cityName": "Bogokhranimoye",
      "lat": 52.3166667,
      "lng": 40.2333333
    },
    {
      "cityName": "Bogolyubovka",
      "lat": 52.4,
      "lng": 40.2666667
    },
    {
      "cityName": "Bogoroditskoye",
      "lat": 52.25,
      "lng": 40
    },
    {
      "cityName": "Bogoroditskoye Tretye",
      "lat": 52.2716667,
      "lng": 40.3505556
    },
    {
      "cityName": "Bogoslovka",
      "lat": 53.25,
      "lng": 39.15
    },
    {
      "cityName": "Bogoslovo",
      "lat": 52.8666667,
      "lng": 38.4333333
    },
    {
      "cityName": "Bolkhovskoye",
      "lat": 52.4144444,
      "lng": 38.8733333
    },
    {
      "cityName": "Bolshaya Aleksandrovka",
      "lat": 52.5,
      "lng": 38.3833333
    },
    {
      "cityName": "Bolshaya Bayevka",
      "lat": 52.3908333,
      "lng": 38.5475
    },
    {
      "cityName": "Bolshaya Ivanovka",
      "lat": 52.15,
      "lng": 38.0166667
    },
    {
      "cityName": "Bolshaya Karpovka",
      "lat": 53.3077778,
      "lng": 39.5136111
    },
    {
      "cityName": "Bolshaya Khrushchevka",
      "lat": 53.3083333,
      "lng": 38.8266667
    },
    {
      "cityName": "Bolshaya Krutchinskaya",
      "lat": 52.0213889,
      "lng": 40.3927778
    },
    {
      "cityName": "Bolshaya Kuzminka",
      "lat": 52.7525,
      "lng": 39.7272222
    },
    {
      "cityName": "Bolshaya Lipunovka",
      "lat": 53.0441667,
      "lng": 39.6741667
    },
    {
      "cityName": "Bolshaya Peskovatka",
      "lat": 52.0227778,
      "lng": 39.7011111
    },
    {
      "cityName": "Bolshaya Plavitsa",
      "lat": 52.2011111,
      "lng": 40.3486111
    },
    {
      "cityName": "Bolshaya Polyana",
      "lat": 52.1330556,
      "lng": 38.6683333
    },
    {
      "cityName": "Bolshaya Ponarina",
      "lat": 52.3666667,
      "lng": 38.9
    },
    {
      "cityName": "Bolshaya Slepukha",
      "lat": 52.3316667,
      "lng": 38.6280556
    },
    {
      "cityName": "Bolshaya Slobodka",
      "lat": 52.7694444,
      "lng": 38.4302778
    },
    {
      "cityName": "Bolshaya Vershina",
      "lat": 52.1333333,
      "lng": 37.9166667
    },
    {
      "cityName": "Bolshaya Znamenka",
      "lat": 53.2869444,
      "lng": 39.3991667
    },
    {
      "cityName": "Bolshe-Kolodez",
      "lat": 52.2327778,
      "lng": 38.4697222
    },
    {
      "cityName": "Bolshiye Butyrki",
      "lat": 52.9455556,
      "lng": 37.9655556
    },
    {
      "cityName": "Bolshiye Izbishchi",
      "lat": 52.9619444,
      "lng": 39.3972222
    },
    {
      "cityName": "Bolshiye Izvaly",
      "lat": 52.55,
      "lng": 38.7605556
    },
    {
      "cityName": "Bolshiye Otrozhki",
      "lat": 52.1,
      "lng": 40.3333333
    },
    {
      "cityName": "Bolshiye Vyselki",
      "lat": 52.9458333,
      "lng": 38.4063889
    },
    {
      "cityName": "Bolshovka",
      "lat": 52.0086111,
      "lng": 38.0919444
    },
    {
      "cityName": "Bolshoy Dol",
      "lat": 52.2955556,
      "lng": 39.0741667
    },
    {
      "cityName": "Bolshoye",
      "lat": 51.9813889,
      "lng": 37.8852778
    },
    {
      "cityName": "Bolshoye Popovo",
      "lat": 52.915,
      "lng": 39.0825
    },
    {
      "cityName": "Bolshoye Samove",
      "lat": 52.5419444,
      "lng": 39.9422222
    },
    {
      "cityName": "Bolshoy Khomutets",
      "lat": 52.7880556,
      "lng": 39.8788889
    },
    {
      "cityName": "Bolshoy Mechek",
      "lat": 52.25,
      "lng": 39.3333333
    },
    {
      "cityName": "Bolshoy Snezhetok",
      "lat": 53.2325,
      "lng": 40.0675
    },
    {
      "cityName": "Bolshoy Verkh",
      "lat": 53.1,
      "lng": 38.7455556
    },
    {
      "cityName": "Bolynkovka",
      "lat": 52.0388889,
      "lng": 38.4911111
    },
    {
      "cityName": "Borinskiye Zavody",
      "lat": 52.4555556,
      "lng": 39.3708333
    },
    {
      "cityName": "Borisovka",
      "lat": 52.8388889,
      "lng": 39.9794444
    },
    {
      "cityName": "Borisovo",
      "lat": 52.9833333,
      "lng": 38.5166667
    },
    {
      "cityName": "Borki",
      "lat": 52.1580556,
      "lng": 38.1144444
    },
    {
      "cityName": "Borkovo",
      "lat": 52.0666667,
      "lng": 37.8333333
    },
    {
      "cityName": "Borodinovka",
      "lat": 52.8333333,
      "lng": 38.3166667
    },
    {
      "cityName": "Borovki",
      "lat": 52.95,
      "lng": 38.4666667
    },
    {
      "cityName": "Borovoye",
      "lat": 52.2002778,
      "lng": 39.5047222
    },
    {
      "cityName": "Borovskoye",
      "lat": 52.5833333,
      "lng": 39.7166667
    },
    {
      "cityName": "Borovtsevo",
      "lat": 53.0838889,
      "lng": 38.7588889
    },
    {
      "cityName": "Borshchevka Godsudarstennaya",
      "lat": 53.5647222,
      "lng": 39.7488889
    },
    {
      "cityName": "Bratovka",
      "lat": 53.3486111,
      "lng": 39.9719444
    },
    {
      "cityName": "Bratovshchina",
      "lat": 52.3,
      "lng": 38.3333333
    },
    {
      "cityName": "Bredikhino",
      "lat": 52.8333333,
      "lng": 38.8833333
    },
    {
      "cityName": "Brevennaya",
      "lat": 53.3127778,
      "lng": 39.0197222
    },
    {
      "cityName": "Brodki",
      "lat": 52.8166667,
      "lng": 38.4666667
    },
    {
      "cityName": "Brusentsevo",
      "lat": 52.4,
      "lng": 38.5666667
    },
    {
      "cityName": "Bruslanovka",
      "lat": 52.6052778,
      "lng": 39.2827778
    },
    {
      "cityName": "Brusy",
      "lat": 53.2263889,
      "lng": 38.9902778
    },
    {
      "cityName": "Bryanovka",
      "lat": 52.4333333,
      "lng": 38.3333333
    },
    {
      "cityName": "Bryantsevo",
      "lat": 52.9333333,
      "lng": 38.8
    },
    {
      "cityName": "Budarovka",
      "lat": 52.0930556,
      "lng": 38.7338889
    },
    {
      "cityName": "Budy",
      "lat": 52.8152778,
      "lng": 38.9044444
    },
    {
      "cityName": "Bugarki",
      "lat": 52.2766667,
      "lng": 40.3652778
    },
    {
      "cityName": "Bugorki",
      "lat": 52.1988889,
      "lng": 40.4580556
    },
    {
      "cityName": "Bugorovka",
      "lat": 52.9244444,
      "lng": 38.0308333
    },
    {
      "cityName": "Bukhovo",
      "lat": 53.0602778,
      "lng": 39.9586111
    },
    {
      "cityName": "Bukhovskiye Vyselki",
      "lat": 53.1316667,
      "lng": 39.7947222
    },
    {
      "cityName": "Bukhtiyarovo",
      "lat": 52.55,
      "lng": 38.2333333
    },
    {
      "cityName": "Bulavki",
      "lat": 53.2897222,
      "lng": 39.6127778
    },
    {
      "cityName": "Burdeno",
      "lat": 52.1458333,
      "lng": 38.4711111
    },
    {
      "cityName": "Burelom",
      "lat": 52.3333333,
      "lng": 38.5
    },
    {
      "cityName": "Butyrka",
      "lat": 52.7833333,
      "lng": 38.4166667
    },
    {
      "cityName": "Butyrki",
      "lat": 52.5486111,
      "lng": 38.9580556
    },
    {
      "cityName": "Bychki",
      "lat": 53.2655556,
      "lng": 39.5819444
    },
    {
      "cityName": "Bykovka",
      "lat": 52.5341667,
      "lng": 38.4844444
    },
    {
      "cityName": "Bykovo",
      "lat": 52.5072222,
      "lng": 37.9483333
    },
    {
      "cityName": "Chaadayevka",
      "lat": 52.2666667,
      "lng": 38.6333333
    },
    {
      "cityName": "Chamlyk-Nikolskoye",
      "lat": 52.0436111,
      "lng": 40.5791667
    },
    {
      "cityName": "Chaplygina",
      "lat": 52.6833333,
      "lng": 38.1969444
    },
    {
      "cityName": "Chaplygin",
      "lat": 53.2413889,
      "lng": 39.9583333
    },
    {
      "cityName": "Chastaya Dubrava",
      "lat": 52.5455556,
      "lng": 39.2727778
    },
    {
      "cityName": "Chebotarevka",
      "lat": 52.2333333,
      "lng": 40.3666667
    },
    {
      "cityName": "Checherskiy",
      "lat": 53.1425,
      "lng": 39.5497222
    },
    {
      "cityName": "Chechery",
      "lat": 52.7880556,
      "lng": 39.9561111
    },
    {
      "cityName": "Chemlyk-Talskiy",
      "lat": 52.0433333,
      "lng": 40.5513889
    },
    {
      "cityName": "Chemodanovo",
      "lat": 53.0277778,
      "lng": 37.9902778
    },
    {
      "cityName": "Cherepyan",
      "lat": 52.8,
      "lng": 39.1666667
    },
    {
      "cityName": "Cherkasskiye",
      "lat": 52.6347222,
      "lng": 38.7730556
    },
    {
      "cityName": "Cherkassy",
      "lat": 52.6975,
      "lng": 38.7230556
    },
    {
      "cityName": "Cherkesy",
      "lat": 52.7166667,
      "lng": 38.9833333
    },
    {
      "cityName": "Chermoshnoye",
      "lat": 52.6594444,
      "lng": 37.8625
    },
    {
      "cityName": "Chernava",
      "lat": 52.4913889,
      "lng": 38.0502778
    },
    {
      "cityName": "Chernava-Pyatnitskoye",
      "lat": 52.4794444,
      "lng": 38.0361111
    },
    {
      "cityName": "Chernavka",
      "lat": 52.7833333,
      "lng": 38.85
    },
    {
      "cityName": "Chernichek",
      "lat": 52.2333333,
      "lng": 39.8
    },
    {
      "cityName": "Chernigovka",
      "lat": 52.5013889,
      "lng": 39.0880556
    },
    {
      "cityName": "Chernik",
      "lat": 52.5819444,
      "lng": 37.9897222
    },
    {
      "cityName": "Chernikovo",
      "lat": 52.35,
      "lng": 38.55
    },
    {
      "cityName": "Chernoles",
      "lat": 52.9269444,
      "lng": 38.4658333
    },
    {
      "cityName": "Chernoleska",
      "lat": 52.9833333,
      "lng": 38.2833333
    },
    {
      "cityName": "Chernova",
      "lat": 52.4955556,
      "lng": 38.0538889
    },
    {
      "cityName": "Cherny",
      "lat": 52.1166667,
      "lng": 40.2
    },
    {
      "cityName": "Chernyshevka",
      "lat": 52.4833333,
      "lng": 38.45
    },
    {
      "cityName": "Chernyy Kolodez",
      "lat": 52.7527778,
      "lng": 38.9527778
    },
    {
      "cityName": "Chertovo",
      "lat": 52.4166667,
      "lng": 38.4333333
    },
    {
      "cityName": "Chesnochnoye",
      "lat": 51.9166667,
      "lng": 38.0833333
    },
    {
      "cityName": "Chestnyy Pakhar",
      "lat": 52.4552778,
      "lng": 38.6322222
    },
    {
      "cityName": "Chibisovka",
      "lat": 52.55,
      "lng": 39.9833333
    },
    {
      "cityName": "Chicherino",
      "lat": 52.8097222,
      "lng": 38.2063889
    },
    {
      "cityName": "Chigadayevo",
      "lat": 52.2105556,
      "lng": 38.7925
    },
    {
      "cityName": "Chintsovo",
      "lat": 52.8738889,
      "lng": 38.4361111
    },
    {
      "cityName": "Chuguyevka",
      "lat": 52.8666667,
      "lng": 38.0666667
    },
    {
      "cityName": "Chulkovo",
      "lat": 52.5666667,
      "lng": 38.3166667
    },
    {
      "cityName": "Chuyevka",
      "lat": 52.1747222,
      "lng": 40.4788889
    },
    {
      "cityName": "Dacha",
      "lat": 52.2,
      "lng": 38.5333333
    },
    {
      "cityName": "Dachnyy Poselok",
      "lat": 53.3697222,
      "lng": 40.0361111
    },
    {
      "cityName": "Dalniy",
      "lat": 52.9666667,
      "lng": 39.95
    },
    {
      "cityName": "Danilovka",
      "lat": 52.0166667,
      "lng": 38.3
    },
    {
      "cityName": "Danilovo",
      "lat": 52.2,
      "lng": 40.2
    },
    {
      "cityName": "Dankov",
      "lat": 53.2516667,
      "lng": 39.1477778
    },
    {
      "cityName": "Dankovka",
      "lat": 51.9547222,
      "lng": 40.3052778
    },
    {
      "cityName": "Danshino",
      "lat": 52.3222222,
      "lng": 39.0847222
    },
    {
      "cityName": "Darenovka",
      "lat": 52.7833333,
      "lng": 39.5333333
    },
    {
      "cityName": "Dashina",
      "lat": 53.535,
      "lng": 39.8744444
    },
    {
      "cityName": "Davydovka",
      "lat": 52.765,
      "lng": 39.5875
    },
    {
      "cityName": "Davydovo",
      "lat": 53.2833333,
      "lng": 38.6333333
    },
    {
      "cityName": "Debri",
      "lat": 52.35,
      "lng": 40.05
    },
    {
      "cityName": "Degtevoye",
      "lat": 52.25,
      "lng": 38.8666667
    },
    {
      "cityName": "Degtyari",
      "lat": 52.9944444,
      "lng": 39.5680556
    },
    {
      "cityName": "Delikhovoye",
      "lat": 53.0366667,
      "lng": 39.8475
    },
    {
      "cityName": "Delikhovskiye Vyselki",
      "lat": 53.0297222,
      "lng": 39.8375
    },
    {
      "cityName": "Demitryashevka",
      "lat": 52.1569444,
      "lng": 39.0686111
    },
    {
      "cityName": "Demkino",
      "lat": 53.0841667,
      "lng": 39.9677778
    },
    {
      "cityName": "Demkinskiy",
      "lat": 53.1547222,
      "lng": 39.5338889
    },
    {
      "cityName": "Demshinka",
      "lat": 51.9911111,
      "lng": 40.1591667
    },
    {
      "cityName": "Demshino",
      "lat": 52.1166667,
      "lng": 39.5333333
    },
    {
      "cityName": "Demshinsk",
      "lat": 52.1130556,
      "lng": 40.3216667
    },
    {
      "cityName": "Demshinsko-Predtechinskoye",
      "lat": 52.15,
      "lng": 39.6666667
    },
    {
      "cityName": "Demyanovka",
      "lat": 53.3,
      "lng": 38.7833333
    },
    {
      "cityName": "Denisovka",
      "lat": 53.4666667,
      "lng": 39.6
    },
    {
      "cityName": "Denisovo",
      "lat": 52.5111111,
      "lng": 38.1547222
    },
    {
      "cityName": "Denisyevo",
      "lat": 53.3463889,
      "lng": 39.6505556
    },
    {
      "cityName": "Derezovka",
      "lat": 52.2,
      "lng": 39.0333333
    },
    {
      "cityName": "Dernovka",
      "lat": 52.4308333,
      "lng": 38.5088889
    },
    {
      "cityName": "Devitsa",
      "lat": 52.0013889,
      "lng": 39.8072222
    },
    {
      "cityName": "Devyatoye Yanvarya",
      "lat": 51.9369444,
      "lng": 38.0883333
    },
    {
      "cityName": "Dikoporozhye",
      "lat": 52.6833333,
      "lng": 39.25
    },
    {
      "cityName": "Dmitriyevka",
      "lat": 52.2913889,
      "lng": 39.9455556
    },
    {
      "cityName": "Dmitriyevskiy",
      "lat": 52.25,
      "lng": 38.05
    },
    {
      "cityName": "Dmitriyevskoye",
      "lat": 52.9788889,
      "lng": 38.9727778
    },
    {
      "cityName": "Dmitrova",
      "lat": 51.9258333,
      "lng": 38.0583333
    },
    {
      "cityName": "Dmitrovka",
      "lat": 52.7469444,
      "lng": 38.1488889
    },
    {
      "cityName": "Dmitryashevskiye Vyselki",
      "lat": 52.1,
      "lng": 38.9333333
    },
    {
      "cityName": "Dobrinka",
      "lat": 52.1652778,
      "lng": 40.4730556
    },
    {
      "cityName": "Dobroye",
      "lat": 52.8602778,
      "lng": 39.8094444
    },
    {
      "cityName": "Doktorovo",
      "lat": 52.7927778,
      "lng": 39.045
    },
    {
      "cityName": "Dolgorukovo",
      "lat": 52.3088889,
      "lng": 38.3383333
    },
    {
      "cityName": "Dolgoye",
      "lat": 52.5308333,
      "lng": 38.3680556
    },
    {
      "cityName": "Dolgusha",
      "lat": 52.2958333,
      "lng": 38.6822222
    },
    {
      "cityName": "Domachi",
      "lat": 53.3425,
      "lng": 39.4447222
    },
    {
      "cityName": "Domoviny",
      "lat": 52.7,
      "lng": 38.2
    },
    {
      "cityName": "Don",
      "lat": 52.0833333,
      "lng": 38.9666667
    },
    {
      "cityName": "Don-Izbishche",
      "lat": 52.8477778,
      "lng": 39.0336111
    },
    {
      "cityName": "Don-Negachevka",
      "lat": 52.0530556,
      "lng": 39.0936111
    },
    {
      "cityName": "Donskoy",
      "lat": 52.8666667,
      "lng": 38.8
    },
    {
      "cityName": "Donskoye",
      "lat": 52.6208333,
      "lng": 38.9741667
    },
    {
      "cityName": "Donskoye Pervoye",
      "lat": 52.7816667,
      "lng": 38.9647222
    },
    {
      "cityName": "Dorofeyevka",
      "lat": 52.1,
      "lng": 38.1833333
    },
    {
      "cityName": "Drezgalovo",
      "lat": 52.75,
      "lng": 38.8166667
    },
    {
      "cityName": "Drobyshevo",
      "lat": 52.1669444,
      "lng": 37.8933333
    },
    {
      "cityName": "Dryazgi",
      "lat": 52.2844444,
      "lng": 39.7822222
    },
    {
      "cityName": "Dubenka",
      "lat": 52.35,
      "lng": 40.15
    },
    {
      "cityName": "Dubinino",
      "lat": 53.0444444,
      "lng": 39.3236111
    },
    {
      "cityName": "Dubki",
      "lat": 52.6166667,
      "lng": 38.1333333
    },
    {
      "cityName": "Dubovets",
      "lat": 52.2733333,
      "lng": 38.1913889
    },
    {
      "cityName": "Dubovitskaya",
      "lat": 52.9016667,
      "lng": 38.6013889
    },
    {
      "cityName": "Dubovka",
      "lat": 52.3822222,
      "lng": 40.3075
    },
    {
      "cityName": "Dubovskiye Khutora",
      "lat": 52.25,
      "lng": 39.0666667
    },
    {
      "cityName": "Dubrachevo",
      "lat": 52.8333333,
      "lng": 38.45
    },
    {
      "cityName": "Dubrava",
      "lat": 52.4,
      "lng": 39.8666667
    },
    {
      "cityName": "Dubrovka",
      "lat": 51.9908333,
      "lng": 38.1883333
    },
    {
      "cityName": "Dubrovo",
      "lat": 52.18,
      "lng": 38.5216667
    },
    {
      "cityName": "Durovo",
      "lat": 52.2136111,
      "lng": 40.2241667
    },
    {
      "cityName": "Durovshchino",
      "lat": 53.4355556,
      "lng": 39.8486111
    },
    {
      "cityName": "Dvurechki",
      "lat": 52.4536111,
      "lng": 39.6494444
    },
    {
      "cityName": "Fashchevka",
      "lat": 52.4597222,
      "lng": 39.6963889
    },
    {
      "cityName": "Fedorovka",
      "lat": 52.0636111,
      "lng": 38.0288889
    },
    {
      "cityName": "Fedyanino",
      "lat": 53.0044444,
      "lng": 38.6641667
    },
    {
      "cityName": "Feodorovka",
      "lat": 52.8666667,
      "lng": 38.5333333
    },
    {
      "cityName": "Filatovka",
      "lat": 52.7666667,
      "lng": 39.7166667
    },
    {
      "cityName": "Filinki",
      "lat": 52.9,
      "lng": 38.35
    },
    {
      "cityName": "Fomina Negachevka",
      "lat": 52.0405556,
      "lng": 39.0630556
    },
    {
      "cityName": "Fominka",
      "lat": 52.55,
      "lng": 38.45
    },
    {
      "cityName": "Gagarino",
      "lat": 52.1427778,
      "lng": 40.6088889
    },
    {
      "cityName": "Gagarinskiy",
      "lat": 53.3455556,
      "lng": 39.7027778
    },
    {
      "cityName": "Gagino",
      "lat": 53.35,
      "lng": 39.6333333
    },
    {
      "cityName": "Gai",
      "lat": 53.25,
      "lng": 40
    },
    {
      "cityName": "Galchiya Gora",
      "lat": 52.6002778,
      "lng": 38.9036111
    },
    {
      "cityName": "Galygino",
      "lat": 53.2636111,
      "lng": 39.3794444
    },
    {
      "cityName": "Gastevka",
      "lat": 52.9169444,
      "lng": 37.9519444
    },
    {
      "cityName": "Gatishche",
      "lat": 52.2166667,
      "lng": 37.9441667
    },
    {
      "cityName": "Georgiyevka",
      "lat": 51.9825,
      "lng": 40.3147222
    },
    {
      "cityName": "Georgiyevskoye",
      "lat": 52.9077778,
      "lng": 38.3416667
    },
    {
      "cityName": "Glebovka",
      "lat": 52.85,
      "lng": 38.3833333
    },
    {
      "cityName": "Glotovo",
      "lat": 52.7716667,
      "lng": 38.0072222
    },
    {
      "cityName": "Glotovo-Vasilyevka Tretya",
      "lat": 52.7666667,
      "lng": 38
    },
    {
      "cityName": "Glumovo",
      "lat": 53.0333333,
      "lng": 38.0166667
    },
    {
      "cityName": "Glunitsa",
      "lat": 52.5,
      "lng": 38.3
    },
    {
      "cityName": "Gnidovka",
      "lat": 53.3,
      "lng": 39.85
    },
    {
      "cityName": "Gnilovody",
      "lat": 52.5269444,
      "lng": 37.8680556
    },
    {
      "cityName": "Gniloye",
      "lat": 53.0680556,
      "lng": 39.325
    },
    {
      "cityName": "Gnilusha",
      "lat": 52.3225,
      "lng": 39.085
    },
    {
      "cityName": "Golikovo",
      "lat": 52.6958333,
      "lng": 38.8338889
    },
    {
      "cityName": "Gololobovo",
      "lat": 52.995,
      "lng": 38.7447222
    },
    {
      "cityName": "Golovinovka",
      "lat": 52.1913889,
      "lng": 38.2655556
    },
    {
      "cityName": "Golovinshchino",
      "lat": 53.1925,
      "lng": 39.6419444
    },
    {
      "cityName": "Golovshchino",
      "lat": 52.6213889,
      "lng": 39.8836111
    },
    {
      "cityName": "Golozhokhovo",
      "lat": 53.0791667,
      "lng": 39.6002778
    },
    {
      "cityName": "Golubovka",
      "lat": 52.5333333,
      "lng": 38.5833333
    },
    {
      "cityName": "Gorbachevka",
      "lat": 53.3361111,
      "lng": 39.9477778
    },
    {
      "cityName": "Gorchakovka",
      "lat": 51.9161111,
      "lng": 38.1138889
    },
    {
      "cityName": "Gordinin",
      "lat": 52.2833333,
      "lng": 39.35
    },
    {
      "cityName": "Goritsy",
      "lat": 52.7725,
      "lng": 39.8125
    },
    {
      "cityName": "Gorlovo",
      "lat": 53.5761111,
      "lng": 39.7469444
    },
    {
      "cityName": "Gorodki",
      "lat": 53.2608333,
      "lng": 38.9527778
    },
    {
      "cityName": "Goryushki",
      "lat": 53.4163889,
      "lng": 39.8944444
    },
    {
      "cityName": "Grachevka",
      "lat": 51.9547222,
      "lng": 38.1905556
    },
    {
      "cityName": "Grekovo",
      "lat": 53.3222222,
      "lng": 38.5983333
    },
    {
      "cityName": "Grekovskiy",
      "lat": 53.1991667,
      "lng": 38.6
    },
    {
      "cityName": "Greshenka",
      "lat": 52.8919444,
      "lng": 37.9752778
    },
    {
      "cityName": "Griboyedovo",
      "lat": 52.3786111,
      "lng": 38.4011111
    },
    {
      "cityName": "Grinevka",
      "lat": 52.1666667,
      "lng": 37.9166667
    },
    {
      "cityName": "Grunin-Vargol",
      "lat": 52.8533333,
      "lng": 38.2605556
    },
    {
      "cityName": "Grushevka",
      "lat": 52.3333333,
      "lng": 38.5833333
    },
    {
      "cityName": "Gryasi",
      "lat": 52.4916667,
      "lng": 39.9436111
    },
    {
      "cityName": "Gryaznovka",
      "lat": 52.2566667,
      "lng": 38.0788889
    },
    {
      "cityName": "Gryaznovo",
      "lat": 52.8105556,
      "lng": 39.2402778
    },
    {
      "cityName": "Gryaznoye",
      "lat": 52.3619444,
      "lng": 39.3811111
    },
    {
      "cityName": "Gryzlovo",
      "lat": 52.4388889,
      "lng": 38.1991667
    },
    {
      "cityName": "Gubino",
      "lat": 52.1052778,
      "lng": 40.1919444
    },
    {
      "cityName": "Gubyata",
      "lat": 52.95,
      "lng": 38.1166667
    },
    {
      "cityName": "Gudalovka",
      "lat": 52.3166667,
      "lng": 38.3833333
    },
    {
      "cityName": "Gudbok",
      "lat": 53,
      "lng": 39.6833333
    },
    {
      "cityName": "Gudovka",
      "lat": 52.2333333,
      "lng": 38.9333333
    },
    {
      "cityName": "Gudovo",
      "lat": 52.9902778,
      "lng": 39.8058333
    },
    {
      "cityName": "Guguyevka",
      "lat": 53.4333333,
      "lng": 38.9833333
    },
    {
      "cityName": "Gulyaka",
      "lat": 52.9980556,
      "lng": 37.9538889
    },
    {
      "cityName": "Gulyayevka",
      "lat": 52.1833333,
      "lng": 38.8166667
    },
    {
      "cityName": "Guryeva",
      "lat": 52.8375,
      "lng": 37.965
    },
    {
      "cityName": "Guryevskiy",
      "lat": 52.8283333,
      "lng": 38.0083333
    },
    {
      "cityName": "Gusevka",
      "lat": 52.7,
      "lng": 39.2666667
    },
    {
      "cityName": "Gushchinka",
      "lat": 52.2833333,
      "lng": 38.2333333
    },
    {
      "cityName": "Gushchinskiy",
      "lat": 52.7166667,
      "lng": 38.25
    },
    {
      "cityName": "Ignatyevskiy",
      "lat": 53.4727778,
      "lng": 38.8866667
    },
    {
      "cityName": "Ilicha",
      "lat": 52.2575,
      "lng": 40.5563889
    },
    {
      "cityName": "Ilinc",
      "lat": 52.7213889,
      "lng": 39.6705556
    },
    {
      "cityName": "Ilinka",
      "lat": 52.3369444,
      "lng": 38.3538889
    },
    {
      "cityName": "Ilinki",
      "lat": 53.2719444,
      "lng": 38.7905556
    },
    {
      "cityName": "Imeni Lenina",
      "lat": 53.1988889,
      "lng": 38.9533333
    },
    {
      "cityName": "Imeni Maksima Gorikogo",
      "lat": 53.2469444,
      "lng": 39.3063889
    },
    {
      "cityName": "Inikhovo",
      "lat": 53.3175,
      "lng": 38.8119444
    },
    {
      "cityName": "Initsiator",
      "lat": 53.0836111,
      "lng": 39.5
    },
    {
      "cityName": "Inshakovka",
      "lat": 52.95,
      "lng": 39.0333333
    },
    {
      "cityName": "Isayevka",
      "lat": 52.2833333,
      "lng": 38.5333333
    },
    {
      "cityName": "Ishchaino",
      "lat": 52.9583333,
      "lng": 38.8030556
    },
    {
      "cityName": "Ishcheino-Dubrovo",
      "lat": 52.9166667,
      "lng": 38.8166667
    },
    {
      "cityName": "Islenyeva",
      "lat": 53.51,
      "lng": 38.7219444
    },
    {
      "cityName": "Ismaylovo",
      "lat": 53.3822222,
      "lng": 38.8219444
    },
    {
      "cityName": "Istobino",
      "lat": 53.1472222,
      "lng": 39.9713889
    },
    {
      "cityName": "Ivanitskoye",
      "lat": 52.6,
      "lng": 38.2666667
    },
    {
      "cityName": "Ivanovka",
      "lat": 52.0333333,
      "lng": 38.1166667
    },
    {
      "cityName": "Ivanovo",
      "lat": 52,
      "lng": 40.05
    },
    {
      "cityName": "Ivanovskoye",
      "lat": 53.5333333,
      "lng": 39.8833333
    },
    {
      "cityName": "Ivovo",
      "lat": 52.6925,
      "lng": 39.0863889
    },
    {
      "cityName": "Izlegoshcha",
      "lat": 52.1197222,
      "lng": 39.3697222
    },
    {
      "cityName": "Izmalkovo",
      "lat": 52.6897222,
      "lng": 37.9644444
    },
    {
      "cityName": "Jelez",
      "lat": 52.6133333,
      "lng": 38.5202778
    },
    {
      "cityName": "Kabachek",
      "lat": 52.85,
      "lng": 38.3666667
    },
    {
      "cityName": "Kadikino",
      "lat": 52.95,
      "lng": 39.8280556
    },
    {
      "cityName": "Kagaki",
      "lat": 52.6333333,
      "lng": 38.2719444
    },
    {
      "cityName": "Kalabino",
      "lat": 52.1666667,
      "lng": 37.8166667
    },
    {
      "cityName": "Kalinin",
      "lat": 52.1936111,
      "lng": 40.5430556
    },
    {
      "cityName": "Kalinino",
      "lat": 52.7280556,
      "lng": 39.035
    },
    {
      "cityName": "Kalininskiy",
      "lat": 53.0455556,
      "lng": 38.94
    },
    {
      "cityName": "Kalininskoye",
      "lat": 53.0141667,
      "lng": 40.0491667
    },
    {
      "cityName": "Kalinovka",
      "lat": 52.1333333,
      "lng": 40.4333333
    },
    {
      "cityName": "Kamenka",
      "lat": 52.1219444,
      "lng": 38.7616667
    },
    {
      "cityName": "Kamennaya Lubna",
      "lat": 52.7727778,
      "lng": 39.1222222
    },
    {
      "cityName": "Kamennoye",
      "lat": 52.5333333,
      "lng": 39.8833333
    },
    {
      "cityName": "Kamenny",
      "lat": 52.9558333,
      "lng": 39.6605556
    },
    {
      "cityName": "Kamenskiy",
      "lat": 52.4358333,
      "lng": 38.6844444
    },
    {
      "cityName": "Kamen Verkhniy",
      "lat": 52.9666667,
      "lng": 38.2833333
    },
    {
      "cityName": "Kamyshevka",
      "lat": 52.3997222,
      "lng": 39.0972222
    },
    {
      "cityName": "Kapitanshchina",
      "lat": 52.7169444,
      "lng": 39.7922222
    },
    {
      "cityName": "Karamyshevo",
      "lat": 52.3672222,
      "lng": 39.4558333
    },
    {
      "cityName": "Kareyevka",
      "lat": 53.5,
      "lng": 39.5833333
    },
    {
      "cityName": "Karpovka",
      "lat": 52.9333333,
      "lng": 38.0333333
    },
    {
      "cityName": "Kartashevka",
      "lat": 52.1538889,
      "lng": 38.6188889
    },
    {
      "cityName": "Kashary",
      "lat": 52.4666667,
      "lng": 38.95
    },
    {
      "cityName": "Kashirka",
      "lat": 52.6,
      "lng": 39.25
    },
    {
      "cityName": "Kasimovka",
      "lat": 52.7,
      "lng": 38.5833333
    },
    {
      "cityName": "Kasimov",
      "lat": 52.9613889,
      "lng": 39.5972222
    },
    {
      "cityName": "Kasinka",
      "lat": 52.5422222,
      "lng": 39.8175
    },
    {
      "cityName": "Katarayevo",
      "lat": 53.5338889,
      "lng": 39.0283333
    },
    {
      "cityName": "Kaverino",
      "lat": 51.9883333,
      "lng": 40.4291667
    },
    {
      "cityName": "Kazakovo",
      "lat": 52.0666667,
      "lng": 37.9833333
    },
    {
      "cityName": "Kazanka",
      "lat": 52.1333333,
      "lng": 37.8
    },
    {
      "cityName": "Kazenka",
      "lat": 52.4333333,
      "lng": 38.5
    },
    {
      "cityName": "Kazeyevo",
      "lat": 52.5788889,
      "lng": 38.2602778
    },
    {
      "cityName": "Kazinka",
      "lat": 52.0716667,
      "lng": 38.4011111
    },
    {
      "cityName": "Kazino",
      "lat": 52.5891667,
      "lng": 39.14
    },
    {
      "cityName": "Kesorovka",
      "lat": 52.85,
      "lng": 38.05
    },
    {
      "cityName": "Keyzova",
      "lat": 52.285,
      "lng": 38.9488889
    },
    {
      "cityName": "Khaneyevka",
      "lat": 53.35,
      "lng": 39.2666667
    },
    {
      "cityName": "Kharlamovka",
      "lat": 52.2833333,
      "lng": 38.3666667
    },
    {
      "cityName": "Khavan",
      "lat": 52.0333333,
      "lng": 37.75
    },
    {
      "cityName": "Khavenka",
      "lat": 53.1313889,
      "lng": 40.0291667
    },
    {
      "cityName": "Khitrovo",
      "lat": 52.1,
      "lng": 37.9666667
    },
    {
      "cityName": "Khitrovskiye Prudki",
      "lat": 53.4977778,
      "lng": 38.8719444
    },
    {
      "cityName": "Khitroye",
      "lat": 52.45,
      "lng": 38.2333333
    },
    {
      "cityName": "Khlebnoye",
      "lat": 52.2011111,
      "lng": 39.0919444
    },
    {
      "cityName": "Khleboroby",
      "lat": 52.3166667,
      "lng": 39.8166667
    },
    {
      "cityName": "Khmelenets",
      "lat": 52.6547222,
      "lng": 38.4436111
    },
    {
      "cityName": "Khmelevaya na Sosne",
      "lat": 52.4166667,
      "lng": 37.9833333
    },
    {
      "cityName": "Khmelevka",
      "lat": 52.8916667,
      "lng": 39.2166667
    },
    {
      "cityName": "Khmelevoye",
      "lat": 52.5158333,
      "lng": 38.2233333
    },
    {
      "cityName": "Khmelinets",
      "lat": 52.4680556,
      "lng": 38.8908333
    },
    {
      "cityName": "Kholopovka",
      "lat": 52.15,
      "lng": 38.2666667
    },
    {
      "cityName": "Khomutovka",
      "lat": 52.0513889,
      "lng": 39.8572222
    },
    {
      "cityName": "Khomyaki",
      "lat": 53,
      "lng": 39.5333333
    },
    {
      "cityName": "Khomyakovo",
      "lat": 53.2666667,
      "lng": 38.65
    },
    {
      "cityName": "Khoroshevka",
      "lat": 52.8247222,
      "lng": 39.5677778
    },
    {
      "cityName": "Khoroshiye Vody",
      "lat": 53.1788889,
      "lng": 38.6555556
    },
    {
      "cityName": "Khoroshovka",
      "lat": 53.0833333,
      "lng": 39.0280556
    },
    {
      "cityName": "Khripunovka",
      "lat": 52.7166667,
      "lng": 38.4
    },
    {
      "cityName": "Khrushchevka",
      "lat": 52.5333333,
      "lng": 39.5166667
    },
    {
      "cityName": "Khrushchevo",
      "lat": 52.0513889,
      "lng": 38.6186111
    },
    {
      "cityName": "Khrushchevo-Podlesnoye",
      "lat": 53.1358333,
      "lng": 38.9958333
    },
    {
      "cityName": "Khukhlovo",
      "lat": 52.5166667,
      "lng": 37.9333333
    },
    {
      "cityName": "Khutor-Berezovka",
      "lat": 52.1897222,
      "lng": 38.3958333
    },
    {
      "cityName": "Khutor Semenek",
      "lat": 52.7413889,
      "lng": 37.9630556
    },
    {
      "cityName": "Khvorostyanka",
      "lat": 52.3194444,
      "lng": 40.2316667
    },
    {
      "cityName": "Kinshino",
      "lat": 52.1158333,
      "lng": 40.5911111
    },
    {
      "cityName": "Kireyevka",
      "lat": 51.9711111,
      "lng": 38.2891667
    },
    {
      "cityName": "Kirillova",
      "lat": 52.7402778,
      "lng": 38.2369444
    },
    {
      "cityName": "Kiselevka",
      "lat": 53.3038889,
      "lng": 38.7077778
    },
    {
      "cityName": "Kistenevets",
      "lat": 52.7666667,
      "lng": 39.4166667
    },
    {
      "cityName": "Kladbishchenskiye",
      "lat": 53,
      "lng": 39.15
    },
    {
      "cityName": "Klenovoye",
      "lat": 52.5333333,
      "lng": 39.2
    },
    {
      "cityName": "Kleshnya",
      "lat": 53.3561111,
      "lng": 38.7605556
    },
    {
      "cityName": "Klevtsovo",
      "lat": 52.8,
      "lng": 38.8833333
    },
    {
      "cityName": "Klicheno",
      "lat": 52.9552778,
      "lng": 38.0280556
    },
    {
      "cityName": "Klimentevka",
      "lat": 52.5136111,
      "lng": 38.6358333
    },
    {
      "cityName": "Klimentyevo",
      "lat": 52.8127778,
      "lng": 38.355
    },
    {
      "cityName": "Klinovoye",
      "lat": 52.2166667,
      "lng": 38.6666667
    },
    {
      "cityName": "Klishino",
      "lat": 52.9886111,
      "lng": 38.8930556
    },
    {
      "cityName": "Klyuchiki",
      "lat": 52.8991667,
      "lng": 38.1602778
    },
    {
      "cityName": "Klyuchi",
      "lat": 52.9666667,
      "lng": 39.6166667
    },
    {
      "cityName": "Klyuyevka",
      "lat": 52.7166667,
      "lng": 38.5666667
    },
    {
      "cityName": "Knyazhaya Baygora",
      "lat": 52.2377778,
      "lng": 40.5494444
    },
    {
      "cityName": "Knyazhnoye",
      "lat": 51.96,
      "lng": 38.1258333
    },
    {
      "cityName": "Knyazhye Baygora",
      "lat": 52.3763889,
      "lng": 40.0141667
    },
    {
      "cityName": "Kobelsha",
      "lat": 53.4213889,
      "lng": 39.6163889
    },
    {
      "cityName": "Kobyakovo",
      "lat": 53.1786111,
      "lng": 38.8647222
    },
    {
      "cityName": "Kocherginka",
      "lat": 52.9655556,
      "lng": 38.1922222
    },
    {
      "cityName": "Kochetovka",
      "lat": 51.9958333,
      "lng": 38.1891667
    },
    {
      "cityName": "Kochey",
      "lat": 52.15,
      "lng": 40.55
    },
    {
      "cityName": "Kolabino",
      "lat": 52.2936111,
      "lng": 38.7638889
    },
    {
      "cityName": "Koledinovka",
      "lat": 52.3666667,
      "lng": 38.4833333
    },
    {
      "cityName": "Kolesovo",
      "lat": 52.4666667,
      "lng": 38.85
    },
    {
      "cityName": "Kolodezi",
      "lat": 52.5,
      "lng": 38.9
    },
    {
      "cityName": "Kolodezki",
      "lat": 52.7827778,
      "lng": 38.6413889
    },
    {
      "cityName": "Kolodeznaya",
      "lat": 52.4305556,
      "lng": 38.8805556
    },
    {
      "cityName": "Kolosovka",
      "lat": 52.7,
      "lng": 38.6833333
    },
    {
      "cityName": "Kolousovka",
      "lat": 52.4661111,
      "lng": 40.0944444
    },
    {
      "cityName": "Kolpaki",
      "lat": 52.635,
      "lng": 38.6722222
    },
    {
      "cityName": "Koluny",
      "lat": 52.1386111,
      "lng": 40.2036111
    },
    {
      "cityName": "Kolybelovka",
      "lat": 52.4833333,
      "lng": 40.2
    },
    {
      "cityName": "Kolybelskoye",
      "lat": 53.1033333,
      "lng": 39.9425
    },
    {
      "cityName": "Kombarovka",
      "lat": 52.5166667,
      "lng": 38.6333333
    },
    {
      "cityName": "Kon-Kolodez",
      "lat": 52.1402778,
      "lng": 39.1633333
    },
    {
      "cityName": "Konyushki",
      "lat": 53.3516667,
      "lng": 39.8961111
    },
    {
      "cityName": "Koptsevy Khutora",
      "lat": 52.6736111,
      "lng": 39.4591667
    },
    {
      "cityName": "Korablino",
      "lat": 53.4355556,
      "lng": 39.7608333
    },
    {
      "cityName": "Kordyuki",
      "lat": 53.3819444,
      "lng": 39.5927778
    },
    {
      "cityName": "Korenevshchena",
      "lat": 52.7344444,
      "lng": 39.8469444
    },
    {
      "cityName": "Koritnoe",
      "lat": 52.7705556,
      "lng": 38.7547222
    },
    {
      "cityName": "Korobovka",
      "lat": 52.3336111,
      "lng": 40.0575
    },
    {
      "cityName": "Korovino",
      "lat": 52.5833333,
      "lng": 39.55
    },
    {
      "cityName": "Korovkino",
      "lat": 52.2166667,
      "lng": 38.75
    },
    {
      "cityName": "Korshikova",
      "lat": 52.7,
      "lng": 38.0333333
    },
    {
      "cityName": "Kosa",
      "lat": 52.2333333,
      "lng": 40.05
    },
    {
      "cityName": "Kosarevka",
      "lat": 52.6066667,
      "lng": 39.4097222
    },
    {
      "cityName": "Koshkino",
      "lat": 52.65,
      "lng": 38
    },
    {
      "cityName": "Kosorotovskiye Vyselki",
      "lat": 53.5122222,
      "lng": 38.7716667
    },
    {
      "cityName": "Kotenevka",
      "lat": 52.8666667,
      "lng": 40.0833333
    },
    {
      "cityName": "Kotovka",
      "lat": 53.2380556,
      "lng": 39.2802778
    },
    {
      "cityName": "Kovylenskiy",
      "lat": 53.1552778,
      "lng": 38.6652778
    },
    {
      "cityName": "Kovylye",
      "lat": 53.1505556,
      "lng": 38.6405556
    },
    {
      "cityName": "Kozelki",
      "lat": 52.2847222,
      "lng": 40.2233333
    },
    {
      "cityName": "Kozhenka",
      "lat": 52.9333333,
      "lng": 38.2
    },
    {
      "cityName": "Kozhukhovka",
      "lat": 52.55,
      "lng": 38.65
    },
    {
      "cityName": "Kozhukhovo",
      "lat": 53.4283333,
      "lng": 39.1313889
    },
    {
      "cityName": "Krasavka",
      "lat": 52.8491667,
      "lng": 38.1530556
    },
    {
      "cityName": "Krashove Utro",
      "lat": 52.4333333,
      "lng": 38.3
    },
    {
      "cityName": "Krasilovka",
      "lat": 52.45,
      "lng": 39.9833333
    },
    {
      "cityName": "Krasnaya Derevnya",
      "lat": 52.4166667,
      "lng": 39.75
    },
    {
      "cityName": "Krasnaya",
      "lat": 52.3383333,
      "lng": 38.1344444
    },
    {
      "cityName": "Krasnaya Palna",
      "lat": 52.8833333,
      "lng": 38.5
    },
    {
      "cityName": "Krasnaya Pervaya",
      "lat": 53.075,
      "lng": 38.6913889
    },
    {
      "cityName": "Krasnaya Polyana",
      "lat": 52.1,
      "lng": 38.6666667
    },
    {
      "cityName": "Krasnaya Rada",
      "lat": 52.2,
      "lng": 40.0833333
    },
    {
      "cityName": "Krasnaya Step",
      "lat": 53.2563889,
      "lng": 38.7497222
    },
    {
      "cityName": "Krasnaya Zarya",
      "lat": 52.25,
      "lng": 40.5333333
    },
    {
      "cityName": "Krasnaya Zvezda",
      "lat": 52.0166667,
      "lng": 39.9333333
    },
    {
      "cityName": "Krasninskiy",
      "lat": 52.8291667,
      "lng": 38.8577778
    },
    {
      "cityName": "Krasnovka",
      "lat": 52.2166667,
      "lng": 38.4
    },
    {
      "cityName": "Krasnoye Kolychevo",
      "lat": 53.14,
      "lng": 39.4733333
    },
    {
      "cityName": "Krasnoye",
      "lat": 52.8619444,
      "lng": 38.7961111
    },
    {
      "cityName": "Krasnoye Pervoye",
      "lat": 52.3666667,
      "lng": 38.3166667
    },
    {
      "cityName": "Krasnoye Vtoroye",
      "lat": 53.0202778,
      "lng": 38.6036111
    },
    {
      "cityName": "Krasnoye Znamya",
      "lat": 52.3061111,
      "lng": 40.0616667
    },
    {
      "cityName": "Krasny",
      "lat": 52.1788889,
      "lng": 38.0058333
    },
    {
      "cityName": "Krasny Luch",
      "lat": 52.55,
      "lng": 39.75
    },
    {
      "cityName": "Krasny Oktyabr",
      "lat": 52.4677778,
      "lng": 38.6336111
    },
    {
      "cityName": "Krasny Prud",
      "lat": 52.3247222,
      "lng": 40.2594444
    },
    {
      "cityName": "Krasnyye Khutora",
      "lat": 52.5063889,
      "lng": 39.3613889
    },
    {
      "cityName": "Krasnyy Log",
      "lat": 52.9,
      "lng": 38.85
    },
    {
      "cityName": "Krasnyy Lug",
      "lat": 52.3411111,
      "lng": 39.5761111
    },
    {
      "cityName": "Krasnyy Pakhar",
      "lat": 51.9433333,
      "lng": 38.1252778
    },
    {
      "cityName": "Krasotynovka",
      "lat": 52.3244444,
      "lng": 38.1727778
    },
    {
      "cityName": "Kreshchenka",
      "lat": 52.05,
      "lng": 39.0333333
    },
    {
      "cityName": "Krivets",
      "lat": 52.8688889,
      "lng": 40.0408333
    },
    {
      "cityName": "Krivka",
      "lat": 52.3366667,
      "lng": 39.7019444
    },
    {
      "cityName": "Krivka Vtoraya",
      "lat": 52.3333333,
      "lng": 39.6333333
    },
    {
      "cityName": "Krivoluchye",
      "lat": 53.2697222,
      "lng": 38.6722222
    },
    {
      "cityName": "Krivopolyanye",
      "lat": 53.2269444,
      "lng": 39.9255556
    },
    {
      "cityName": "Krivskaya",
      "lat": 52.3,
      "lng": 39.6
    },
    {
      "cityName": "Krivtsovka",
      "lat": 52.25,
      "lng": 38.4
    },
    {
      "cityName": "Kruchinskaya Baygora",
      "lat": 51.9888889,
      "lng": 39.9663889
    },
    {
      "cityName": "Krugi-Petrovskiye",
      "lat": 52.4555556,
      "lng": 38.4969444
    },
    {
      "cityName": "Krugloye",
      "lat": 52.3980556,
      "lng": 39.1958333
    },
    {
      "cityName": "Kruglyanka",
      "lat": 52.2833333,
      "lng": 39.3833333
    },
    {
      "cityName": "Krutaya",
      "lat": 52.8202778,
      "lng": 38.4036111
    },
    {
      "cityName": "Krutchik",
      "lat": 52.0975,
      "lng": 39.4616667
    },
    {
      "cityName": "Krutenkiy",
      "lat": 52.45,
      "lng": 37.95
    },
    {
      "cityName": "Krutishche",
      "lat": 52.0022222,
      "lng": 40.2019444
    },
    {
      "cityName": "Kryuchki",
      "lat": 53.25,
      "lng": 39.9833333
    },
    {
      "cityName": "Kryukovka",
      "lat": 52.9969444,
      "lng": 38.5238889
    },
    {
      "cityName": "Kryukovo",
      "lat": 52.2308333,
      "lng": 40.3586111
    },
    {
      "cityName": "Kryzhi",
      "lat": 53.1069444,
      "lng": 39.6888889
    },
    {
      "cityName": "Kshen",
      "lat": 52.0333333,
      "lng": 37.7833333
    },
    {
      "cityName": "Kturino",
      "lat": 52.2005556,
      "lng": 39.3680556
    },
    {
      "cityName": "Kudeyarovka",
      "lat": 52.6658333,
      "lng": 38.1175
    },
    {
      "cityName": "Kudryavshchino",
      "lat": 53.3833333,
      "lng": 39.0166667
    },
    {
      "cityName": "Kugany",
      "lat": 52.0047222,
      "lng": 37.9427778
    },
    {
      "cityName": "Kukuy",
      "lat": 52.5,
      "lng": 38.5333333
    },
    {
      "cityName": "Kuleshevka",
      "lat": 52.5930556,
      "lng": 39.3383333
    },
    {
      "cityName": "Kulikovka",
      "lat": 51.9327778,
      "lng": 37.9613889
    },
    {
      "cityName": "Kulikovka Pervaya",
      "lat": 52.8833333,
      "lng": 39.0166667
    },
    {
      "cityName": "Kulikovka Vtoraya",
      "lat": 52.9,
      "lng": 39.0333333
    },
    {
      "cityName": "Kulikovo",
      "lat": 52.2286111,
      "lng": 39.59
    },
    {
      "cityName": "Kultura",
      "lat": 53.0497222,
      "lng": 39.4825
    },
    {
      "cityName": "Kurabovka",
      "lat": 52.7008333,
      "lng": 38.2047222
    },
    {
      "cityName": "Kurapovo",
      "lat": 52.9666667,
      "lng": 39.0166667
    },
    {
      "cityName": "Kurganka",
      "lat": 52.1933333,
      "lng": 38.0702778
    },
    {
      "cityName": "Kurilovka",
      "lat": 52.2133333,
      "lng": 39.8080556
    },
    {
      "cityName": "Kurlykovka",
      "lat": 52.2666667,
      "lng": 40.1666667
    },
    {
      "cityName": "Kurshino",
      "lat": 52.7,
      "lng": 38.05
    },
    {
      "cityName": "Kurtinovka",
      "lat": 52.3833333,
      "lng": 38.6666667
    },
    {
      "cityName": "Kutukovo",
      "lat": 53.1613889,
      "lng": 39.0486111
    },
    {
      "cityName": "Kutyrki",
      "lat": 52.1736111,
      "lng": 40.3383333
    },
    {
      "cityName": "Kuyman",
      "lat": 52.8675,
      "lng": 39.2827778
    },
    {
      "cityName": "Kuymany",
      "lat": 52.715,
      "lng": 39.0997222
    },
    {
      "cityName": "Kuzevan",
      "lat": 52.4,
      "lng": 39.7
    },
    {
      "cityName": "Kuzhnov Chernechik",
      "lat": 51.9663889,
      "lng": 40.3866667
    },
    {
      "cityName": "Kuzminka",
      "lat": 52.6947222,
      "lng": 39.3197222
    },
    {
      "cityName": "Kuzminki",
      "lat": 52.8333333,
      "lng": 39.1666667
    },
    {
      "cityName": "Kuzmino-Otverzhki",
      "lat": 52.6947222,
      "lng": 39.4755556
    },
    {
      "cityName": "Kuznetskaya Sloboda",
      "lat": 53.0236111,
      "lng": 39.1141667
    },
    {
      "cityName": "Kuzovlevo",
      "lat": 53.1275,
      "lng": 39.6136111
    },
    {
      "cityName": "Kvasovo",
      "lat": 52.6063889,
      "lng": 37.8963889
    },
    {
      "cityName": "Kvitkovka",
      "lat": 52.8333333,
      "lng": 37.9666667
    },
    {
      "cityName": "Labyntsovo",
      "lat": 52.9944444,
      "lng": 38.0502778
    },
    {
      "cityName": "Ladygino",
      "lat": 52.4125,
      "lng": 40.2597222
    },
    {
      "cityName": "Lamskiye",
      "lat": 52.9333333,
      "lng": 38.15
    },
    {
      "cityName": "Lamskiye Vyselki",
      "lat": 52.85,
      "lng": 38.1
    },
    {
      "cityName": "Lamskoye",
      "lat": 52.9588889,
      "lng": 38.2572222
    },
    {
      "cityName": "Lapotki",
      "lat": 53.4266667,
      "lng": 39.9602778
    },
    {
      "cityName": "Larionovka",
      "lat": 53.1511111,
      "lng": 38.9180556
    },
    {
      "cityName": "Laukhino",
      "lat": 52.8166667,
      "lng": 38.5833333
    },
    {
      "cityName": "Lavy",
      "lat": 52.5666667,
      "lng": 38.4833333
    },
    {
      "cityName": "Lebedevo",
      "lat": 52.75,
      "lng": 38.95
    },
    {
      "cityName": "Lebedjan",
      "lat": 53.0138889,
      "lng": 39.1405556
    },
    {
      "cityName": "Lebedyanka",
      "lat": 52.0072222,
      "lng": 40.3275
    },
    {
      "cityName": "Lebyazhka",
      "lat": 52.8786111,
      "lng": 37.9816667
    },
    {
      "cityName": "Ledenevka",
      "lat": 52.85,
      "lng": 40.05
    },
    {
      "cityName": "Ledokhodovka",
      "lat": 52.6280556,
      "lng": 37.9811111
    },
    {
      "cityName": "Leninka",
      "lat": 52.5,
      "lng": 38.9166667
    },
    {
      "cityName": "Lenino",
      "lat": 52.5175,
      "lng": 39.5038889
    },
    {
      "cityName": "Lenskaya",
      "lat": 53.3133333,
      "lng": 38.6752778
    },
    {
      "cityName": "Leski",
      "lat": 52.9,
      "lng": 37.9166667
    },
    {
      "cityName": "Lesnoy",
      "lat": 52.9666667,
      "lng": 38.8
    },
    {
      "cityName": "Lesnyye-Lokotsy",
      "lat": 52.9575,
      "lng": 37.9258333
    },
    {
      "cityName": "Lesogradskaya",
      "lat": 53.5233333,
      "lng": 39.7605556
    },
    {
      "cityName": "Levashevka",
      "lat": 52.3833333,
      "lng": 38.6
    },
    {
      "cityName": "Levshino",
      "lat": 52.1936111,
      "lng": 38.7905556
    },
    {
      "cityName": "Lev Tolstoi",
      "lat": 53.2119444,
      "lng": 39.4522222
    },
    {
      "cityName": "Lichnyy Trud",
      "lat": 51.9491667,
      "lng": 38.0969444
    },
    {
      "cityName": "Limovaya",
      "lat": 52.8969444,
      "lng": 38.665
    },
    {
      "cityName": "Limovoye",
      "lat": 52.8791667,
      "lng": 38.3463889
    },
    {
      "cityName": "Lipetsk",
      "lat": 52.6186111,
      "lng": 39.5688889
    },
    {
      "cityName": "Lipovchik",
      "lat": 52.01,
      "lng": 37.9652778
    },
    {
      "cityName": "Lipovka",
      "lat": 52.4833333,
      "lng": 38.2833333
    },
    {
      "cityName": "Lipovskiy",
      "lat": 53.3691667,
      "lng": 39.2391667
    },
    {
      "cityName": "Lisichye",
      "lat": 53.0738889,
      "lng": 38.9483333
    },
    {
      "cityName": "Lisiy",
      "lat": 53.0111111,
      "lng": 37.9180556
    },
    {
      "cityName": "Livenskaya",
      "lat": 52.4641667,
      "lng": 38.8255556
    },
    {
      "cityName": "Lobachi",
      "lat": 53.4186111,
      "lng": 38.9791667
    },
    {
      "cityName": "Lobanovka",
      "lat": 52.05,
      "lng": 38.4833333
    },
    {
      "cityName": "Lobovka",
      "lat": 52.4333333,
      "lng": 38.05
    },
    {
      "cityName": "Lokteva",
      "lat": 52.4,
      "lng": 38.85
    },
    {
      "cityName": "Lomachary",
      "lat": 52.1333333,
      "lng": 37.8166667
    },
    {
      "cityName": "Lomovoye",
      "lat": 53.2625,
      "lng": 39.8577778
    },
    {
      "cityName": "Lomovskiye Vyselki",
      "lat": 53.3711111,
      "lng": 39.81
    },
    {
      "cityName": "Lopatino",
      "lat": 52.6,
      "lng": 38.05
    },
    {
      "cityName": "Losevka",
      "lat": 52.4666667,
      "lng": 38.4166667
    },
    {
      "cityName": "Lotashok",
      "lat": 53.0333333,
      "lng": 38.0833333
    },
    {
      "cityName": "Lovilovka",
      "lat": 52.4166667,
      "lng": 38.8333333
    },
    {
      "cityName": "Lozovaya",
      "lat": 52.3,
      "lng": 38.7666667
    },
    {
      "cityName": "Lozovka",
      "lat": 53.3811111,
      "lng": 39.9197222
    },
    {
      "cityName": "Lozy",
      "lat": 52.4333333,
      "lng": 39.2
    },
    {
      "cityName": "Lubny",
      "lat": 52.8027778,
      "lng": 39.3441667
    },
    {
      "cityName": "Lugovaya",
      "lat": 52.5838889,
      "lng": 37.8372222
    },
    {
      "cityName": "Lukino",
      "lat": 52.1166667,
      "lng": 38.8666667
    },
    {
      "cityName": "Lukinovka",
      "lat": 52.3833333,
      "lng": 38.5666667
    },
    {
      "cityName": "Lukoshkino",
      "lat": 52.8166667,
      "lng": 38.65
    },
    {
      "cityName": "Lutoshkino",
      "lat": 52.6,
      "lng": 38.8
    },
    {
      "cityName": "Lutovka",
      "lat": 52.4166667,
      "lng": 38
    },
    {
      "cityName": "Luzhki",
      "lat": 53.2741667,
      "lng": 39.5455556
    },
    {
      "cityName": "Lvovka",
      "lat": 53.3038889,
      "lng": 39.3719444
    },
    {
      "cityName": "Lysovka",
      "lat": 52.8352778,
      "lng": 38.6930556
    },
    {
      "cityName": "Lyublino",
      "lat": 53.3925,
      "lng": 39.8755556
    },
    {
      "cityName": "Lyubo-Chistopolye",
      "lat": 52.65,
      "lng": 39.2333333
    },
    {
      "cityName": "Makarovka",
      "lat": 52.5,
      "lng": 38.6166667
    },
    {
      "cityName": "Makhonovo",
      "lat": 52.9113889,
      "lng": 39.7611111
    },
    {
      "cityName": "Makhova",
      "lat": 52.4833333,
      "lng": 38.2166667
    },
    {
      "cityName": "Makhovishche",
      "lat": 52.4058333,
      "lng": 39.3211111
    },
    {
      "cityName": "Maksimovskiye Vyselki",
      "lat": 53.2019444,
      "lng": 39.9944444
    },
    {
      "cityName": "Malanino",
      "lat": 52.2166667,
      "lng": 39.0833333
    },
    {
      "cityName": "Malaya Aleksandrovka",
      "lat": 52.5,
      "lng": 38.4
    },
    {
      "cityName": "Malaya Bayevka",
      "lat": 52.4455556,
      "lng": 38.5633333
    },
    {
      "cityName": "Malaya Demshina",
      "lat": 52.1191667,
      "lng": 40.3280556
    },
    {
      "cityName": "Malaya Fonovka",
      "lat": 52.4411111,
      "lng": 40.275
    },
    {
      "cityName": "Malaya Ivanovka",
      "lat": 52.1333333,
      "lng": 38.0166667
    },
    {
      "cityName": "Malaya Karpovka",
      "lat": 53.3227778,
      "lng": 39.5497222
    },
    {
      "cityName": "Malaya Khrushchevka",
      "lat": 53.2944444,
      "lng": 39.2819444
    },
    {
      "cityName": "Malaya Lipunovka",
      "lat": 53.0511111,
      "lng": 39.6230556
    },
    {
      "cityName": "Malaya Matrenka",
      "lat": 52.0847222,
      "lng": 40.1947222
    },
    {
      "cityName": "Malaya Peskovatka",
      "lat": 52,
      "lng": 39.7166667
    },
    {
      "cityName": "Malaya Plavitsa",
      "lat": 52.1613889,
      "lng": 40.3352778
    },
    {
      "cityName": "Malaya Ponarina",
      "lat": 52.3833333,
      "lng": 38.9
    },
    {
      "cityName": "Malaya Suvorovka",
      "lat": 52.6416667,
      "lng": 38.8180556
    },
    {
      "cityName": "Malaya Znamenka",
      "lat": 53.2755556,
      "lng": 39.3180556
    },
    {
      "cityName": "Maley",
      "lat": 52.5855556,
      "lng": 39.8444444
    },
    {
      "cityName": "Malina Polyana",
      "lat": 52.1577778,
      "lng": 38.6752778
    },
    {
      "cityName": "Malinino",
      "lat": 52.2730556,
      "lng": 39.3355556
    },
    {
      "cityName": "Malinki",
      "lat": 52.8833333,
      "lng": 38.9666667
    },
    {
      "cityName": "Malinovka",
      "lat": 53.1322222,
      "lng": 39.4213889
    },
    {
      "cityName": "Malokrutoy",
      "lat": 53.0919444,
      "lng": 39.1319444
    },
    {
      "cityName": "Maloye Popovo",
      "lat": 52.9,
      "lng": 39.05
    },
    {
      "cityName": "Maloye Troitskoye",
      "lat": 52.85,
      "lng": 39.0166667
    },
    {
      "cityName": "Maly Mechek",
      "lat": 52.2491667,
      "lng": 39.3280556
    },
    {
      "cityName": "Malyshevka",
      "lat": 52.7333333,
      "lng": 39.5833333
    },
    {
      "cityName": "Malyy Belevets",
      "lat": 52.6833333,
      "lng": 38.4666667
    },
    {
      "cityName": "Malyye Butyki",
      "lat": 52.9427778,
      "lng": 37.9713889
    },
    {
      "cityName": "Malyye Inshaki",
      "lat": 53.0722222,
      "lng": 39.0466667
    },
    {
      "cityName": "Malyye Izvaly",
      "lat": 52.5166667,
      "lng": 38.8
    },
    {
      "cityName": "Malyye Otrozhki",
      "lat": 52.1,
      "lng": 40.25
    },
    {
      "cityName": "Malyye Vyselki",
      "lat": 52.9288889,
      "lng": 38.4397222
    },
    {
      "cityName": "Malyy Khomutets",
      "lat": 52.7933333,
      "lng": 39.7561111
    },
    {
      "cityName": "Malyy Kolodez",
      "lat": 52.2525,
      "lng": 38.4286111
    },
    {
      "cityName": "Malyy Krudchik",
      "lat": 52.0025,
      "lng": 40.3827778
    },
    {
      "cityName": "Mamonovo",
      "lat": 53.0483333,
      "lng": 38.6694444
    },
    {
      "cityName": "Manainkovo",
      "lat": 53.0522222,
      "lng": 38.6966667
    },
    {
      "cityName": "Manino",
      "lat": 52.1413889,
      "lng": 39.3361111
    },
    {
      "cityName": "Mantsurovo",
      "lat": 52.13,
      "lng": 39.9011111
    },
    {
      "cityName": "Marchuki",
      "lat": 52.5166667,
      "lng": 38.2166667
    },
    {
      "cityName": "Marfino",
      "lat": 52.0944444,
      "lng": 40.2933333
    },
    {
      "cityName": "Marino",
      "lat": 52.3666667,
      "lng": 38.55
    },
    {
      "cityName": "Markovo",
      "lat": 52.8836111,
      "lng": 38.5661111
    },
    {
      "cityName": "Maslovka",
      "lat": 53.385,
      "lng": 39.1447222
    },
    {
      "cityName": "Maslovo",
      "lat": 52.7794444,
      "lng": 38.4622222
    },
    {
      "cityName": "Matrenovka",
      "lat": 52.015,
      "lng": 39.9719444
    },
    {
      "cityName": "Matrenskiye Dvoriki",
      "lat": 52.0166667,
      "lng": 40.15
    },
    {
      "cityName": "Matveyevka-Glotovka",
      "lat": 52.2333333,
      "lng": 40.0166667
    },
    {
      "cityName": "Matveyevka",
      "lat": 51.9761111,
      "lng": 40.2886111
    },
    {
      "cityName": "Matyrskiy",
      "lat": 52.5102778,
      "lng": 39.7736111
    },
    {
      "cityName": "Matyskiy",
      "lat": 52.55,
      "lng": 39.8
    },
    {
      "cityName": "Matyushkino",
      "lat": 52.65,
      "lng": 38.95
    },
    {
      "cityName": "Mayorovka",
      "lat": 52.7819444,
      "lng": 37.9913889
    },
    {
      "cityName": "Mazanki",
      "lat": 52.7166667,
      "lng": 38.9
    },
    {
      "cityName": "Mazeyka",
      "lat": 52.0891667,
      "lng": 40.4119444
    },
    {
      "cityName": "Mazhayeyevka",
      "lat": 52.9497222,
      "lng": 38.1508333
    },
    {
      "cityName": "Medovka",
      "lat": 52.0733333,
      "lng": 39.5833333
    },
    {
      "cityName": "Medvedchino",
      "lat": 53.4677778,
      "lng": 39.0533333
    },
    {
      "cityName": "Medvedevo",
      "lat": 53.0780556,
      "lng": 38.8247222
    },
    {
      "cityName": "Mefodiyevskiy",
      "lat": 53.4675,
      "lng": 39.6091667
    },
    {
      "cityName": "Melekhovoye",
      "lat": 53.1338889,
      "lng": 39.9472222
    },
    {
      "cityName": "Mereshchanka",
      "lat": 52.2872222,
      "lng": 40.0497222
    },
    {
      "cityName": "Meshcherka",
      "lat": 52.2833333,
      "lng": 39.6166667
    },
    {
      "cityName": "Mesherka",
      "lat": 52.8833333,
      "lng": 38.2
    },
    {
      "cityName": "Mikhaylovka",
      "lat": 52.0269444,
      "lng": 38.4355556
    },
    {
      "cityName": "Mikhaylovskoye",
      "lat": 52.9225,
      "lng": 39.4713889
    },
    {
      "cityName": "Mikulino",
      "lat": 52.75,
      "lng": 38.7333333
    },
    {
      "cityName": "Mishino",
      "lat": 52.1333333,
      "lng": 37.85
    },
    {
      "cityName": "Mityagina",
      "lat": 53.2019444,
      "lng": 39.7233333
    },
    {
      "cityName": "Mochilki",
      "lat": 52.9941667,
      "lng": 38.9069444
    },
    {
      "cityName": "Moiseyevka",
      "lat": 52.1666667,
      "lng": 40.1666667
    },
    {
      "cityName": "Mokhovoye",
      "lat": 52.7844444,
      "lng": 39.3044444
    },
    {
      "cityName": "Mokroye",
      "lat": 52.9038889,
      "lng": 39.4177778
    },
    {
      "cityName": "Mokryanka",
      "lat": 52.75,
      "lng": 39.1
    },
    {
      "cityName": "Mokryye Semenki",
      "lat": 52.7536111,
      "lng": 37.93
    },
    {
      "cityName": "Molodovka",
      "lat": 52.3166667,
      "lng": 38.4166667
    },
    {
      "cityName": "Molotovo",
      "lat": 52.2525,
      "lng": 39.8338889
    },
    {
      "cityName": "Monastyr",
      "lat": 53.2666667,
      "lng": 40
    },
    {
      "cityName": "Monastyrskaya Sloboda",
      "lat": 53.0333333,
      "lng": 39.1333333
    },
    {
      "cityName": "Mordvinskiye",
      "lat": 53.55,
      "lng": 38.9333333
    },
    {
      "cityName": "Morevo",
      "lat": 52.7791667,
      "lng": 38.6033333
    },
    {
      "cityName": "Moskovka",
      "lat": 52.0861111,
      "lng": 40.3244444
    },
    {
      "cityName": "Mostoukha",
      "lat": 52.9166667,
      "lng": 38.0166667
    },
    {
      "cityName": "Motor",
      "lat": 52.7355556,
      "lng": 39.9833333
    },
    {
      "cityName": "Mukhino",
      "lat": 52.2941667,
      "lng": 38.8958333
    },
    {
      "cityName": "Mulgino",
      "lat": 52.6666667,
      "lng": 37.9333333
    },
    {
      "cityName": "Muravlin",
      "lat": 52.9833333,
      "lng": 38
    },
    {
      "cityName": "Muravlyanoye",
      "lat": 52.5077778,
      "lng": 39.2127778
    },
    {
      "cityName": "Muravyevka",
      "lat": 52.1075,
      "lng": 38.8825
    },
    {
      "cityName": "Murayevka",
      "lat": 53.1991667,
      "lng": 39.7797222
    },
    {
      "cityName": "Myagkaya",
      "lat": 52.6905556,
      "lng": 38.1855556
    },
    {
      "cityName": "Nabanovo",
      "lat": 52.1086111,
      "lng": 38.2263889
    },
    {
      "cityName": "Nadezhdino",
      "lat": 52.3666667,
      "lng": 38.2833333
    },
    {
      "cityName": "Nagornoye",
      "lat": 52.1,
      "lng": 38.15
    },
    {
      "cityName": "Nalivchino",
      "lat": 52.15,
      "lng": 40.5333333
    },
    {
      "cityName": "Nalivki",
      "lat": 52.2,
      "lng": 40.55
    },
    {
      "cityName": "Nalivkino",
      "lat": 52.1044444,
      "lng": 40.3330556
    },
    {
      "cityName": "Natalinka",
      "lat": 52.2611111,
      "lng": 40.2369444
    },
    {
      "cityName": "Natalyevka",
      "lat": 52.0833333,
      "lng": 38.05
    },
    {
      "cityName": "Naumovka",
      "lat": 52.9333333,
      "lng": 39.2833333
    },
    {
      "cityName": "Naumshino",
      "lat": 52.85,
      "lng": 38.8333333
    },
    {
      "cityName": "Nechaevka",
      "lat": 52.5,
      "lng": 38.9666667
    },
    {
      "cityName": "Nechayevka",
      "lat": 52.1166667,
      "lng": 39.3333333
    },
    {
      "cityName": "Nekrasovka",
      "lat": 52,
      "lng": 40.1
    },
    {
      "cityName": "Nemerz",
      "lat": 52.3666667,
      "lng": 39.1166667
    },
    {
      "cityName": "Nerezha",
      "lat": 52.3080556,
      "lng": 38.7444444
    },
    {
      "cityName": "Nesterovka",
      "lat": 52.4833333,
      "lng": 38.3333333
    },
    {
      "cityName": "Netsevo",
      "lat": 52.4508333,
      "lng": 38.4452778
    },
    {
      "cityName": "Nikolayevka",
      "lat": 52.1333333,
      "lng": 38.2166667
    },
    {
      "cityName": "Nikolayevskiye",
      "lat": 52.6166667,
      "lng": 37.85
    },
    {
      "cityName": "Nikolskiy Byselki",
      "lat": 51.9525,
      "lng": 39.7844444
    },
    {
      "cityName": "Nikolskoye",
      "lat": 51.9394444,
      "lng": 38.1766667
    },
    {
      "cityName": "Nizhnaya Kolybelka",
      "lat": 52.1902778,
      "lng": 38.9952778
    },
    {
      "cityName": "Nizhne-Bolshoye",
      "lat": 51.9833333,
      "lng": 37.9
    },
    {
      "cityName": "Nizhne-Matrenskiye Vyselki",
      "lat": 52.2166667,
      "lng": 40.2
    },
    {
      "cityName": "Nizhne-Vargolskoye",
      "lat": 52.5766667,
      "lng": 38.4136111
    },
    {
      "cityName": "Nizhneye Kazachye",
      "lat": 52.3519444,
      "lng": 38.8125
    },
    {
      "cityName": "Nizhneye Sukhinino",
      "lat": 52.9666667,
      "lng": 38.6666667
    },
    {
      "cityName": "Nizhniy Lomovets",
      "lat": 52.2427778,
      "lng": 38.6144444
    },
    {
      "cityName": "Nizhnyaya Lukovka",
      "lat": 52.5141667,
      "lng": 40.1391667
    },
    {
      "cityName": "Nizhnyaya Masalovka",
      "lat": 52.0775,
      "lng": 40.06
    },
    {
      "cityName": "Nizhnyaya Matrenka",
      "lat": 52.2633333,
      "lng": 40.1266667
    },
    {
      "cityName": "Nizhnyaya Pavlovka",
      "lat": 53.4658333,
      "lng": 39.0275
    },
    {
      "cityName": "Nizhnyaya Slobodka",
      "lat": 52.115,
      "lng": 37.9055556
    },
    {
      "cityName": "Novaya Baygora",
      "lat": 52.3225,
      "lng": 40.1791667
    },
    {
      "cityName": "Novaya Derevnya",
      "lat": 52.075,
      "lng": 40.2461111
    },
    {
      "cityName": "Novaya Dmitriyevka",
      "lat": 52.645,
      "lng": 39.2344444
    },
    {
      "cityName": "Novaya Gnilusha",
      "lat": 52.35,
      "lng": 39.0833333
    },
    {
      "cityName": "Novaya Kamenka",
      "lat": 52.2163889,
      "lng": 38.2813889
    },
    {
      "cityName": "Novaya Taninskaya",
      "lat": 53.5666667,
      "lng": 39.7666667
    },
    {
      "cityName": "Novaya Voskresenovka",
      "lat": 52.35,
      "lng": 39.0333333
    },
    {
      "cityName": "Novaya Zhizn",
      "lat": 52.5516667,
      "lng": 39.7358333
    },
    {
      "cityName": "Noviki",
      "lat": 53.3169444,
      "lng": 38.7966667
    },
    {
      "cityName": "Novikovo",
      "lat": 52.9230556,
      "lng": 38.2219444
    },
    {
      "cityName": "Novinka",
      "lat": 52.2666667,
      "lng": 38.3833333
    },
    {
      "cityName": "Novoaleksandrovka",
      "lat": 52.6666667,
      "lng": 38.3666667
    },
    {
      "cityName": "Novochemodanovo",
      "lat": 53.2527778,
      "lng": 39.7077778
    },
    {
      "cityName": "Novocherkutino",
      "lat": 52.3130556,
      "lng": 40.3894444
    },
    {
      "cityName": "Novodubovoye",
      "lat": 52.3066667,
      "lng": 39.2147222
    },
    {
      "cityName": "Novo-Lavrovo",
      "lat": 53.2772222,
      "lng": 38.5802778
    },
    {
      "cityName": "Novolipetsk",
      "lat": 52.5830556,
      "lng": 39.6133333
    },
    {
      "cityName": "Novomikhaylovka",
      "lat": 52.7333333,
      "lng": 39.35
    },
    {
      "cityName": "Novonikolayevka",
      "lat": 52.6333333,
      "lng": 39.4333333
    },
    {
      "cityName": "Novonikolskoye",
      "lat": 53.205,
      "lng": 39.1605556
    },
    {
      "cityName": "Novopetrovka",
      "lat": 52.2011111,
      "lng": 40.6444444
    },
    {
      "cityName": "Novopogorelovo",
      "lat": 52.85,
      "lng": 38.55
    },
    {
      "cityName": "Novopolyana",
      "lat": 53.1808333,
      "lng": 39.8094444
    },
    {
      "cityName": "Novoselki",
      "lat": 51.9230556,
      "lng": 37.8758333
    },
    {
      "cityName": "Novoselye",
      "lat": 52.6166667,
      "lng": 38.85
    },
    {
      "cityName": "Novosilsk",
      "lat": 52.0861111,
      "lng": 38.6172222
    },
    {
      "cityName": "Novo-Toitskoye",
      "lat": 52.3775,
      "lng": 38.0538889
    },
    {
      "cityName": "Novouglyanka",
      "lat": 52.0186111,
      "lng": 39.7538889
    },
    {
      "cityName": "Novovolkhonovka",
      "lat": 52.3166667,
      "lng": 39.95
    },
    {
      "cityName": "Novoye Petelino",
      "lat": 53.5227778,
      "lng": 39.6763889
    },
    {
      "cityName": "Novoye Rakitino",
      "lat": 53.0516667,
      "lng": 39.1805556
    },
    {
      "cityName": "Novyye Bulavki",
      "lat": 53.2705556,
      "lng": 39.6475
    },
    {
      "cityName": "Novyye Petrovki",
      "lat": 52.3666667,
      "lng": 38.4166667
    },
    {
      "cityName": "Novyye Rudenki",
      "lat": 53.3863889,
      "lng": 39.725
    },
    {
      "cityName": "Novyy Kopyl",
      "lat": 53,
      "lng": 38.8666667
    },
    {
      "cityName": "Novyy Krym",
      "lat": 52.1833333,
      "lng": 38.75
    },
    {
      "cityName": "Obedishche",
      "lat": 52.7341667,
      "lng": 38.9372222
    },
    {
      "cityName": "Odoyevshchina",
      "lat": 53.2833333,
      "lng": 38.85
    },
    {
      "cityName": "Ogarevo",
      "lat": 53.5369444,
      "lng": 38.7630556
    },
    {
      "cityName": "Ognevka",
      "lat": 52.9002778,
      "lng": 38.2888889
    },
    {
      "cityName": "Oktyabrskiy",
      "lat": 52.6,
      "lng": 38.7
    },
    {
      "cityName": "Oktyabrskoye",
      "lat": 52.3066667,
      "lng": 39.7255556
    },
    {
      "cityName": "Olesino",
      "lat": 52.8666667,
      "lng": 38.5833333
    },
    {
      "cityName": "Olgovka",
      "lat": 52.2469444,
      "lng": 40.3477778
    },
    {
      "cityName": "Olkhovets",
      "lat": 52.5844444,
      "lng": 38.3802778
    },
    {
      "cityName": "Olkhovka",
      "lat": 52.2086111,
      "lng": 40.0969444
    },
    {
      "cityName": "Olkhovo",
      "lat": 52.8166667,
      "lng": 39.15
    },
    {
      "cityName": "Olshanets",
      "lat": 52.2719444,
      "lng": 38.8172222
    },
    {
      "cityName": "Olshanka",
      "lat": 52.3147222,
      "lng": 40.1511111
    },
    {
      "cityName": "Olymchik",
      "lat": 52.0088889,
      "lng": 38.3755556
    },
    {
      "cityName": "Olymovka",
      "lat": 52.05,
      "lng": 38.2666667
    },
    {
      "cityName": "Orlovka",
      "lat": 52.2166667,
      "lng": 38.35
    },
    {
      "cityName": "Orlovskiy",
      "lat": 52.1333333,
      "lng": 40.5333333
    },
    {
      "cityName": "Osinovaya Gora",
      "lat": 53.4619444,
      "lng": 38.9786111
    },
    {
      "cityName": "Osinovo",
      "lat": 52.8419444,
      "lng": 38.0736111
    },
    {
      "cityName": "Osinovoye",
      "lat": 53.1005556,
      "lng": 38.6886111
    },
    {
      "cityName": "Osinovskiye Prudki",
      "lat": 53.4563889,
      "lng": 38.9261111
    },
    {
      "cityName": "Oskochno",
      "lat": 52.7666667,
      "lng": 38.95
    },
    {
      "cityName": "Ostrovka",
      "lat": 52.2,
      "lng": 40.6
    },
    {
      "cityName": "Ostrovok",
      "lat": 52.1052778,
      "lng": 38.5980556
    },
    {
      "cityName": "Ostry Kamen",
      "lat": 53.2036111,
      "lng": 39.3730556
    },
    {
      "cityName": "Otrada",
      "lat": 52.3416667,
      "lng": 40.3647222
    },
    {
      "cityName": "Otradovka",
      "lat": 52.5833333,
      "lng": 39.2166667
    },
    {
      "cityName": "Otrozhka",
      "lat": 52.1333333,
      "lng": 39.5333333
    },
    {
      "cityName": "Otruba",
      "lat": 51.9905556,
      "lng": 40.3322222
    },
    {
      "cityName": "Otskochinskiye",
      "lat": 52.0833333,
      "lng": 38.95
    },
    {
      "cityName": "Otskochnoye",
      "lat": 52.1058333,
      "lng": 39.1322222
    },
    {
      "cityName": "Ovcharovka",
      "lat": 52.2894444,
      "lng": 40.4158333
    },
    {
      "cityName": "Ovsyany Brod",
      "lat": 52.7580556,
      "lng": 38.3222222
    },
    {
      "cityName": "Ozerki",
      "lat": 52.0666667,
      "lng": 38.5166667
    },
    {
      "cityName": "Ozernyye-Otvershka",
      "lat": 52.9344444,
      "lng": 38.7322222
    },
    {
      "cityName": "Ozhoga",
      "lat": 52.0488889,
      "lng": 38.0963889
    },
    {
      "cityName": "Padvorki",
      "lat": 52.3402778,
      "lng": 40.0263889
    },
    {
      "cityName": "Pady",
      "lat": 52.4033333,
      "lng": 39.4636111
    },
    {
      "cityName": "Pakino",
      "lat": 52.8130556,
      "lng": 39.7663889
    },
    {
      "cityName": "Pakrovka",
      "lat": 52.1333333,
      "lng": 38.3833333
    },
    {
      "cityName": "Palenka",
      "lat": 52.9011111,
      "lng": 38.3680556
    },
    {
      "cityName": "Palna-Alekseyevka",
      "lat": 52.75,
      "lng": 38.55
    },
    {
      "cityName": "Palna-Mikhaylovka",
      "lat": 52.7088889,
      "lng": 38.5727778
    },
    {
      "cityName": "Palunina",
      "lat": 53.3880556,
      "lng": 38.9938889
    },
    {
      "cityName": "Panikovets",
      "lat": 52.3666667,
      "lng": 38.8333333
    },
    {
      "cityName": "Panin-Lipetskiy",
      "lat": 52.1269444,
      "lng": 40.3275
    },
    {
      "cityName": "Panino",
      "lat": 52.2436111,
      "lng": 40.4397222
    },
    {
      "cityName": "Pankratovka",
      "lat": 52.6333333,
      "lng": 38.1166667
    },
    {
      "cityName": "Parakhin Khutor",
      "lat": 52.2666667,
      "lng": 38.3
    },
    {
      "cityName": "Paroy",
      "lat": 52.8730556,
      "lng": 39.4663889
    },
    {
      "cityName": "Parshinovka",
      "lat": 51.9947222,
      "lng": 40.5258333
    },
    {
      "cityName": "Parshlnovka",
      "lat": 52.0033333,
      "lng": 40.5291667
    },
    {
      "cityName": "Parusnoye",
      "lat": 52.45,
      "lng": 38.9
    },
    {
      "cityName": "Paskovo",
      "lat": 53.2122222,
      "lng": 39.745
    },
    {
      "cityName": "Pavelka",
      "lat": 52.9141667,
      "lng": 39.3091667
    },
    {
      "cityName": "Pavlovka",
      "lat": 51.9244444,
      "lng": 38.1938889
    },
    {
      "cityName": "Pavlovskoye",
      "lat": 52.8675,
      "lng": 39.2158333
    },
    {
      "cityName": "Pazdevalovka",
      "lat": 53.2333333,
      "lng": 39.9166667
    },
    {
      "cityName": "Pazhen",
      "lat": 52.5833333,
      "lng": 38.4333333
    },
    {
      "cityName": "Penki",
      "lat": 53.4833333,
      "lng": 39.7422222
    },
    {
      "cityName": "Perekhval",
      "lat": 53.1361111,
      "lng": 39.0980556
    },
    {
      "cityName": "Perekhvalskiye Vyselki",
      "lat": 53.1927778,
      "lng": 39.0930556
    },
    {
      "cityName": "Perelyubsha",
      "lat": 52.75,
      "lng": 39.05
    },
    {
      "cityName": "Pervaya Dmitriyevka",
      "lat": 52.2166667,
      "lng": 40
    },
    {
      "cityName": "Pervaya Plastinka",
      "lat": 52.25,
      "lng": 40.0166667
    },
    {
      "cityName": "Pervaya Yefimovka",
      "lat": 52.0666667,
      "lng": 38.05
    },
    {
      "cityName": "Pervaya Yekaterinovka",
      "lat": 52.4,
      "lng": 39.1
    },
    {
      "cityName": "Pervomaiskiy",
      "lat": 52.2166667,
      "lng": 39.4
    },
    {
      "cityName": "Pervovka",
      "lat": 52.75,
      "lng": 38.4666667
    },
    {
      "cityName": "Pervoye Arkhangelskoye",
      "lat": 52.5833333,
      "lng": 38.0666667
    },
    {
      "cityName": "Pervoye Bogoroditskoye",
      "lat": 52.2666667,
      "lng": 40.35
    },
    {
      "cityName": "Pervoye Kolesovo",
      "lat": 52.4666667,
      "lng": 38.8666667
    },
    {
      "cityName": "Pervoye Maya",
      "lat": 51.9736111,
      "lng": 40.4086111
    },
    {
      "cityName": "Pervoye Sergiyevskoye",
      "lat": 53.0230556,
      "lng": 38.8441667
    },
    {
      "cityName": "Pervoye Skorovarovo",
      "lat": 52.8333333,
      "lng": 38.85
    },
    {
      "cityName": "Pervoye Sofino",
      "lat": 52.3666667,
      "lng": 40.2666667
    },
    {
      "cityName": "Pervyye Petrovki",
      "lat": 52.3933333,
      "lng": 38.4375
    },
    {
      "cityName": "Peskovatskiye",
      "lat": 51.9691667,
      "lng": 39.7833333
    },
    {
      "cityName": "Pestovka",
      "lat": 52.3833333,
      "lng": 38.7166667
    },
    {
      "cityName": "Petrishchevo",
      "lat": 52.7166667,
      "lng": 38.1166667
    },
    {
      "cityName": "Petropavlovka",
      "lat": 52.1902778,
      "lng": 38.1983333
    },
    {
      "cityName": "Petrovka-Kitayeva",
      "lat": 51.9333333,
      "lng": 38.2166667
    },
    {
      "cityName": "Petrovka",
      "lat": 52.0075,
      "lng": 40.4183333
    },
    {
      "cityName": "Petrovka Tretya",
      "lat": 52.2244444,
      "lng": 39.985
    },
    {
      "cityName": "Petrovskiye Vyselki",
      "lat": 53.0952778,
      "lng": 38.8469444
    },
    {
      "cityName": "Petrovskoye",
      "lat": 52.0666667,
      "lng": 38.1666667
    },
    {
      "cityName": "Pikalovo",
      "lat": 52.2166667,
      "lng": 38.0166667
    },
    {
      "cityName": "Pirogovka",
      "lat": 53.4880556,
      "lng": 38.8488889
    },
    {
      "cityName": "Pisarevka",
      "lat": 52.4,
      "lng": 39.75
    },
    {
      "cityName": "Pisarevo",
      "lat": 52.2269444,
      "lng": 38.8008333
    },
    {
      "cityName": "Pisarovo",
      "lat": 53.2888889,
      "lng": 38.6413889
    },
    {
      "cityName": "Pishchulino",
      "lat": 52.6833333,
      "lng": 38.4630556
    },
    {
      "cityName": "Pitelino",
      "lat": 53.5344444,
      "lng": 39.6838889
    },
    {
      "cityName": "Plakhovo",
      "lat": 53.26,
      "lng": 38.6888889
    },
    {
      "cityName": "Plasskoye",
      "lat": 53.1730556,
      "lng": 38.7127778
    },
    {
      "cityName": "Plastinka",
      "lat": 52.2583333,
      "lng": 40.0113889
    },
    {
      "cityName": "Plavitsa Studenka",
      "lat": 52.0286111,
      "lng": 40.3202778
    },
    {
      "cityName": "Plekhanovo",
      "lat": 52.6347222,
      "lng": 39.8419444
    },
    {
      "cityName": "Plekhotino",
      "lat": 53.1747222,
      "lng": 39.0191667
    },
    {
      "cityName": "Plemyannikovo",
      "lat": 53.2444444,
      "lng": 39.3861111
    },
    {
      "cityName": "Pleshcheyevo",
      "lat": 52.1333333,
      "lng": 39.3333333
    },
    {
      "cityName": "Pleshkova",
      "lat": 52.7,
      "lng": 38.1
    },
    {
      "cityName": "Pletenevo",
      "lat": 52.6377778,
      "lng": 37.9477778
    },
    {
      "cityName": "Ploskaya Kuzminka",
      "lat": 52.6166667,
      "lng": 39.3
    },
    {
      "cityName": "Ploskaya Vershina",
      "lat": 51.9977778,
      "lng": 40.2477778
    },
    {
      "cityName": "Ploskoye",
      "lat": 52.7680556,
      "lng": 38.3552778
    },
    {
      "cityName": "Plotka",
      "lat": 52.15,
      "lng": 38.1666667
    },
    {
      "cityName": "Ploty",
      "lat": 52.9027778,
      "lng": 38.2461111
    },
    {
      "cityName": "Poddolgaya",
      "lat": 52.6833333,
      "lng": 38.3166667
    },
    {
      "cityName": "Poddubrovka",
      "lat": 52.1272222,
      "lng": 39.545
    },
    {
      "cityName": "Podgornoye",
      "lat": 52.1666667,
      "lng": 39.35
    },
    {
      "cityName": "Podkhorosheye",
      "lat": 52.6988889,
      "lng": 38.4086111
    },
    {
      "cityName": "Podosinki",
      "lat": 53.325,
      "lng": 38.5758333
    },
    {
      "cityName": "Podyachevskaya",
      "lat": 52.9666667,
      "lng": 38.4166667
    },
    {
      "cityName": "Podzaitskoye",
      "lat": 53.2358333,
      "lng": 38.6458333
    },
    {
      "cityName": "Poganets",
      "lat": 53.0455556,
      "lng": 37.9694444
    },
    {
      "cityName": "Pogorelovka",
      "lat": 53.1516667,
      "lng": 39.0155556
    },
    {
      "cityName": "Pokrovo-Invalidnaya",
      "lat": 52.9833333,
      "lng": 39.15
    },
    {
      "cityName": "Pokrovo-Kazatskaya Sloboda",
      "lat": 52.9833333,
      "lng": 39.1666667
    },
    {
      "cityName": "Pokrovskiye",
      "lat": 53.4166667,
      "lng": 38.85
    },
    {
      "cityName": "Pokrovskoe",
      "lat": 53.1191667,
      "lng": 38.9002778
    },
    {
      "cityName": "Polevyye Lokotsy Pervyye",
      "lat": 52.8544444,
      "lng": 37.8494444
    },
    {
      "cityName": "Polevyye Lokottsy",
      "lat": 52.85,
      "lng": 37.8666667
    },
    {
      "cityName": "Polevyye Lokottsy Vtoryye",
      "lat": 52.85,
      "lng": 37.85
    },
    {
      "cityName": "Polibino",
      "lat": 53.5025,
      "lng": 38.9763889
    },
    {
      "cityName": "Polinovskiy",
      "lat": 52.3333333,
      "lng": 39.4666667
    },
    {
      "cityName": "Politovo",
      "lat": 53.39,
      "lng": 38.9388889
    },
    {
      "cityName": "Politovskiye Vyselki",
      "lat": 53.405,
      "lng": 38.9361111
    },
    {
      "cityName": "Polovnevo",
      "lat": 53.0122222,
      "lng": 38.6083333
    },
    {
      "cityName": "Polozov",
      "lat": 52.35,
      "lng": 39.4
    },
    {
      "cityName": "Polskaya",
      "lat": 52.8166667,
      "lng": 38.0833333
    },
    {
      "cityName": "Ponomareva",
      "lat": 52.6333333,
      "lng": 37.9833333
    },
    {
      "cityName": "Popovka-Kochetovka",
      "lat": 52.4666667,
      "lng": 38.9
    },
    {
      "cityName": "Popovskiye Dvoriki",
      "lat": 52.0166667,
      "lng": 40.25
    },
    {
      "cityName": "Poryakhino",
      "lat": 52.9333333,
      "lng": 38.3333333
    },
    {
      "cityName": "Poselskoye",
      "lat": 52.0833333,
      "lng": 38.9333333
    },
    {
      "cityName": "Pozdnevka",
      "lat": 52.6630556,
      "lng": 38.2505556
    },
    {
      "cityName": "Pozdnyaki",
      "lat": 52.1333333,
      "lng": 40.2
    },
    {
      "cityName": "Pozdnyakov",
      "lat": 52.3,
      "lng": 39.3
    },
    {
      "cityName": "Pozharovo",
      "lat": 52.6333333,
      "lng": 37.9666667
    },
    {
      "cityName": "Pravda",
      "lat": 52.4236111,
      "lng": 40.1513889
    },
    {
      "cityName": "Prechistenskiye",
      "lat": 52.5,
      "lng": 37.95
    },
    {
      "cityName": "Predtechevo Pervoye",
      "lat": 52.7166667,
      "lng": 38.05
    },
    {
      "cityName": "Preobrazheniye",
      "lat": 52.5819444,
      "lng": 37.8583333
    },
    {
      "cityName": "Preobrazhenka",
      "lat": 52.5625,
      "lng": 37.8938889
    },
    {
      "cityName": "Preobrazhenovka",
      "lat": 52.9625,
      "lng": 40.0744444
    },
    {
      "cityName": "Pribytki",
      "lat": 52.155,
      "lng": 40.0711111
    },
    {
      "cityName": "Pribytkovo",
      "lat": 52.0666667,
      "lng": 39
    },
    {
      "cityName": "Prigorodka",
      "lat": 52.05,
      "lng": 39.7166667
    },
    {
      "cityName": "Priklonovka",
      "lat": 52.1938889,
      "lng": 38.6169444
    },
    {
      "cityName": "Prilepy",
      "lat": 52.7975,
      "lng": 37.9797222
    },
    {
      "cityName": "Pritykino",
      "lat": 53.5155556,
      "lng": 39.6275
    },
    {
      "cityName": "Privolye",
      "lat": 52.2666667,
      "lng": 40.45
    },
    {
      "cityName": "Progress",
      "lat": 52.1852778,
      "lng": 40.4763889
    },
    {
      "cityName": "Protasyevo",
      "lat": 53.4961111,
      "lng": 39.7822222
    },
    {
      "cityName": "Prozhigalovka",
      "lat": 53.0969444,
      "lng": 39.0613889
    },
    {
      "cityName": "Prozorovka",
      "lat": 53.0166667,
      "lng": 38.15
    },
    {
      "cityName": "Prudki",
      "lat": 52.0666667,
      "lng": 38.2
    },
    {
      "cityName": "Pruzhinki",
      "lat": 52.7252778,
      "lng": 39.1858333
    },
    {
      "cityName": "Pupki",
      "lat": 53.1175,
      "lng": 39.9761111
    },
    {
      "cityName": "Pushkari",
      "lat": 52.1741667,
      "lng": 39.8119444
    },
    {
      "cityName": "Pushkarskaya",
      "lat": 53.25,
      "lng": 39.1666667
    },
    {
      "cityName": "Pushkino",
      "lat": 52.3275,
      "lng": 40.3655556
    },
    {
      "cityName": "Pustyn",
      "lat": 53.0358333,
      "lng": 38.9413889
    },
    {
      "cityName": "Put k Sotsializmu",
      "lat": 51.9686111,
      "lng": 38.0919444
    },
    {
      "cityName": "Put Pakharya",
      "lat": 52.5833333,
      "lng": 39.7666667
    },
    {
      "cityName": "Putyatino",
      "lat": 53.0436111,
      "lng": 39.7427778
    },
    {
      "cityName": "Pyataya Sotnya",
      "lat": 52.1,
      "lng": 39.3333333
    },
    {
      "cityName": "Pyatnitskaya",
      "lat": 52.4,
      "lng": 38.6
    },
    {
      "cityName": "Pyltsy",
      "lat": 52.1280556,
      "lng": 40.1986111
    },
    {
      "cityName": "Rabochiy Poselok",
      "lat": 52.55,
      "lng": 39.6
    },
    {
      "cityName": "Rakhmanova",
      "lat": 53.0166667,
      "lng": 38.7666667
    },
    {
      "cityName": "Rakitino",
      "lat": 53.0555556,
      "lng": 39.1291667
    },
    {
      "cityName": "Raskidalovka",
      "lat": 52.3166667,
      "lng": 38.3666667
    },
    {
      "cityName": "Rassvet",
      "lat": 52.8241667,
      "lng": 37.9747222
    },
    {
      "cityName": "Ratchino",
      "lat": 53.0369444,
      "lng": 39.9169444
    },
    {
      "cityName": "Rayevshchina",
      "lat": 53.4166667,
      "lng": 38.9008333
    },
    {
      "cityName": "Redkino",
      "lat": 52.5336111,
      "lng": 38.1002778
    },
    {
      "cityName": "Renevka",
      "lat": 52.9666667,
      "lng": 38.3
    },
    {
      "cityName": "Repets",
      "lat": 52.3833333,
      "lng": 39.0333333
    },
    {
      "cityName": "Reptsy",
      "lat": 53.2266667,
      "lng": 39.2533333
    },
    {
      "cityName": "Repyevka",
      "lat": 52.8666667,
      "lng": 38.6166667
    },
    {
      "cityName": "Reshetovo-Dubrava",
      "lat": 52.8833333,
      "lng": 38.6
    },
    {
      "cityName": "Rogachevo",
      "lat": 52.6833333,
      "lng": 39.05
    },
    {
      "cityName": "Rogatovo",
      "lat": 52.7,
      "lng": 38.5
    },
    {
      "cityName": "Rogovo",
      "lat": 52.8102778,
      "lng": 38.7622222
    },
    {
      "cityName": "Rogozhino",
      "lat": 52.5622222,
      "lng": 39.0486111
    },
    {
      "cityName": "Rog",
      "lat": 52.4644444,
      "lng": 38.1872222
    },
    {
      "cityName": "Romanovka",
      "lat": 52.5413889,
      "lng": 37.9322222
    },
    {
      "cityName": "Romanovo",
      "lat": 53.1238889,
      "lng": 39.1844444
    },
    {
      "cityName": "Romanovskiy",
      "lat": 52.5166667,
      "lng": 39.55
    },
    {
      "cityName": "Romashki",
      "lat": 52.55,
      "lng": 38
    },
    {
      "cityName": "Romashkovka",
      "lat": 52.8166667,
      "lng": 37.9833333
    },
    {
      "cityName": "Rostovka",
      "lat": 52.2794444,
      "lng": 39.9380556
    },
    {
      "cityName": "Rovenka",
      "lat": 51.9533333,
      "lng": 40.5275
    },
    {
      "cityName": "Rovenki",
      "lat": 52.4180556,
      "lng": 37.9411111
    },
    {
      "cityName": "Rozhdestvo-Grebenkino",
      "lat": 52.9,
      "lng": 38.9333333
    },
    {
      "cityName": "Rozhki",
      "lat": 53.3280556,
      "lng": 38.8225
    },
    {
      "cityName": "Rublevka",
      "lat": 52.2833333,
      "lng": 38.8
    },
    {
      "cityName": "Rusanovka",
      "lat": 52.2166667,
      "lng": 38.4333333
    },
    {
      "cityName": "Russkaya Kazinka",
      "lat": 52.4166667,
      "lng": 38.0333333
    },
    {
      "cityName": "Ryabinki",
      "lat": 52.4166667,
      "lng": 38.55
    },
    {
      "cityName": "Ryasy",
      "lat": 53.2666667,
      "lng": 40.05
    },
    {
      "cityName": "Rzhavets",
      "lat": 52.195,
      "lng": 40.5758333
    },
    {
      "cityName": "Rzhevka",
      "lat": 53.3025,
      "lng": 40.0841667
    },
    {
      "cityName": "Sadikovo",
      "lat": 53.4569444,
      "lng": 39.63
    },
    {
      "cityName": "Sadovyye",
      "lat": 52.2355556,
      "lng": 40.1866667
    },
    {
      "cityName": "Sakharovka",
      "lat": 52.65,
      "lng": 38.65
    },
    {
      "cityName": "Salovyye",
      "lat": 53.36,
      "lng": 40.0963889
    },
    {
      "cityName": "Saltychki",
      "lat": 52.2852778,
      "lng": 40.1580556
    },
    {
      "cityName": "Samarino",
      "lat": 52.0080556,
      "lng": 38.0405556
    },
    {
      "cityName": "Samodurovka",
      "lat": 53.2166667,
      "lng": 39.15
    },
    {
      "cityName": "Samokhvalovka",
      "lat": 52.85,
      "lng": 38.4833333
    },
    {
      "cityName": "Sapron",
      "lat": 52.1469444,
      "lng": 38.0627778
    },
    {
      "cityName": "Saprychka",
      "lat": 52.9272222,
      "lng": 38.6925
    },
    {
      "cityName": "Saprykino",
      "lat": 52.9647222,
      "lng": 38.6697222
    },
    {
      "cityName": "Satino",
      "lat": 52.9833333,
      "lng": 39.45
    },
    {
      "cityName": "Savchishkin",
      "lat": 52.3166667,
      "lng": 38.4833333
    },
    {
      "cityName": "Savinka",
      "lat": 52.9833333,
      "lng": 38.9833333
    },
    {
      "cityName": "Savitskoye",
      "lat": 52.1661111,
      "lng": 39.3897222
    },
    {
      "cityName": "Savkovo",
      "lat": 52.2166667,
      "lng": 40.0833333
    },
    {
      "cityName": "Sazykino",
      "lat": 52.65,
      "lng": 38.4333333
    },
    {
      "cityName": "Sedelki",
      "lat": 52.1666667,
      "lng": 38.95
    },
    {
      "cityName": "Seishchovka",
      "lat": 53.2886111,
      "lng": 39.4536111
    },
    {
      "cityName": "Sekirino",
      "lat": 53.1805556,
      "lng": 38.9566667
    },
    {
      "cityName": "Sekletarovka",
      "lat": 52.5,
      "lng": 38.7333333
    },
    {
      "cityName": "Seleznevka",
      "lat": 52.7166667,
      "lng": 38.0833333
    },
    {
      "cityName": "Selishche",
      "lat": 52.4333333,
      "lng": 39.15
    },
    {
      "cityName": "Semenetskiy Khutor",
      "lat": 52.9055556,
      "lng": 37.9191667
    },
    {
      "cityName": "Semenovka",
      "lat": 51.9483333,
      "lng": 38.1797222
    },
    {
      "cityName": "Semenovskiy",
      "lat": 52.25,
      "lng": 39.4833333
    },
    {
      "cityName": "Semitskoye",
      "lat": 52.9822222,
      "lng": 39.2913889
    },
    {
      "cityName": "Sennoye",
      "lat": 52.0833333,
      "lng": 39.3166667
    },
    {
      "cityName": "Sentsovo",
      "lat": 52.6452778,
      "lng": 39.3533333
    },
    {
      "cityName": "Senyavka",
      "lat": 52.55,
      "lng": 38.9333333
    },
    {
      "cityName": "Sergevka",
      "lat": 52.3080556,
      "lng": 40.5244444
    },
    {
      "cityName": "Sergeyevka",
      "lat": 51.9644444,
      "lng": 40.3655556
    },
    {
      "cityName": "Sergiyevka",
      "lat": 52.3,
      "lng": 38.55
    },
    {
      "cityName": "Sergovka",
      "lat": 52.8338889,
      "lng": 39.1363889
    },
    {
      "cityName": "Severny",
      "lat": 52.0166667,
      "lng": 38.0166667
    },
    {
      "cityName": "Sezenovo",
      "lat": 53.0963889,
      "lng": 39.3386111
    },
    {
      "cityName": "Shakhovskoye",
      "lat": 53.2483333,
      "lng": 38.76
    },
    {
      "cityName": "Sharapovka",
      "lat": 52.8761111,
      "lng": 37.8911111
    },
    {
      "cityName": "Shatova",
      "lat": 52.5725,
      "lng": 38.1825
    },
    {
      "cityName": "Shcheglovka",
      "lat": 53.3388889,
      "lng": 38.9297222
    },
    {
      "cityName": "Shchegry",
      "lat": 53.1308333,
      "lng": 38.7405556
    },
    {
      "cityName": "Shcherbachevka",
      "lat": 52.8666667,
      "lng": 37.9666667
    },
    {
      "cityName": "Shcherbachevo",
      "lat": 52.3,
      "lng": 38.1833333
    },
    {
      "cityName": "Shcherbakovo",
      "lat": 53.0333333,
      "lng": 38.6666667
    },
    {
      "cityName": "Shcherbinino",
      "lat": 53.3833333,
      "lng": 40.0166667
    },
    {
      "cityName": "Shevskoye",
      "lat": 53.0416667,
      "lng": 39.4238889
    },
    {
      "cityName": "Shipovo",
      "lat": 53.0183333,
      "lng": 38.2627778
    },
    {
      "cityName": "Shishino",
      "lat": 52.1730556,
      "lng": 37.9497222
    },
    {
      "cityName": "Shpeyenarka",
      "lat": 52.1833333,
      "lng": 38.05
    },
    {
      "cityName": "Shubinka",
      "lat": 52.4,
      "lng": 39.0833333
    },
    {
      "cityName": "Shubiny",
      "lat": 52.2166667,
      "lng": 39.8833333
    },
    {
      "cityName": "Sidorovka",
      "lat": 52.35,
      "lng": 38.5
    },
    {
      "cityName": "Silichevo",
      "lat": 52.8833333,
      "lng": 38.7166667
    },
    {
      "cityName": "Sindyakino",
      "lat": 52.1213889,
      "lng": 39.34
    },
    {
      "cityName": "Siniy Kamen",
      "lat": 52.1183333,
      "lng": 38.1552778
    },
    {
      "cityName": "Sinyavka",
      "lat": 52.3977778,
      "lng": 40.0122222
    },
    {
      "cityName": "Sirskaya",
      "lat": 52.5658333,
      "lng": 39.5180556
    },
    {
      "cityName": "Sitovka",
      "lat": 52.6833333,
      "lng": 39.7
    },
    {
      "cityName": "Skornyakovo",
      "lat": 52.6,
      "lng": 39.0833333
    },
    {
      "cityName": "Skorodniye",
      "lat": 53.1483333,
      "lng": 38.7594444
    },
    {
      "cityName": "Skorodnoye",
      "lat": 52.7833333,
      "lng": 38.0666667
    },
    {
      "cityName": "Skuchay",
      "lat": 52.1619444,
      "lng": 40.5472222
    },