{
  "name": "Omsk",
  "cities": [
    {
      "cityName": "Abakhshikha",
      "lat": 57.2666667,
      "lng": 72.2833333
    },
    {
      "cityName": "Achair",
      "lat": 54.65,
      "lng": 73.8833333
    },
    {
      "cityName": "Achairka",
      "lat": 55.5333333,
      "lng": 74.85
    },
    {
      "cityName": "Achairskiy",
      "lat": 54.6333333,
      "lng": 73.9
    },
    {
      "cityName": "Adamovka",
      "lat": 54.3666667,
      "lng": 74
    },
    {
      "cityName": "Agafonovka",
      "lat": 55.5166667,
      "lng": 73.85
    },
    {
      "cityName": "Agapovka",
      "lat": 54.9833333,
      "lng": 71.7
    },
    {
      "cityName": "Akankul",
      "lat": 54.35,
      "lng": 75.6333333
    },
    {
      "cityName": "Aksenovka",
      "lat": 55.45,
      "lng": 73.9833333
    },
    {
      "cityName": "Aksenovo",
      "lat": 57.6883333,
      "lng": 71.5175
    },
    {
      "cityName": "Alabota",
      "lat": 53.9505556,
      "lng": 73.7622222
    },
    {
      "cityName": "Aleksandrina",
      "lat": 56.9666667,
      "lng": 73.6166667
    },
    {
      "cityName": "Aleksandrovka",
      "lat": 53.9697222,
      "lng": 74.8566667
    },
    {
      "cityName": "Aleksandrovskiy",
      "lat": 54.55,
      "lng": 72.75
    },
    {
      "cityName": "Aleksandrovskoye",
      "lat": 54.65,
      "lng": 72.7333333
    },
    {
      "cityName": "Alekseyevka",
      "lat": 54.55,
      "lng": 74.6833333
    },
    {
      "cityName": "Alekseyevskiy",
      "lat": 54.7666667,
      "lng": 75.45
    },
    {
      "cityName": "Aleuke",
      "lat": 54.4666667,
      "lng": 72.05
    },
    {
      "cityName": "Alim",
      "lat": 54.8,
      "lng": 71.1666667
    },
    {
      "cityName": "Alkul",
      "lat": 53.9475,
      "lng": 74.9463889
    },
    {
      "cityName": "Altrashipovo",
      "lat": 56.3833333,
      "lng": 74.2166667
    },
    {
      "cityName": "Alturay",
      "lat": 57.1333333,
      "lng": 75.9166667
    },
    {
      "cityName": "Amre",
      "lat": 54.4833333,
      "lng": 73.8333333
    },
    {
      "cityName": "Andreyevka",
      "lat": 54.3833333,
      "lng": 73.2666667
    },
    {
      "cityName": "Andreyevskiy",
      "lat": 55.7,
      "lng": 73.8
    },
    {
      "cityName": "Andreyevskoye",
      "lat": 54.5333333,
      "lng": 75.0666667
    },
    {
      "cityName": "Andrianovka",
      "lat": 53.8066667,
      "lng": 73.7505556
    },
    {
      "cityName": "Andronkino",
      "lat": 55.6833333,
      "lng": 72.3333333
    },
    {
      "cityName": "Andryushevka",
      "lat": 54.2219444,
      "lng": 71.6205556
    },
    {
      "cityName": "Angasly",
      "lat": 56.8833333,
      "lng": 72.8833333
    },
    {
      "cityName": "Anikino",
      "lat": 56.5333333,
      "lng": 73.9
    },
    {
      "cityName": "Ankudinovo",
      "lat": 54.8666667,
      "lng": 73.8166667
    },
    {
      "cityName": "Annenskaya",
      "lat": 56.5666667,
      "lng": 75.8
    },
    {
      "cityName": "Antambek",
      "lat": 54.1666667,
      "lng": 72.8833333
    },
    {
      "cityName": "Antoninovka",
      "lat": 55.9833333,
      "lng": 75.0333333
    },
    {
      "cityName": "Antonovka",
      "lat": 55.35,
      "lng": 74.95
    },
    {
      "cityName": "Apollonovka",
      "lat": 55.1666667,
      "lng": 71.5333333
    },
    {
      "cityName": "Argaiz",
      "lat": 57.2666667,
      "lng": 73.5833333
    },
    {
      "cityName": "Arshinovka",
      "lat": 55.4666667,
      "lng": 73.0833333
    },
    {
      "cityName": "Artyn",
      "lat": 56.15,
      "lng": 74.75
    },
    {
      "cityName": "Asakla Vtoraya",
      "lat": 57.5666667,
      "lng": 74.25
    },
    {
      "cityName": "Ashevany",
      "lat": 57.6333333,
      "lng": 71.1833333
    },
    {
      "cityName": "Ashirovo",
      "lat": 56.9666667,
      "lng": 74.2333333
    },
    {
      "cityName": "Astyrovka",
      "lat": 55.3666667,
      "lng": 74.4333333
    },
    {
      "cityName": "Atak",
      "lat": 56.8166667,
      "lng": 74.65
    },
    {
      "cityName": "Atirka",
      "lat": 57.2561111,
      "lng": 74.2766667
    },
    {
      "cityName": "Atrachi",
      "lat": 55.95,
      "lng": 72.0333333
    },
    {
      "cityName": "Aul-Baba",
      "lat": 55.9166667,
      "lng": 73.7166667
    },
    {
      "cityName": "Aul Nomer Pervyy",
      "lat": 55.6666667,
      "lng": 71.5666667
    },
    {
      "cityName": "Aul Nomer Shestoy",
      "lat": 55.6166667,
      "lng": 71.15
    },
    {
      "cityName": "Aul Nomer Vtoroy",
      "lat": 55.3833333,
      "lng": 71.4666667
    },
    {
      "cityName": "Aulnyy",
      "lat": 54.6166667,
      "lng": 75.8
    },
    {
      "cityName": "Aul Rusinovo",
      "lat": 55.8833333,
      "lng": 73.8333333
    },
    {
      "cityName": "Ava Nagornaya",
      "lat": 57.6333333,
      "lng": 71.7666667
    },
    {
      "cityName": "Avly",
      "lat": 55.3166667,
      "lng": 72.9833333
    },
    {
      "cityName": "Avyak",
      "lat": 57.1333333,
      "lng": 73.2833333
    },
    {
      "cityName": "Ayevskiy Volok",
      "lat": 56.75,
      "lng": 71.75
    },
    {
      "cityName": "Aylinka",
      "lat": 57.3666667,
      "lng": 73.4333333
    },
    {
      "cityName": "Aytansyk",
      "lat": 54.7666667,
      "lng": 73
    },
    {
      "cityName": "Aytkulovo",
      "lat": 56.75,
      "lng": 74.6
    },
    {
      "cityName": "Azanovo",
      "lat": 56.5333333,
      "lng": 72.9333333
    },
    {
      "cityName": "Azovo",
      "lat": 54.7166667,
      "lng": 73.0333333
    },
    {
      "cityName": "Azy",
      "lat": 57.4833333,
      "lng": 71.8833333
    },
    {
      "cityName": "Babezh",
      "lat": 54.6333333,
      "lng": 72.2
    },
    {
      "cityName": "Bairova",
      "lat": 56.0666667,
      "lng": 73.1333333
    },
    {
      "cityName": "Bakalinskiy",
      "lat": 55.6333333,
      "lng": 72.7833333
    },
    {
      "cityName": "Bakbasar",
      "lat": 54.7166667,
      "lng": 73.1666667
    },
    {
      "cityName": "Bakina",
      "lat": 56.8333333,
      "lng": 75.6666667
    },
    {
      "cityName": "Bakmak",
      "lat": 56.5666667,
      "lng": 75.5666667
    },
    {
      "cityName": "Baksheyevo",
      "lat": 57.4,
      "lng": 73
    },
    {
      "cityName": "Balagay",
      "lat": 53.8525,
      "lng": 73.9794444
    },
    {
      "cityName": "Balakhley",
      "lat": 57.25,
      "lng": 70.7333333
    },
    {
      "cityName": "Balandino",
      "lat": 54.4166667,
      "lng": 74.3666667
    },
    {
      "cityName": "Balashovka",
      "lat": 55.2166667,
      "lng": 72.2666667
    },
    {
      "cityName": "Balta",
      "lat": 54.4333333,
      "lng": 72.45
    },
    {
      "cityName": "Baltika",
      "lat": 55.1833333,
      "lng": 71.2
    },
    {
      "cityName": "Baniyaz",
      "lat": 54.85,
      "lng": 72.65
    },
    {
      "cityName": "Barrikada",
      "lat": 54.7833333,
      "lng": 71.5333333
    },
    {
      "cityName": "Barsuk",
      "lat": 54.3666667,
      "lng": 72.85
    },
    {
      "cityName": "Barvenkovo",
      "lat": 54.1311111,
      "lng": 71.5663889
    },
    {
      "cityName": "Baryshnikovo",
      "lat": 55.7333333,
      "lng": 74.7666667
    },
    {
      "cityName": "Basagash",
      "lat": 53.9075,
      "lng": 74.2375
    },
    {
      "cityName": "Basly",
      "lat": 57.0166667,
      "lng": 72.7666667
    },
    {
      "cityName": "Bastandyk",
      "lat": 55.1833333,
      "lng": 71.1
    },
    {
      "cityName": "Batareyevka",
      "lat": 55.5333333,
      "lng": 71.0833333
    },
    {
      "cityName": "Baturovka",
      "lat": 54.5333333,
      "lng": 73.45
    },
    {
      "cityName": "Baybatyr",
      "lat": 54.7166667,
      "lng": 73.2
    },
    {
      "cityName": "Bayby",
      "lat": 57.4666667,
      "lng": 72.5333333
    },
    {
      "cityName": "Baydalin",
      "lat": 54.3833333,
      "lng": 74.25
    },
    {
      "cityName": "Baygachi",
      "lat": 56.2666667,
      "lng": 74.4666667
    },
    {
      "cityName": "Bazarikha",
      "lat": 56.8,
      "lng": 71.0666667
    },
    {
      "cityName": "Bazhenovo",
      "lat": 55.6333333,
      "lng": 73.0833333
    },
    {
      "cityName": "Bekeshevka",
      "lat": 55.5833333,
      "lng": 72.7
    },
    {
      "cityName": "Beketovka",
      "lat": 55.1333333,
      "lng": 73.5333333
    },
    {
      "cityName": "Bekishevo",
      "lat": 54.8833333,
      "lng": 73.7833333
    },
    {
      "cityName": "Beklemishevo",
      "lat": 55.1833333,
      "lng": 71.9166667
    },
    {
      "cityName": "Bekmes",
      "lat": 56.65,
      "lng": 74.9666667
    },
    {
      "cityName": "Belaya Gora",
      "lat": 57.0333333,
      "lng": 74.95
    },
    {
      "cityName": "Beldezh No 12",
      "lat": 54.3913889,
      "lng": 71.8838889
    },
    {
      "cityName": "Beldezh No 30",
      "lat": 54.4141667,
      "lng": 71.9541667
    },
    {
      "cityName": "Beldezh No 3",
      "lat": 54.3952778,
      "lng": 71.7622222
    },
    {
      "cityName": "Beldezh No 7",
      "lat": 54.4213889,
      "lng": 71.8375
    },
    {
      "cityName": "Belikorusskoye",
      "lat": 54.65,
      "lng": 74.6333333
    },
    {
      "cityName": "Beloglazova",
      "lat": 56.05,
      "lng": 72.6666667
    },
    {
      "cityName": "Belogrivka",
      "lat": 56.6333333,
      "lng": 72.8333333
    },
    {
      "cityName": "Belostok",
      "lat": 54.1666667,
      "lng": 72.7833333
    },
    {
      "cityName": "Beloturkovka",
      "lat": 54.5166667,
      "lng": 71.5869444
    },
    {
      "cityName": "Belousovka",
      "lat": 54.05,
      "lng": 73.5166667
    },
    {
      "cityName": "Belovka",
      "lat": 54.7,
      "lng": 74.4
    },
    {
      "cityName": "Belsendy",
      "lat": 55.35,
      "lng": 74.0333333
    },
    {
      "cityName": "Belyakovka",
      "lat": 56.6833333,
      "lng": 72.7833333
    },
    {
      "cityName": "Belyashevo",
      "lat": 55.4333333,
      "lng": 74.6
    },
    {
      "cityName": "Belyy Yar",
      "lat": 57.5863889,
      "lng": 72.3866667
    },
    {
      "cityName": "Berdnikovo",
      "lat": 54.4166667,
      "lng": 74.4166667
    },
    {
      "cityName": "Berdovka",
      "lat": 54.2,
      "lng": 73.4333333
    },
    {
      "cityName": "Berdyanka",
      "lat": 54.6333333,
      "lng": 73.1
    },
    {
      "cityName": "Beregovoy",
      "lat": 55.15,
      "lng": 73.1833333
    },
    {
      "cityName": "Beregovoye",
      "lat": 53.9486111,
      "lng": 74.9127778
    },
    {
      "cityName": "Berestinskiye",
      "lat": 57.8333333,
      "lng": 70.7333333
    },
    {
      "cityName": "Bereznyaki",
      "lat": 54.9833333,
      "lng": 71
    },
    {
      "cityName": "Berezovka",
      "lat": 54.3666667,
      "lng": 74.3
    },
    {
      "cityName": "Berezovskiy",
      "lat": 57.3666667,
      "lng": 75.1
    },
    {
      "cityName": "Berezyanka",
      "lat": 57.8,
      "lng": 70.7333333
    },
    {
      "cityName": "Bergamak",
      "lat": 56.4166667,
      "lng": 75.05
    },
    {
      "cityName": "Bergamakskiy",
      "lat": 56.4666667,
      "lng": 75
    },
    {
      "cityName": "Bergamakskiye",
      "lat": 56.4333333,
      "lng": 74.9333333
    },
    {
      "cityName": "Berkin",
      "lat": 54.7666667,
      "lng": 72.7666667
    },
    {
      "cityName": "Berkut",
      "lat": 54.2833333,
      "lng": 72.3
    },
    {
      "cityName": "Bernyazhka",
      "lat": 56.6333333,
      "lng": 74.5666667
    },
    {
      "cityName": "Besekey",
      "lat": 54.75,
      "lng": 73.1
    },
    {
      "cityName": "Beshaul",
      "lat": 55.8166667,
      "lng": 74.5166667
    },
    {
      "cityName": "Bespalovo",
      "lat": 55.95,
      "lng": 73.3166667
    },
    {
      "cityName": "Bessarabka",
      "lat": 53.6127778,
      "lng": 73.2925
    },
    {
      "cityName": "Besterek",
      "lat": 54.35,
      "lng": 72.65
    },
    {
      "cityName": "Bezhevka",
      "lat": 54.2330556,
      "lng": 71.3466667
    },
    {
      "cityName": "Bicha",
      "lat": 57.8727778,
      "lng": 70.6252778
    },
    {
      "cityName": "Blagodarovka",
      "lat": 54.0666667,
      "lng": 73.1833333
    },
    {
      "cityName": "Blagoveshchenka",
      "lat": 57.0333333,
      "lng": 75.6833333
    },
    {
      "cityName": "Blagoveshchenskoye",
      "lat": 54.7333333,
      "lng": 74.5333333
    },
    {
      "cityName": "Bobrinka",
      "lat": 54.1166667,
      "lng": 74.2166667
    },
    {
      "cityName": "Bobrovka",
      "lat": 57.2833333,
      "lng": 73.3
    },
    {
      "cityName": "Bobrovskiy",
      "lat": 57.3,
      "lng": 74.2333333
    },
    {
      "cityName": "Bocherinskiy",
      "lat": 56.5333333,
      "lng": 75.2833333
    },
    {
      "cityName": "Bogachevka",
      "lat": 54.35,
      "lng": 74.0833333
    },
    {
      "cityName": "Bogdanovka",
      "lat": 54.1,
      "lng": 74.7833333
    },
    {
      "cityName": "Bogdanovo",
      "lat": 55.7,
      "lng": 73.9666667
    },
    {
      "cityName": "Bogdanovskiy",
      "lat": 57.0333333,
      "lng": 73.45
    },
    {
      "cityName": "Bogodukhovka",
      "lat": 54.0833333,
      "lng": 73.3833333
    },
    {
      "cityName": "Bogodukhovskiy",
      "lat": 55.4666667,
      "lng": 71.7666667
    },
    {
      "cityName": "Bogolyubovka",
      "lat": 54.8,
      "lng": 72.65
    },
    {
      "cityName": "Bogolyubovo",
      "lat": 55.3,
      "lng": 72.65
    },
    {
      "cityName": "Bogomelskiy",
      "lat": 57.0333333,
      "lng": 74.85
    },
    {
      "cityName": "Bogorodskaya",
      "lat": 55.6,
      "lng": 72.3666667
    },
    {
      "cityName": "Bogoslovka",
      "lat": 54.4333333,
      "lng": 75.2166667
    },
    {
      "cityName": "Bolakino",
      "lat": 55.7666667,
      "lng": 73.8333333
    },
    {
      "cityName": "Boldyrevka",
      "lat": 54.2333333,
      "lng": 72.6
    },
    {
      "cityName": "Bolguzha",
      "lat": 54.3166667,
      "lng": 73.4166667
    },
    {
      "cityName": "Bolshak",
      "lat": 56.4833333,
      "lng": 75.7
    },
    {
      "cityName": "Bolshakovka",
      "lat": 55.4166667,
      "lng": 72.5
    },
    {
      "cityName": "Bolshakovskiy",
      "lat": 55.4333333,
      "lng": 72.5333333
    },
    {
      "cityName": "Bolshaya Igiza",
      "lat": 57.4666667,
      "lng": 70.9166667
    },
    {
      "cityName": "Bolshaya Kazantseva",
      "lat": 56.0333333,
      "lng": 73.0166667
    },
    {
      "cityName": "Bolshaya Kochkovskaya",
      "lat": 56.7166667,
      "lng": 74.1
    },
    {
      "cityName": "Bolshaya Krasnoyarka",
      "lat": 56.4,
      "lng": 75.9333333
    },
    {
      "cityName": "Bolshaya Okunevka",
      "lat": 55.5166667,
      "lng": 72.5166667
    },
    {
      "cityName": "Bolshaya Pristan",
      "lat": 57.3833333,
      "lng": 73.6166667
    },
    {
      "cityName": "Bolshaya Rebrovka",
      "lat": 54.9333333,
      "lng": 73.1666667
    },
    {
      "cityName": "Bolshaya Safonikha",
      "lat": 55.7666667,
      "lng": 71.3
    },
    {
      "cityName": "Bolshaya Tava",
      "lat": 57.4969444,
      "lng": 71.2011111
    },
    {
      "cityName": "Bolshaya Tebendya",
      "lat": 57.7333333,
      "lng": 70.85
    },
    {
      "cityName": "Bolshegrivskoye",
      "lat": 53.9136111,
      "lng": 74.9130556
    },
    {
      "cityName": "Bolshe-Kulachinskoye",
      "lat": 55.2166667,
      "lng": 73.25
    },
    {
      "cityName": "Bolshemitkino",
      "lat": 55.3,
      "lng": 74.6833333
    },
    {
      "cityName": "Bolshe-Mogilnoye",
      "lat": 55.4,
      "lng": 72.6
    },
    {
      "cityName": "Bolshenikolskoye",
      "lat": 56.1333333,
      "lng": 75
    },
    {
      "cityName": "Bolshepeschanka",
      "lat": 55.5333333,
      "lng": 70.8
    },
    {
      "cityName": "Bolsherechenskoye",
      "lat": 56.0958333,
      "lng": 74.6233333
    },
    {
      "cityName": "Bolsheuki",
      "lat": 56.9491667,
      "lng": 72.6283333
    },
    {
      "cityName": "Bolshevik",
      "lat": 54.8833333,
      "lng": 71.0333333
    },
    {
      "cityName": "Bolshiye Ity",
      "lat": 57.7333333,
      "lng": 73.75
    },
    {
      "cityName": "Bolshiye Murly",
      "lat": 55.9166667,
      "lng": 74.5333333
    },
    {
      "cityName": "Bolshiye Roshchi",
      "lat": 54.8833333,
      "lng": 72.9666667
    },
    {
      "cityName": "Bolshiye Tunzy",
      "lat": 57.35,
      "lng": 74
    },
    {
      "cityName": "Bolshiye Turaly",
      "lat": 56.75,
      "lng": 74.0166667
    },
    {
      "cityName": "Bolshoy Atmas",
      "lat": 54.0666667,
      "lng": 74.9333333
    },
    {
      "cityName": "Bolshoye Shipitsino",
      "lat": 55.7333333,
      "lng": 73.1666667
    },
    {
      "cityName": "Bolshoye Terekhino",
      "lat": 56.6166667,
      "lng": 73.95
    },
    {
      "cityName": "Bolshoy Iskak",
      "lat": 54.7166667,
      "lng": 72.8166667
    },
    {
      "cityName": "Bolshoy Karabas",
      "lat": 54.8333333,
      "lng": 72.4333333
    },
    {
      "cityName": "Bolshoy Kust",
      "lat": 54.6833333,
      "lng": 75.7666667
    },
    {
      "cityName": "Bolshoy Prygan",
      "lat": 56.9,
      "lng": 76.0666667
    },
    {
      "cityName": "Bolshoy Selim",
      "lat": 57.15,
      "lng": 74.8
    },
    {
      "cityName": "Boltobek",
      "lat": 55.3166667,
      "lng": 73.7833333
    },
    {
      "cityName": "Borisovka",
      "lat": 55.8833333,
      "lng": 74.7166667
    },
    {
      "cityName": "Borisovskiy",
      "lat": 54.6166667,
      "lng": 72.5833333
    },
    {
      "cityName": "Borki",
      "lat": 55.0333333,
      "lng": 74.0166667
    },
    {
      "cityName": "Borodikhina",
      "lat": 56.7333333,
      "lng": 74.5
    },
    {
      "cityName": "Borodinka",
      "lat": 54.3111111,
      "lng": 71.2391667
    },
    {
      "cityName": "Borovoye",
      "lat": 56.3666667,
      "lng": 75.2333333
    },
    {
      "cityName": "Borovyanka",
      "lat": 55.7333333,
      "lng": 74.2833333
    },
    {
      "cityName": "Boryatino",
      "lat": 55.2833333,
      "lng": 72.2
    },
    {
      "cityName": "Botvino",
      "lat": 56.2833333,
      "lng": 74.55
    },
    {
      "cityName": "Boyarkino",
      "lat": 57.1333333,
      "lng": 73.5333333
    },
    {
      "cityName": "Boyevoy",
      "lat": 54.9333333,
      "lng": 71.45
    },
    {
      "cityName": "Bozhedarovka",
      "lat": 54.2,
      "lng": 73.7333333
    },
    {
      "cityName": "Braychikovskoye",
      "lat": 56.2686111,
      "lng": 73.3222222
    },
    {
      "cityName": "Brazhnikovo",
      "lat": 56.5166667,
      "lng": 73.8333333
    },
    {
      "cityName": "Breslavka",
      "lat": 54.3,
      "lng": 74.2333333
    },
    {
      "cityName": "Breusovka",
      "lat": 54.1833333,
      "lng": 73.2666667
    },
    {
      "cityName": "Brezitskoye",
      "lat": 54.2,
      "lng": 72.5
    },
    {
      "cityName": "Brodnikova",
      "lat": 57.6,
      "lng": 71.9166667
    },
    {
      "cityName": "Bugaly",
      "lat": 55.9333333,
      "lng": 74
    },
    {
      "cityName": "Bugayevka",
      "lat": 54.55,
      "lng": 72.5
    },
    {
      "cityName": "Bugrovaya",
      "lat": 55.9333333,
      "lng": 72.2666667
    },
    {
      "cityName": "Bukino",
      "lat": 54.5166667,
      "lng": 74.5666667
    },
    {
      "cityName": "Bulekbay",
      "lat": 54.55,
      "lng": 73.0166667
    },
    {
      "cityName": "Bunyakovka",
      "lat": 54.1333333,
      "lng": 73.1666667
    },
    {
      "cityName": "Burashevskiy",
      "lat": 54.4333333,
      "lng": 71.45
    },
    {
      "cityName": "Burle",
      "lat": 53.6975,
      "lng": 73.5555556
    },
    {
      "cityName": "Burul",
      "lat": 54.4666667,
      "lng": 72.3666667
    },
    {
      "cityName": "Buryaki",
      "lat": 54.8666667,
      "lng": 71.9666667
    },
    {
      "cityName": "Busly",
      "lat": 56.3833333,
      "lng": 72.6833333
    },
    {
      "cityName": "Butakovo",
      "lat": 57.05,
      "lng": 74.0833333
    },
    {
      "cityName": "Butovka",
      "lat": 55.3,
      "lng": 73.8666667
    },
    {
      "cityName": "Buzan",
      "lat": 55.7,
      "lng": 70.5666667
    },
    {
      "cityName": "Buzhan",
      "lat": 54.4166667,
      "lng": 74.1333333
    },
    {
      "cityName": "Bygan",
      "lat": 57.2713889,
      "lng": 74.38
    },
    {
      "cityName": "Bystrushka",
      "lat": 57.35,
      "lng": 72.5333333
    },
    {
      "cityName": "Bystryy",
      "lat": 57.7666667,
      "lng": 74.0333333
    },
    {
      "cityName": "Byzynskiy",
      "lat": 57.7666667,
      "lng": 72.9
    },
    {
      "cityName": "Chagina",
      "lat": 56.4666667,
      "lng": 71.9833333
    },
    {
      "cityName": "Chakmynskoye",
      "lat": 56.25,
      "lng": 74.6833333
    },
    {
      "cityName": "Chapayevo",
      "lat": 56.2277778,
      "lng": 73.9488889
    },
    {
      "cityName": "Chashchino",
      "lat": 55.9333333,
      "lng": 72.1666667
    },
    {
      "cityName": "Chaunina",
      "lat": 57.1333333,
      "lng": 73.0833333
    },
    {
      "cityName": "Chavlak",
      "lat": 54.15,
      "lng": 74.8
    },
    {
      "cityName": "Chaykino",
      "lat": 55.6166667,
      "lng": 72.2833333
    },
    {
      "cityName": "Chebaklinskiy",
      "lat": 55.9666667,
      "lng": 73.8666667
    },
    {
      "cityName": "Cheburenki",
      "lat": 54.8833333,
      "lng": 72.5166667
    },
    {
      "cityName": "Cheburly",
      "lat": 56.7833333,
      "lng": 72.3
    },
    {
      "cityName": "Chechenevo",
      "lat": 56.8666667,
      "lng": 73.7333333
    },
    {
      "cityName": "Chekhovka",
      "lat": 57.0166667,
      "lng": 75.6
    },
    {
      "cityName": "Chekrusheva",
      "lat": 56.9169444,
      "lng": 74.2713889
    },
    {
      "cityName": "Cheldak",
      "lat": 56.3333333,
      "lng": 71.6
    },
    {
      "cityName": "Cherdyntseva",
      "lat": 56.3,
      "lng": 72.9833333
    },
    {
      "cityName": "Cheredova",
      "lat": 57.0166667,
      "lng": 73.65
    },
    {
      "cityName": "Cheremnovka",
      "lat": 55.4166667,
      "lng": 71.7833333
    },
    {
      "cityName": "Cheremshanka",
      "lat": 56.6166667,
      "lng": 75.4833333
    },
    {
      "cityName": "Cheremukhovskiy",
      "lat": 54.85,
      "lng": 73.45
    },
    {
      "cityName": "Cherlakskiy",
      "lat": 53.7783333,
      "lng": 74.5044444
    },
    {
      "cityName": "Chernaly",
      "lat": 56.3166667,
      "lng": 74.1666667
    },
    {
      "cityName": "Chernetsovka",
      "lat": 56.55,
      "lng": 72.5166667
    },
    {
      "cityName": "Chernigovka",
      "lat": 54.5833333,
      "lng": 73.4666667
    },
    {
      "cityName": "Chernoglazovka",
      "lat": 54.35,
      "lng": 74.0333333
    },
    {
      "cityName": "Chernokolskaya",
      "lat": 56.7,
      "lng": 72.8166667
    },
    {
      "cityName": "Chernoluchye",
      "lat": 55.2333333,
      "lng": 73.0166667
    },
    {
      "cityName": "Chernomisskiy",
      "lat": 57.9,
      "lng": 72.4666667
    },
    {
      "cityName": "Chernomorka",
      "lat": 54.38,
      "lng": 71.8111111
    },
    {
      "cityName": "Chernooxernaya",
      "lat": 55.7333333,
      "lng": 73.9833333
    },
    {
      "cityName": "Chernousovka",
      "lat": 53.5727778,
      "lng": 73.455
    },
    {
      "cityName": "Chernousovo",
      "lat": 55.7166667,
      "lng": 72.05
    },
    {
      "cityName": "Chernovo",
      "lat": 55.8333333,
      "lng": 73.95
    },
    {
      "cityName": "Chernoyarka",
      "lat": 56.9666667,
      "lng": 75.2
    },
    {
      "cityName": "Chernyayevka",
      "lat": 55.6833333,
      "lng": 71.7166667
    },
    {
      "cityName": "Chernyayevo",
      "lat": 56.7,
      "lng": 74.5166667
    },
    {
      "cityName": "Chernysheyevka",
      "lat": 55.5333333,
      "lng": 73.7666667
    },
    {
      "cityName": "Chertalinskiy",
      "lat": 57.8666667,
      "lng": 73.9666667
    },
    {
      "cityName": "Chertaly",
      "lat": 56.3666667,
      "lng": 75.3666667
    },
    {
      "cityName": "Chiganinskiy",
      "lat": 57.45,
      "lng": 73.3166667
    },
    {
      "cityName": "Chikishevo",
      "lat": 55.9,
      "lng": 71.6
    },
    {
      "cityName": "Chilim",
      "lat": 55.3166667,
      "lng": 75.1833333
    },
    {
      "cityName": "Chinyanino",
      "lat": 56.3666667,
      "lng": 75.65
    },
    {
      "cityName": "Chistoozerye",
      "lat": 55.8,
      "lng": 73.95
    },
    {
      "cityName": "Chistopolye",
      "lat": 54.9833333,
      "lng": 72.1166667
    },
    {
      "cityName": "Chistovo",
      "lat": 54.6833333,
      "lng": 75.5333333
    },
    {
      "cityName": "Chistoye",
      "lat": 55.9333333,
      "lng": 72.65
    },
    {
      "cityName": "Chistyaki",
      "lat": 56.9,
      "lng": 72.1333333
    },
    {
      "cityName": "Chistyy",
      "lat": 56.4833333,
      "lng": 75.1666667
    },
    {
      "cityName": "Chuchkino",
      "lat": 55.4166667,
      "lng": 73.6333333
    },
    {
      "cityName": "Chudeskoye",
      "lat": 57.7,
      "lng": 71.8833333
    },
    {
      "cityName": "Chugunly",
      "lat": 56.5252778,
      "lng": 72.7552778
    },
    {
      "cityName": "Chuguyevo",
      "lat": 54.3,
      "lng": 72.8
    },
    {
      "cityName": "Chukreyevka",
      "lat": 54.9666667,
      "lng": 73.2666667
    },
    {
      "cityName": "Chulino",
      "lat": 55.3,
      "lng": 74.5333333
    },
    {
      "cityName": "Chulkova",
      "lat": 55.15,
      "lng": 72.5833333
    },
    {
      "cityName": "Chumanovka",
      "lat": 55.95,
      "lng": 71.6333333
    },
    {
      "cityName": "Chuplyarovo",
      "lat": 56.5833333,
      "lng": 74.75
    },
    {
      "cityName": "Dalno-Malinovka",
      "lat": 55.4666667,
      "lng": 73.9833333
    },
    {
      "cityName": "Danilovka",
      "lat": 55.8,
      "lng": 72.6666667
    },
    {
      "cityName": "Darger",
      "lat": 54.5333333,
      "lng": 73.0333333
    },
    {
      "cityName": "Darvino",
      "lat": 56.1166667,
      "lng": 71.8333333
    },
    {
      "cityName": "Daugovskaya",
      "lat": 56.6333333,
      "lng": 75.8666667
    },
    {
      "cityName": "Davydovka",
      "lat": 55.15,
      "lng": 73.45
    },
    {
      "cityName": "Demyanovka",
      "lat": 55.4166667,
      "lng": 73.7666667
    },
    {
      "cityName": "Demyanovskaya",
      "lat": 55.55,
      "lng": 73.5833333
    },
    {
      "cityName": "Denisovka",
      "lat": 55.3,
      "lng": 74.9833333
    },
    {
      "cityName": "Despodzinovka",
      "lat": 55.7,
      "lng": 73.1833333
    },
    {
      "cityName": "Devyatirekovka",
      "lat": 55.25,
      "lng": 73.8166667
    },
    {
      "cityName": "Dimitriyevskiy",
      "lat": 55.2666667,
      "lng": 75.1666667
    },
    {
      "cityName": "Dlinnoye",
      "lat": 54.2147222,
      "lng": 71.3775
    },
    {
      "cityName": "Dmitriyevka",
      "lat": 54.4666667,
      "lng": 72.7666667
    },
    {
      "cityName": "Dmitriyevskiy",
      "lat": 54.6333333,
      "lng": 75.25
    },
    {
      "cityName": "Dmitrovka",
      "lat": 56.85,
      "lng": 75.8833333
    },
    {
      "cityName": "Dobrovolsk",
      "lat": 53.6422222,
      "lng": 74.2591667
    },
    {
      "cityName": "Dobroye Pole",
      "lat": 54.8666667,
      "lng": 71.8166667
    },
    {
      "cityName": "Dobryanka",
      "lat": 54.2202778,
      "lng": 71.4272222
    },
    {
      "cityName": "Dokuchayevka",
      "lat": 55.1833333,
      "lng": 74.8833333
    },
    {
      "cityName": "Dolganovka",
      "lat": 55.5166667,
      "lng": 72.0666667
    },
    {
      "cityName": "Dombay",
      "lat": 54.7666667,
      "lng": 72.15
    },
    {
      "cityName": "Doronina",
      "lat": 57.4666667,
      "lng": 72.8333333
    },
    {
      "cityName": "Dosay",
      "lat": 54.7,
      "lng": 72.1833333
    },
    {
      "cityName": "Dragunka",
      "lat": 55.3,
      "lng": 71.8333333
    },
    {
      "cityName": "Drobyshchevskoye",
      "lat": 54.1333333,
      "lng": 74.7166667
    },
    {
      "cityName": "Drobyshevo",
      "lat": 53.9858333,
      "lng": 74.6741667
    },
    {
      "cityName": "Druzhino",
      "lat": 55.0166667,
      "lng": 73.1333333
    },
    {
      "cityName": "Dubovka",
      "lat": 57.15,
      "lng": 74.8833333
    },
    {
      "cityName": "Dubrava",
      "lat": 56.4666667,
      "lng": 73.45
    },
    {
      "cityName": "Dubrova",
      "lat": 57.0666667,
      "lng": 73.3333333
    },
    {
      "cityName": "Dubrovka",
      "lat": 54.4833333,
      "lng": 72.4333333
    },
    {
      "cityName": "Dubrovo",
      "lat": 57.4333333,
      "lng": 71.1166667
    },
    {
      "cityName": "Durbet",
      "lat": 55.3166667,
      "lng": 71.2
    },
    {
      "cityName": "Durnova",
      "lat": 56.3,
      "lng": 75.4166667
    },
    {
      "cityName": "Duvanovka",
      "lat": 53.9688889,
      "lng": 73.2566667
    },
    {
      "cityName": "Dyusembay",
      "lat": 54.3833333,
      "lng": 72.1166667
    },
    {
      "cityName": "Dyusenkin Aul",
      "lat": 55.3666667,
      "lng": 73.9
    },
    {
      "cityName": "Dzhaltyrgul",
      "lat": 54.3833333,
      "lng": 75.5666667
    },
    {
      "cityName": "Dzhanchilik",
      "lat": 53.5027778,
      "lng": 73.4730556
    },
    {
      "cityName": "Dzhumatay",
      "lat": 54.2,
      "lng": 75.1833333
    },
    {
      "cityName": "Ebargul",
      "lat": 57.7,
      "lng": 71.3666667
    },
    {
      "cityName": "Elita",
      "lat": 54.9,
      "lng": 72.1
    },
    {
      "cityName": "Enbekshi-Kazakh",
      "lat": 53.7,
      "lng": 73.55
    },
    {
      "cityName": "Estoniya",
      "lat": 56.7166667,
      "lng": 73.0333333
    },
    {
      "cityName": "Fabrichnoye",
      "lat": 55.1833333,
      "lng": 73.7
    },
    {
      "cityName": "Fadino",
      "lat": 54.7333333,
      "lng": 73.4166667
    },
    {
      "cityName": "Fedorovka",
      "lat": 55.0666667,
      "lng": 72.9333333
    },
    {
      "cityName": "Fedorovskiy",
      "lat": 57.3666667,
      "lng": 75.05
    },
    {
      "cityName": "Fedoseyevka",
      "lat": 55.7833333,
      "lng": 71.95
    },
    {
      "cityName": "Filatovka",
      "lat": 56.9,
      "lng": 75.4166667
    },
    {
      "cityName": "Filinovo",
      "lat": 56.2166667,
      "lng": 70.8666667
    },
    {
      "cityName": "Filonovo",
      "lat": 54.1833333,
      "lng": 72.15
    },
    {
      "cityName": "Finny",
      "lat": 56.85,
      "lng": 73.5
    },
    {
      "cityName": "Firstovo",
      "lat": 57.0333333,
      "lng": 72.8666667
    },
    {
      "cityName": "Fomikha",
      "lat": 55.4666667,
      "lng": 71.5166667
    },
    {
      "cityName": "Forpost",
      "lat": 56.3833333,
      "lng": 74.3833333
    },
    {
      "cityName": "Freganka",
      "lat": 57.65,
      "lng": 71.2666667
    },
    {
      "cityName": "Frunze",
      "lat": 56.8166667,
      "lng": 74.5166667
    },
    {
      "cityName": "Gadenovo",
      "lat": 56.6833333,
      "lng": 73.6166667
    },
    {
      "cityName": "Gagarinka",
      "lat": 55.2833333,
      "lng": 71.0833333
    },
    {
      "cityName": "Galkovka",
      "lat": 54.55,
      "lng": 73.9833333
    },
    {
      "cityName": "Galyatina",
      "lat": 56.45,
      "lng": 74.35
    },
    {
      "cityName": "Gannovka",
      "lat": 54.1166667,
      "lng": 73.2666667
    },
    {
      "cityName": "Garevskiy",
      "lat": 57.75,
      "lng": 70.5666667
    },
    {
      "cityName": "Gauf",
      "lat": 54.7833333,
      "lng": 73.3833333
    },
    {
      "cityName": "Generalovka",
      "lat": 54.25,
      "lng": 73.1833333
    },
    {
      "cityName": "Georgiyevka",
      "lat": 54.2955556,
      "lng": 71.775
    },
    {
      "cityName": "Gerasimovka",
      "lat": 56.9,
      "lng": 74.6333333
    },
    {
      "cityName": "Glebovka",
      "lat": 55.7166667,
      "lng": 72.9
    },
    {
      "cityName": "Glinkino",
      "lat": 54.2666667,
      "lng": 73.5666667
    },
    {
      "cityName": "Glukhonikolayevka",
      "lat": 55.2833333,
      "lng": 75.0333333
    },
    {
      "cityName": "Glukhovka",
      "lat": 55.0833333,
      "lng": 74.7333333
    },
    {
      "cityName": "Gogolevka",
      "lat": 56.1333333,
      "lng": 74.1333333
    },
    {
      "cityName": "Golbshtadt",
      "lat": 54.9166667,
      "lng": 71.9166667
    },
    {
      "cityName": "Golikovo",
      "lat": 56.65,
      "lng": 73
    },
    {
      "cityName": "Golitsyna",
      "lat": 55.85,
      "lng": 73.0833333
    },
    {
      "cityName": "Golovyrino",
      "lat": 54.6,
      "lng": 73.6833333
    },
    {
      "cityName": "Golubevskiy",
      "lat": 55.4166667,
      "lng": 72.2
    },
    {
      "cityName": "Golubinka",
      "lat": 54.5333333,
      "lng": 74.2
    },
    {
      "cityName": "Golubki",
      "lat": 55.2977778,
      "lng": 70.6713889
    },
    {
      "cityName": "Golubkovskiy",
      "lat": 55.4333333,
      "lng": 72.1166667
    },
    {
      "cityName": "Goluboskoye",
      "lat": 53.4952778,
      "lng": 74.395
    },
    {
      "cityName": "Goncharovka",
      "lat": 54.4333333,
      "lng": 73.65
    },
    {
      "cityName": "Gorkaya",
      "lat": 56.0166667,
      "lng": 73.75
    },
    {
      "cityName": "Gorki",
      "lat": 56.15,
      "lng": 72.1
    },
    {
      "cityName": "Gorkovskiy",
      "lat": 55.3666667,
      "lng": 74.35
    },
    {
      "cityName": "Gorkoye",
      "lat": 56.2833333,
      "lng": 71.5666667
    },
    {
      "cityName": "Gornaya Bitiya",
      "lat": 55.45,
      "lng": 73.3333333
    },
    {
      "cityName": "Gornostayevka",
      "lat": 55.7166667,
      "lng": 73.3
    },
    {
      "cityName": "Gorodishche",
      "lat": 54.8833333,
      "lng": 71.2666667
    },
    {
      "cityName": "Gorodki",
      "lat": 56.1333333,
      "lng": 72.35
    },
    {
      "cityName": "Gorokhovo",
      "lat": 54.3666667,
      "lng": 74.7833333
    },
    {
      "cityName": "Gorskiy Log",
      "lat": 55.5,
      "lng": 73.45
    },
    {
      "cityName": "Gostilovka",
      "lat": 54.3538889,
      "lng": 71.96
    },
    {
      "cityName": "Gotman",
      "lat": 55.2833333,
      "lng": 73.6166667
    },
    {
      "cityName": "Grakovka",
      "lat": 57.5666667,
      "lng": 71.2166667
    },
    {
      "cityName": "Gribanovka",
      "lat": 54.8833333,
      "lng": 72.45
    },
    {
      "cityName": "Grinevichi",
      "lat": 57.3,
      "lng": 74.3
    },
    {
      "cityName": "Grishkovka",
      "lat": 54.2,
      "lng": 72.3166667
    },
    {
      "cityName": "Gromoglasovo",
      "lat": 53.9688889,
      "lng": 72.6844444
    },
    {
      "cityName": "Grynskiy",
      "lat": 54.3,
      "lng": 74.6333333
    },
    {
      "cityName": "Gudok",
      "lat": 55.0333333,
      "lng": 74.9333333
    },
    {
      "cityName": "Gulyay Pole",
      "lat": 56.2833333,
      "lng": 70.95
    },
    {
      "cityName": "Gurkovka",
      "lat": 56.2666667,
      "lng": 72.3
    },
    {
      "cityName": "Gurova",
      "lat": 56.3,
      "lng": 75.15
    },
    {
      "cityName": "Gurovka",
      "lat": 55.6,
      "lng": 72.6333333
    },
    {
      "cityName": "Gusinovo",
      "lat": 55.55,
      "lng": 72.4333333
    },
    {
      "cityName": "Guzenevo",
      "lat": 56.45,
      "lng": 76.0666667
    },
    {
      "cityName": "Gvozdevka",
      "lat": 54.5825,
      "lng": 71.8827778
    },
    {
      "cityName": "Iamasheva",
      "lat": 57.1,
      "lng": 74.05
    },
    {
      "cityName": "Igorevka",
      "lat": 56.5666667,
      "lng": 75.1
    },
    {
      "cityName": "Ik",
      "lat": 56.0333333,
      "lng": 71.4833333
    },
    {
      "cityName": "Ilbyakovo",
      "lat": 55.95,
      "lng": 73.5166667
    },
    {
      "cityName": "Ilchibaga",
      "lat": 57.6166667,
      "lng": 71.5333333
    },
    {
      "cityName": "Ilichevka",
      "lat": 55.05,
      "lng": 72.0166667
    },
    {
      "cityName": "Ilinka",
      "lat": 55.6333333,
      "lng": 72.3833333
    },
    {
      "cityName": "Ilinskiy",
      "lat": 54.55,
      "lng": 74.2833333
    },
    {
      "cityName": "Illekarga",
      "lat": 56.3166667,
      "lng": 74.4333333
    },
    {
      "cityName": "Ilyushkino",
      "lat": 56.4666667,
      "lng": 72.3666667
    },
    {
      "cityName": "Ilyushkinskiy",
      "lat": 55.1166667,
      "lng": 75.0333333
    },
    {
      "cityName": "Imeni Chapayeva",
      "lat": 54.9833333,
      "lng": 72.3
    },
    {
      "cityName": "Imeni Chkalova",
      "lat": 56.8833333,
      "lng": 74.8
    },
    {
      "cityName": "Imeni Dzerzhinskogo",
      "lat": 54.9666667,
      "lng": 72.85
    },
    {
      "cityName": "Imeni Kalinina",
      "lat": 53.6197222,
      "lng": 73.33
    },
    {
      "cityName": "Imeni Kharlamova",
      "lat": 54.7,
      "lng": 73.65
    },
    {
      "cityName": "Imeni Krupskoy",
      "lat": 54.4666667,
      "lng": 74.4833333
    },
    {
      "cityName": "Imeni Maksima Gorkogo",
      "lat": 56.2,
      "lng": 71.7166667
    },
    {
      "cityName": "Imeni Rozy Lyuksemburg",
      "lat": 54.5166667,
      "lng": 73.1666667
    },
    {
      "cityName": "Imeni Voroshilova",
      "lat": 57.85,
      "lng": 72.5833333
    },
    {
      "cityName": "Imshagal",
      "lat": 57.3508333,
      "lng": 74.5644444
    },
    {
      "cityName": "Inberen",
      "lat": 55.7333333,
      "lng": 74.05
    },
    {
      "cityName": "Indery",
      "lat": 55.8666667,
      "lng": 73.2666667
    },
    {
      "cityName": "Ingaly",
      "lat": 55.85,
      "lng": 74.2166667
    },
    {
      "cityName": "Intenis",
      "lat": 55.7666667,
      "lng": 73.4833333
    },
    {
      "cityName": "Intsiss",
      "lat": 56.5,
      "lng": 74.85
    },
    {
      "cityName": "Ionino",
      "lat": 57.3666667,
      "lng": 71.4833333
    },
    {
      "cityName": "Irtysh",
      "lat": 54.4833333,
      "lng": 74.3666667
    },
    {
      "cityName": "Irtyshskiy",
      "lat": 54.8,
      "lng": 73.5833333
    },
    {
      "cityName": "Isakovka",
      "lat": 55.75,
      "lng": 74.4
    },
    {
      "cityName": "Isass",
      "lat": 56.8333333,
      "lng": 75.1666667
    },
    {
      "cityName": "Isayevka",
      "lat": 55.3,
      "lng": 74.15
    },
    {
      "cityName": "Ishkul",
      "lat": 56.5166667,
      "lng": 73.3
    },
    {
      "cityName": "Isil Kol",
      "lat": 54.9166667,
      "lng": 71.2666667
    },
    {
      "cityName": "Iskra",
      "lat": 55.9166667,
      "lng": 70.9833333
    },
    {
      "cityName": "Iskrovka",
      "lat": 54.0666667,
      "lng": 73.5333333
    },
    {
      "cityName": "Ityugas",
      "lat": 57.7333333,
      "lng": 72.8833333
    },
    {
      "cityName": "Ivakina",
      "lat": 56.8,
      "lng": 74.2166667
    },
    {
      "cityName": "Ivanorskiy",
      "lat": 57.2,
      "lng": 74.55
    },
    {
      "cityName": "Ivano-Sergeyevka",
      "lat": 56.15,
      "lng": 72.4833333
    },
    {
      "cityName": "Ivanovka",
      "lat": 54.3833333,
      "lng": 75.2
    },
    {
      "cityName": "Ivanov Mys",
      "lat": 57.3861111,
      "lng": 73.1069444
    },
    {
      "cityName": "Ivashkeyevka",
      "lat": 55.4,
      "lng": 73.6
    },
    {
      "cityName": "Ivlevo",
      "lat": 57.1333333,
      "lng": 74.6
    },
    {
      "cityName": "Izmaylovskiy",
      "lat": 55.25,
      "lng": 74.85
    },
    {
      "cityName": "Izyuk",
      "lat": 57.5333333,
      "lng": 72.55
    },
    {
      "cityName": "Izyumovka",
      "lat": 54.6833333,
      "lng": 72.6333333
    },
    {
      "cityName": "Kabanovo",
      "lat": 55.3311111,
      "lng": 70.8769444
    },
    {
      "cityName": "Kabanya",
      "lat": 55,
      "lng": 75.2166667
    },
    {
      "cityName": "Kaburla",
      "lat": 55.3666667,
      "lng": 74.6333333
    },
    {
      "cityName": "Kabyrdak",
      "lat": 56.1194444,
      "lng": 72.4352778
    },
    {
      "cityName": "Kachesova",
      "lat": 56.05,
      "lng": 74.75
    },
    {
      "cityName": "Kachukova",
      "lat": 57.2,
      "lng": 73.8333333
    },
    {
      "cityName": "Kainsass",
      "lat": 56.9833333,
      "lng": 75.75
    },
    {
      "cityName": "Kairkul",
      "lat": 55.85,
      "lng": 74.4833333
    },
    {
      "cityName": "Kalachevka",
      "lat": 55.5333333,
      "lng": 73.4166667
    },
    {
      "cityName": "Kalachevo",
      "lat": 54.7666667,
      "lng": 73.3166667
    },
    {
      "cityName": "Kalachiki",
      "lat": 56.05,
      "lng": 71.6333333
    },
    {
      "cityName": "Kalachinskaya",
      "lat": 55.2666667,
      "lng": 74.5666667
    },
    {
      "cityName": "Kalachinsk",
      "lat": 55.05,
      "lng": 74.5666667
    },
    {
      "cityName": "Kalashnikovo",
      "lat": 57.0333333,
      "lng": 73.8666667
    },
    {
      "cityName": "Kalinovka",
      "lat": 54.2833333,
      "lng": 71.9
    },
    {
      "cityName": "Kalmakul",
      "lat": 56.0333333,
      "lng": 73.3333333
    },
    {
      "cityName": "Kalmatskoye",
      "lat": 55.4666667,
      "lng": 70.8333333
    },
    {
      "cityName": "Kaluga",
      "lat": 56.5666667,
      "lng": 71.7
    },
    {
      "cityName": "Kalugina",
      "lat": 56.05,
      "lng": 71.8666667
    },
    {
      "cityName": "Kamarinskiy",
      "lat": 57.65,
      "lng": 73.1833333
    },
    {
      "cityName": "Kamchatka",
      "lat": 56.3666667,
      "lng": 71.2833333
    },
    {
      "cityName": "Kamyshina",
      "lat": 55.95,
      "lng": 74.8666667
    },
    {
      "cityName": "Kamyshinka",
      "lat": 55.2166667,
      "lng": 74.0166667
    },
    {
      "cityName": "Kamyshino",
      "lat": 54.7666667,
      "lng": 73.5166667
    },
    {
      "cityName": "Kamyshino-Voronezhskoye",
      "lat": 55.9666667,
      "lng": 74.8666667
    },
    {
      "cityName": "Kamyshlovskiy",
      "lat": 55.1166667,
      "lng": 72.9333333
    },
    {
      "cityName": "Kamyshnan",
      "lat": 54.7,
      "lng": 74.8833333
    },
    {
      "cityName": "Kapustino",
      "lat": 55.4333333,
      "lng": 72.3666667
    },
    {
      "cityName": "Kara-Agash",
      "lat": 54.6333333,
      "lng": 71.8833333
    },
    {
      "cityName": "Karagach",
      "lat": 57.85,
      "lng": 72.6166667
    },
    {
      "cityName": "Karagash",
      "lat": 54.4,
      "lng": 72.7
    },
    {
      "cityName": "Kara-Gunam",
      "lat": 54.5166667,
      "lng": 73.85
    },
    {
      "cityName": "Karaklinka",
      "lat": 56.6666667,
      "lng": 75.2333333
    },
    {
      "cityName": "Karakul",
      "lat": 56.3166667,
      "lng": 74.0833333
    },
    {
      "cityName": "Karaman",
      "lat": 53.8566667,
      "lng": 74.9969444
    },
    {
      "cityName": "Karasevo",
      "lat": 55.3,
      "lng": 74.3333333
    },
    {
      "cityName": "Karasukskoye",
      "lat": 55.8,
      "lng": 74.0666667
    },
    {
      "cityName": "Karatal",
      "lat": 53.9905556,
      "lng": 74.2841667
    },
    {
      "cityName": "Kara-Terek",
      "lat": 54.8666667,
      "lng": 72.8333333
    },
    {
      "cityName": "Karaulnaya",
      "lat": 56.6833333,
      "lng": 72.7166667
    },
    {
      "cityName": "Karaulnoye",
      "lat": 55.8333333,
      "lng": 70.95
    },
    {
      "cityName": "Karbainovo",
      "lat": 56.2,
      "lng": 72.75
    },
    {
      "cityName": "Karbyza",
      "lat": 56.5872222,
      "lng": 75.9127778
    },
    {
      "cityName": "Kargachi",
      "lat": 57.1166667,
      "lng": 74.4
    },
    {
      "cityName": "Karmanovo",
      "lat": 55.8,
      "lng": 73.45
    },
    {
      "cityName": "Karpovka",
      "lat": 54.5166667,
      "lng": 73.7333333
    },
    {
      "cityName": "Kartasheva",
      "lat": 56.1166667,
      "lng": 74.7333333
    },
    {
      "cityName": "Karyer",
      "lat": 55.0166667,
      "lng": 75.3333333
    },
    {
      "cityName": "Karzhas",
      "lat": 54.2333333,
      "lng": 72.9
    },
    {
      "cityName": "Karzhass",
      "lat": 54.9833333,
      "lng": 73.3
    },
    {
      "cityName": "Kashkar",
      "lat": 54.75,
      "lng": 72.25
    },
    {
      "cityName": "Kaskat",
      "lat": 54.8,
      "lng": 71.1166667
    },
    {
      "cityName": "Kaspil",
      "lat": 55.7666667,
      "lng": 72.4833333
    },
    {
      "cityName": "Kaspirovka",
      "lat": 54.1666667,
      "lng": 73.15
    },
    {
      "cityName": "Katayevo",
      "lat": 56.2,
      "lng": 74.5666667
    },
    {
      "cityName": "Kavaza",
      "lat": 56.5666667,
      "lng": 74.9833333
    },
    {
      "cityName": "Kaybaba",
      "lat": 56.9833333,
      "lng": 75.2833333
    },
    {
      "cityName": "Kaybagar",
      "lat": 54.8333333,
      "lng": 71.3666667
    },
    {
      "cityName": "Kaybalgan",
      "lat": 54.1166667,
      "lng": 72.8833333
    },
    {
      "cityName": "Kaydaul",
      "lat": 54.1333333,
      "lng": 73.7833333
    },
    {
      "cityName": "Kaygarly",
      "lat": 57.45,
      "lng": 72.9
    },
    {
      "cityName": "Kayly",
      "lat": 57.2894444,
      "lng": 70.6933333
    },
    {
      "cityName": "Kaypergen",
      "lat": 54.75,
      "lng": 72.75
    },
    {
      "cityName": "Kayshubay",
      "lat": 54.7166667,
      "lng": 72.7166667
    },
    {
      "cityName": "Kaysy",
      "lat": 57.6666667,
      "lng": 71.6833333
    },
    {
      "cityName": "Kaytym",
      "lat": 57.7833333,
      "lng": 71.5333333
    },
    {
      "cityName": "Kayzes",
      "lat": 56.95,
      "lng": 75.7333333
    },
    {
      "cityName": "Kazakh-Kozha",
      "lat": 55.5833333,
      "lng": 71.9333333
    },
    {
      "cityName": "Kazakovka",
      "lat": 55.6,
      "lng": 74.35
    },
    {
      "cityName": "Kazanka",
      "lat": 56.2,
      "lng": 74.4333333
    },
    {
      "cityName": "Kazankovka",
      "lat": 54.7833333,
      "lng": 74.75
    },
    {
      "cityName": "Kazanskiy",
      "lat": 57.4666667,
      "lng": 73.3833333
    },
    {
      "cityName": "Kazantsevo",
      "lat": 55.2666667,
      "lng": 72.75
    },
    {
      "cityName": "Kazatova",
      "lat": 56.55,
      "lng": 74.2666667
    },
    {
      "cityName": "Kazayevka",
      "lat": 57.1333333,
      "lng": 74.35
    },
    {
      "cityName": "Kazyrly",
      "lat": 55.8166667,
      "lng": 73.7166667
    },
    {
      "cityName": "Keltyugina",
      "lat": 56.7,
      "lng": 74.3
    },
    {
      "cityName": "Khapilino",
      "lat": 56.6,
      "lng": 73.8333333
    },
    {
      "cityName": "Kharino",
      "lat": 55.1333333,
      "lng": 73.1666667
    },
    {
      "cityName": "Kharitonovka",
      "lat": 54.2666667,
      "lng": 72.7333333
    },
    {
      "cityName": "Kharlovka",
      "lat": 55.1166667,
      "lng": 72.0166667
    },
    {
      "cityName": "Khersonka",
      "lat": 54.1166667,
      "lng": 73.05
    },
    {
      "cityName": "Khlebodarovka",
      "lat": 53.7755556,
      "lng": 73.4761111
    },
    {
      "cityName": "Khmarinskiy",
      "lat": 54.5427778,
      "lng": 71.5694444
    },
    {
      "cityName": "Khmelevka",
      "lat": 56.45,
      "lng": 71.0666667
    },
    {
      "cityName": "Khmelevskiy",
      "lat": 56.8166667,
      "lng": 75.2666667
    },
    {
      "cityName": "Khokhlovo",
      "lat": 55.8833333,
      "lng": 73.6333333
    },
    {
      "cityName": "Khomutinka",
      "lat": 55.5,
      "lng": 75.15
    },
    {
      "cityName": "Khoroshki",
      "lat": 54.2666667,
      "lng": 73.5166667
    },
    {
      "cityName": "Khortitsy",
      "lat": 55.6,
      "lng": 74.9
    },
    {
      "cityName": "Khristianovka",
      "lat": 54.45,
      "lng": 71.3
    },
    {
      "cityName": "Khristolyubovka",
      "lat": 56.8,
      "lng": 75.6
    },
    {
      "cityName": "Khryashchevskiy",
      "lat": 57.85,
      "lng": 73.8833333
    },
    {
      "cityName": "Khutora",
      "lat": 55.8833333,
      "lng": 74.6
    },
    {
      "cityName": "Khutorskoye",
      "lat": 56.2166667,
      "lng": 72.1833333
    },
    {
      "cityName": "Kiber-Spasskoye",
      "lat": 55.2,
      "lng": 74.5166667
    },
    {
      "cityName": "Kiksy",
      "lat": 57.3166667,
      "lng": 74.65
    },
    {
      "cityName": "Kindigil",
      "lat": 54.45,
      "lng": 71.6166667
    },
    {
      "cityName": "Kino-Kulary",
      "lat": 57.5333333,
      "lng": 71.8666667
    },
    {
      "cityName": "Kip",
      "lat": 57.55,
      "lng": 71.8333333
    },
    {
      "cityName": "Kirillino",
      "lat": 56.8833333,
      "lng": 73.7833333
    },
    {
      "cityName": "Kirillovka",
      "lat": 54.65,
      "lng": 75.1833333
    },
    {
      "cityName": "Kirpichnaya",
      "lat": 56.8666667,
      "lng": 75.8833333
    },
    {
      "cityName": "Kirpichnyy",
      "lat": 54.1166667,
      "lng": 74.8833333
    },
    {
      "cityName": "Kirsanoskiy",
      "lat": 54.8833333,
      "lng": 75.3
    },
    {
      "cityName": "Kirsanovka",
      "lat": 56.0333333,
      "lng": 74.5833333
    },
    {
      "cityName": "Kirshevka",
      "lat": 55.4666667,
      "lng": 75.0833333
    },
    {
      "cityName": "Kiryanovka",
      "lat": 54.4,
      "lng": 74.8333333
    },
    {
      "cityName": "Kiselevka",
      "lat": 54.05,
      "lng": 75.3
    },
    {
      "cityName": "Kiselevo",
      "lat": 57.1166667,
      "lng": 73.9
    },
    {
      "cityName": "Kislyaki",
      "lat": 55.35,
      "lng": 70.6166667
    },
    {
      "cityName": "Kitayly",
      "lat": 55.2166667,
      "lng": 73.0666667
    },
    {
      "cityName": "Kiterma",
      "lat": 56.1,
      "lng": 71.6166667
    },
    {
      "cityName": "Kitlyarovka",
      "lat": 54.25,
      "lng": 73.55
    },
    {
      "cityName": "Kiyak",
      "lat": 57.3166667,
      "lng": 74.5166667
    },
    {
      "cityName": "Kiyevka",
      "lat": 54.4833333,
      "lng": 74.7
    },
    {
      "cityName": "Klassino",
      "lat": 55.3,
      "lng": 73.5
    },
    {
      "cityName": "Klaus",
      "lat": 54.9333333,
      "lng": 71.95
    },
    {
      "cityName": "Klimina",
      "lat": 55.85,
      "lng": 71.9333333
    },
    {
      "cityName": "Klin",
      "lat": 57.0833333,
      "lng": 74.8833333
    },
    {
      "cityName": "Klyuchevaya",
      "lat": 56.55,
      "lng": 75.7666667
    },
    {
      "cityName": "Klyuchi",
      "lat": 57.3833333,
      "lng": 74.8333333
    },
    {
      "cityName": "Knestyuki",
      "lat": 55.8,
      "lng": 75.1666667
    },
    {
      "cityName": "Knyazevka",
      "lat": 57.5561111,
      "lng": 74.1686111
    },
    {
      "cityName": "Knyazevo",
      "lat": 55.35,
      "lng": 70.9833333
    },
    {
      "cityName": "Kochkovatka",
      "lat": 55.5166667,
      "lng": 71.6333333
    },
    {
      "cityName": "Kochkovatoye",
      "lat": 54.75,
      "lng": 74.65
    },
    {
      "cityName": "Kochkovatskiy",
      "lat": 55.45,
      "lng": 71.6833333
    },
    {
      "cityName": "Kogotovo",
      "lat": 56.5333333,
      "lng": 73.5666667
    },
    {
      "cityName": "Kok-Biye",
      "lat": 54.8833333,
      "lng": 73.05
    },
    {
      "cityName": "Kokhanovka",
      "lat": 54.2833333,
      "lng": 73.3
    },
    {
      "cityName": "Kokonovka",
      "lat": 54.3083333,
      "lng": 71.9491667
    },
    {
      "cityName": "Kokshenevo",
      "lat": 56.3833333,
      "lng": 75.15
    },
    {
      "cityName": "Kolbyshevo",
      "lat": 56.45,
      "lng": 74.6666667
    },
    {
      "cityName": "Kolegayeva",
      "lat": 56.6166667,
      "lng": 73.0333333
    },
    {
      "cityName": "Kolkul",
      "lat": 56.2333333,
      "lng": 72.1333333
    },
    {
      "cityName": "Kolmakovo",
      "lat": 55.9166667,
      "lng": 71.85
    },
    {
      "cityName": "Kolobova",
      "lat": 56.5166667,
      "lng": 75.8166667
    },
    {
      "cityName": "Kolodtsy",
      "lat": 56.0166667,
      "lng": 70.95
    },
    {
      "cityName": "Kolomenka",
      "lat": 56.3,
      "lng": 71.8166667
    },
    {
      "cityName": "Kolomzino",
      "lat": 54.3480556,
      "lng": 71.9897222
    },
    {
      "cityName": "Koloniya",
      "lat": 55.1166667,
      "lng": 75.2166667
    },
    {
      "cityName": "Kolos",
      "lat": 55.5166667,
      "lng": 73.0833333
    },
    {
      "cityName": "Kolosova",
      "lat": 56.4636111,
      "lng": 73.61
    },
    {
      "cityName": "Kolosova Zaimka",
      "lat": 56.4833333,
      "lng": 73.4
    },
    {
      "cityName": "Kolpakovo",
      "lat": 57.3833333,
      "lng": 70.7666667
    },
    {
      "cityName": "Koltsovka",
      "lat": 55.1666667,
      "lng": 74.3
    },
    {
      "cityName": "Koltsovskiy",
      "lat": 56.3166667,
      "lng": 75.9333333
    },
    {
      "cityName": "Koltyrma",
      "lat": 57.7166667,
      "lng": 71.4666667
    },
    {
      "cityName": "Kolunda",
      "lat": 56.6,
      "lng": 72.1166667
    },
    {
      "cityName": "Kolzhugutskiy",
      "lat": 55.2333333,
      "lng": 71.2166667
    },
    {
      "cityName": "Komarovka",
      "lat": 57.5333333,
      "lng": 71.9333333
    },
    {
      "cityName": "Komissarovskiy",
      "lat": 54.7333333,
      "lng": 73.6333333
    },
    {
      "cityName": "Komissarovskoye Pervoye",
      "lat": 54.5,
      "lng": 72.7166667
    },
    {
      "cityName": "Komissarovskoye Vtoroye",
      "lat": 54.4333333,
      "lng": 72.7666667
    },
    {
      "cityName": "Kommunist",
      "lat": 54.3666667,
      "lng": 74.6166667
    },
    {
      "cityName": "Komsomolets",
      "lat": 54.6333333,
      "lng": 74.0333333
    },
    {
      "cityName": "Komsomolskoye",
      "lat": 54.8833333,
      "lng": 71.1333333
    },
    {
      "cityName": "Konakovka",
      "lat": 55.3,
      "lng": 72.5166667
    },
    {
      "cityName": "Kondrashino",
      "lat": 57.15,
      "lng": 73.6666667
    },
    {
      "cityName": "Kondratyevo",
      "lat": 56.4666667,
      "lng": 75.5666667
    },
    {
      "cityName": "Konevskaya",
      "lat": 56.25,
      "lng": 70.7666667
    },
    {
      "cityName": "Konezavodskiy",
      "lat": 54.95,
      "lng": 72.85
    },
    {
      "cityName": "Konovalova",
      "lat": 56.8,
      "lng": 74
    },
    {
      "cityName": "Konshok",
      "lat": 54.8166667,
      "lng": 71.2666667
    },
    {
      "cityName": "Konstantinogradka",
      "lat": 54.2,
      "lng": 73.8333333
    },
    {
      "cityName": "Konstantinovka",
      "lat": 54.6666667,
      "lng": 75.2333333
    },
    {
      "cityName": "Kopeykina",
      "lat": 56.9833333,
      "lng": 74.1166667
    },
    {
      "cityName": "Kopeykino",
      "lat": 54.65,
      "lng": 73.75
    },
    {
      "cityName": "Kopyevo",
      "lat": 55.9333333,
      "lng": 75.0166667
    },
    {
      "cityName": "Kopyevskiy",
      "lat": 55.8666667,
      "lng": 75.0666667
    },
    {
      "cityName": "Korenevo",
      "lat": 56.7666667,
      "lng": 74.5
    },
    {
      "cityName": "Korenovka",
      "lat": 54.2333333,
      "lng": 74.3333333
    },
    {
      "cityName": "Koribay",
      "lat": 54.2833333,
      "lng": 73.9666667
    },
    {
      "cityName": "Kormilovka",
      "lat": 55,
      "lng": 74.1
    },
    {
      "cityName": "Korneyevka",
      "lat": 54.9166667,
      "lng": 71.7666667
    },
    {
      "cityName": "Kornilovka",
      "lat": 55.0333333,
      "lng": 73.95
    },
    {
      "cityName": "Korolenko",
      "lat": 57.0166667,
      "lng": 75.1166667
    },
    {
      "cityName": "Korolevka",
      "lat": 55.35,
      "lng": 73.6833333
    },
    {
      "cityName": "Koroli",
      "lat": 55.5833333,
      "lng": 72.0666667
    },
    {
      "cityName": "Korshunova",
      "lat": 56.45,
      "lng": 74.4166667
    },
    {
      "cityName": "Korshunovka",
      "lat": 56.0166667,
      "lng": 72.8666667
    },
    {
      "cityName": "Korsina",
      "lat": 56.5666667,
      "lng": 73.95
    },
    {
      "cityName": "Koryakino",
      "lat": 54.5166667,
      "lng": 71.7666667
    },
    {
      "cityName": "Koshkul",
      "lat": 56.0166667,
      "lng": 72.3666667
    },
    {
      "cityName": "Kostino",
      "lat": 56.1833333,
      "lng": 74.9333333
    },
    {
      "cityName": "Kostyakovka",
      "lat": 54.7,
      "lng": 75.0833333
    },
    {
      "cityName": "Kostyushinskiy",
      "lat": 54.3741667,
      "lng": 71.8186111
    },
    {
      "cityName": "Kotelino",
      "lat": 57.5166667,
      "lng": 71.45
    },
    {
      "cityName": "Kotina",
      "lat": 55.7666667,
      "lng": 70.8166667
    },
    {
      "cityName": "Kotovshchikova",
      "lat": 56.95,
      "lng": 73.55
    },
    {
      "cityName": "Kovaleva",
      "lat": 55.1,
      "lng": 75.2833333
    },
    {
      "cityName": "Kozelshchina",
      "lat": 54.3,
      "lng": 71.05
    },
    {
      "cityName": "Kozinka",
      "lat": 54.1333333,
      "lng": 75.4166667
    },
    {
      "cityName": "Kozlovka",
      "lat": 55.7333333,
      "lng": 71.55
    },
    {
      "cityName": "Kozulina",
      "lat": 56.3166667,
      "lng": 71.1333333
    },
    {
      "cityName": "Krafty",
      "lat": 54.9666667,
      "lng": 71.7333333
    },
    {
      "cityName": "Krapivka",
      "lat": 57.0813889,
      "lng": 74.3252778
    },
    {
      "cityName": "Krasnaya Gorka",
      "lat": 55.1166667,
      "lng": 73.1166667
    },
    {
      "cityName": "Krasnaya Polyana",
      "lat": 55.25,
      "lng": 73.4
    },
    {
      "cityName": "Krasnaya Tula",
      "lat": 54.6333333,
      "lng": 74.2833333
    },
    {
      "cityName": "Krasnaya Znamenka",
      "lat": 54.3666667,
      "lng": 72.1
    },
    {
      "cityName": "Krasnodarka",
      "lat": 54.25,
      "lng": 74.0166667
    },
    {
      "cityName": "Krasnogorka",
      "lat": 54.5663889,
      "lng": 71.6897222
    },
    {
      "cityName": "Krasnoperovka",
      "lat": 56.6,
      "lng": 74.1666667
    },
    {
      "cityName": "Krasnopolyanskiy",
      "lat": 55.2666667,
      "lng": 74.2333333
    },
    {
      "cityName": "Krasnopolye",
      "lat": 55.1333333,
      "lng": 74.3833333
    },
    {
      "cityName": "Krasnousovo",
      "lat": 55.8666667,
      "lng": 72.0166667
    },
    {
      "cityName": "Krasnoyarka",
      "lat": 55.3333333,
      "lng": 73.0666667
    },
    {
      "cityName": "Krasnoyarskaya",
      "lat": 56.3666667,
      "lng": 74.7
    },
    {
      "cityName": "Krasnoyarskiy",
      "lat": 56.1461111,
      "lng": 74.6155556
    },
    {
      "cityName": "Krasnoyarskoye",
      "lat": 54.3833333,
      "lng": 72.6666667
    },
    {
      "cityName": "Krasnoye Znamya",
      "lat": 55.1,
      "lng": 72.05
    },
    {
      "cityName": "Krasnozerka",
      "lat": 56.9166667,
      "lng": 74.4333333
    },
    {
      "cityName": "Krasny Yar",
      "lat": 55.2333333,
      "lng": 72.9333333
    },
    {
      "cityName": "Krasnyy Bor",
      "lat": 57.5333333,
      "lng": 71.0333333
    },
    {
      "cityName": "Krasnyy Flag",
      "lat": 54.8833333,
      "lng": 71.9333333
    },
    {
      "cityName": "Krasnyy Oktyabr",
      "lat": 54.1333333,
      "lng": 74.9333333
    },
    {
      "cityName": "Krasnyy Ovtsevod",
      "lat": 54.5833333,
      "lng": 74.45
    },
    {
      "cityName": "Krasnyy Pakhar",
      "lat": 56.1,
      "lng": 71.5
    },
    {
      "cityName": "Krasnyy Put",
      "lat": 55.6333333,
      "lng": 73.6166667
    },
    {
      "cityName": "Krasnyy Ugolok",
      "lat": 55.1166667,
      "lng": 73.8
    },
    {
      "cityName": "Krasnyy Vostok",
      "lat": 54.4333333,
      "lng": 72.1666667
    },
    {
      "cityName": "Krasnyy Yastreb",
      "lat": 55.8666667,
      "lng": 71.1666667
    },
    {
      "cityName": "Krasovka",
      "lat": 54.9333333,
      "lng": 75.1666667
    },
    {
      "cityName": "Krestiki",
      "lat": 54.6333333,
      "lng": 75.4333333
    },
    {
      "cityName": "Kromy",
      "lat": 54.7666667,
      "lng": 71.0833333
    },
    {
      "cityName": "Kruch",
      "lat": 54.75,
      "lng": 73.3666667
    },
    {
      "cityName": "Krugloye",
      "lat": 55.3666667,
      "lng": 73.9333333
    },
    {
      "cityName": "Krupyanka",
      "lat": 55.6,
      "lng": 73.6166667
    },
    {
      "cityName": "Krushanovka",
      "lat": 54.3,
      "lng": 72.4333333
    },
    {
      "cityName": "Krutaya Gorka",
      "lat": 55.35,
      "lng": 73.25
    },
    {
      "cityName": "Krutikha",
      "lat": 55.6,
      "lng": 73.8
    },
    {
      "cityName": "Krutinka",
      "lat": 56.0063889,
      "lng": 71.5113889
    },
    {
      "cityName": "Krutoyar",
      "lat": 57.0166667,
      "lng": 74.3666667
    },
    {
      "cityName": "Krutyye Luki",
      "lat": 55.1333333,
      "lng": 74.8833333
    },
    {
      "cityName": "Krym",
      "lat": 54.2272222,
      "lng": 71.4986111
    },
    {
      "cityName": "Kryukovka",
      "lat": 56.9333333,
      "lng": 72.2166667
    },
    {
      "cityName": "Kseniyevka",
      "lat": 54.7166667,
      "lng": 71.6333333
    },
    {
      "cityName": "Kubrina",
      "lat": 56.4333333,
      "lng": 73.9833333
    },
    {
      "cityName": "Kubyrly",
      "lat": 56.2,
      "lng": 73.9333333
    },
    {
      "cityName": "Kuchevera",
      "lat": 57.4666667,
      "lng": 71.8833333
    },
    {
      "cityName": "Kuchkovo",
      "lat": 56.1166667,
      "lng": 73.1666667
    },
    {
      "cityName": "Kuchum",
      "lat": 57.5833333,
      "lng": 71.2
    },
    {
      "cityName": "Kudryayevka",
      "lat": 54.75,
      "lng": 71.2166667
    },
    {
      "cityName": "Kuduk-Chilik",
      "lat": 54.5166667,
      "lng": 73.1
    },
    {
      "cityName": "Kukarka",
      "lat": 56.95,
      "lng": 75.0666667
    },
    {
      "cityName": "Kukharevo",
      "lat": 54.9333333,
      "lng": 71.6
    },
    {
      "cityName": "Kuksa",
      "lat": 57.4333333,
      "lng": 73.6333333
    },
    {
      "cityName": "Kulan",
      "lat": 54.65,
      "lng": 73.3
    },
    {
      "cityName": "Kulantsy",
      "lat": 54.8833333,
      "lng": 72.9333333
    },
    {
      "cityName": "Kulany",
      "lat": 54.3833333,
      "lng": 75.2666667
    },
    {
      "cityName": "Kulay",
      "lat": 57.7,
      "lng": 75.25
    },
    {
      "cityName": "Kulikovka",
      "lat": 54.2,
      "lng": 73.0833333
    },
    {
      "cityName": "Kulikovo",
      "lat": 55.05,
      "lng": 74.45
    },
    {
      "cityName": "Kulomzino",
      "lat": 54.8333333,
      "lng": 75.4666667
    },
    {
      "cityName": "Kumyra",
      "lat": 56.2,
      "lng": 72.3166667
    },
    {
      "cityName": "Kungasa",
      "lat": 57.8,
      "lng": 71.2666667
    },
    {
      "cityName": "Kurganka",
      "lat": 56.45,
      "lng": 75.8166667
    },
    {
      "cityName": "Kurganskaya",
      "lat": 55.0166667,
      "lng": 72.65
    },
    {
      "cityName": "Kurlyano-Dubovka",
      "lat": 57.1833333,
      "lng": 74.8333333
    },
    {
      "cityName": "Kurmambay",
      "lat": 54.0333333,
      "lng": 74
    },
    {
      "cityName": "Kurmanovo",
      "lat": 57.0166667,
      "lng": 74.1
    },
    {
      "cityName": "Kurnevo",
      "lat": 56.3,
      "lng": 75.5666667
    },
    {
      "cityName": "Kurnosovskiy",
      "lat": 56.1166667,
      "lng": 74.3166667
    },
    {
      "cityName": "Kurtaylinskoye",
      "lat": 55.9166667,
      "lng": 73.1
    },
    {
      "cityName": "Kurumbel",
      "lat": 54.2333333,
      "lng": 75.3166667
    },
    {
      "cityName": "Kurya",
      "lat": 57.8333333,
      "lng": 70.45
    },
    {
      "cityName": "Kushayly",
      "lat": 55.6166667,
      "lng": 73.5666667
    },
    {
      "cityName": "Kustak",
      "lat": 56.8666667,
      "lng": 75
    },
    {
      "cityName": "Kutuzovka",
      "lat": 54.4666667,
      "lng": 72.5166667
    },
    {
      "cityName": "Kutyrlinskoye",
      "lat": 56.2025,
      "lng": 72.9541667
    },
    {
      "cityName": "Kuvshinovo",
      "lat": 55.0666667,
      "lng": 71.8333333
    },
    {
      "cityName": "Kuyambay",
      "lat": 54.45,
      "lng": 73.1666667
    },
    {
      "cityName": "Kuyeta",
      "lat": 55.7833333,
      "lng": 73.5833333
    },
    {
      "cityName": "Kuygaly",
      "lat": 56.2166667,
      "lng": 74.1666667
    },
    {
      "cityName": "Kuzha",
      "lat": 54.4166667,
      "lng": 72.6166667
    },
    {
      "cityName": "Kuznetsova",
      "lat": 57.5833333,
      "lng": 72.2333333
    },
    {
      "cityName": "Kuznetsovka",
      "lat": 53.9730556,
      "lng": 75.3238889
    },
    {
      "cityName": "Kuznetsovo",
      "lat": 56.6833333,
      "lng": 74.1
    },
    {
      "cityName": "Kvashnino",
      "lat": 56.4166667,
      "lng": 73.5
    },
    {
      "cityName": "Kvasovka",
      "lat": 55.2833333,
      "lng": 72.6833333
    },
    {
      "cityName": "Kyzyl-Agash",
      "lat": 54.7166667,
      "lng": 71.8333333
    },
    {
      "cityName": "Kyzyltan",
      "lat": 53.8297222,
      "lng": 74.6519444
    },
    {
      "cityName": "Lagushino",
      "lat": 54.95,
      "lng": 74.8166667
    },
    {
      "cityName": "Lagushinskiy",
      "lat": 54.95,
      "lng": 74.8666667
    },
    {
      "cityName": "Lamanova",
      "lat": 56.3,
      "lng": 73.8166667
    },
    {
      "cityName": "Lanskiy",
      "lat": 55.2,
      "lng": 71.95
    },
    {
      "cityName": "Lapino",
      "lat": 54.5666667,
      "lng": 73.5333333
    },
    {
      "cityName": "Lapteva",
      "lat": 56.0166667,
      "lng": 72.1
    },
    {
      "cityName": "Larga",
      "lat": 54.5166667,
      "lng": 72.2666667
    },
    {
      "cityName": "Larionovka",
      "lat": 57.4833333,
      "lng": 73.5833333
    },
    {
      "cityName": "Lavrentyevka",
      "lat": 54.7166667,
      "lng": 71.4833333
    },
    {
      "cityName": "Lavrino",
      "lat": 55.3833333,
      "lng": 74.7333333
    },
    {
      "cityName": "Lebedinka",
      "lat": 56.9166667,
      "lng": 75.85
    },
    {
      "cityName": "Lebedki",
      "lat": 55.5166667,
      "lng": 71.3833333
    },
    {
      "cityName": "Lebyazhya",
      "lat": 56.2166667,
      "lng": 75.7333333
    },
    {
      "cityName": "Lebyazhye",
      "lat": 55.2333333,
      "lng": 71.0166667
    },
    {
      "cityName": "Leningradka",
      "lat": 56.4666667,
      "lng": 74.6
    },
    {
      "cityName": "Leningrad",
      "lat": 55.15,
      "lng": 71.3833333
    },
    {
      "cityName": "Leninskaya",
      "lat": 54.8666667,
      "lng": 71.35
    },
    {
      "cityName": "Leninskiy",
      "lat": 54.5333333,
      "lng": 75.4833333
    },
    {
      "cityName": "Leshchinovka",
      "lat": 54.5333333,
      "lng": 73.6333333
    },
    {
      "cityName": "Leski",
      "lat": 55.45,
      "lng": 71.95
    },
    {
      "cityName": "Lesnogorskiy",
      "lat": 54.8833333,
      "lng": 72.3333333
    },
    {
      "cityName": "Lesnoye",
      "lat": 54.5666667,
      "lng": 73
    },
    {
      "cityName": "Lesnoy",
      "lat": 54.1666667,
      "lng": 74.9
    },
    {
      "cityName": "Letneye",
      "lat": 57.6833333,
      "lng": 71.2333333
    },
    {
      "cityName": "Lezhanka",
      "lat": 55.4666667,
      "lng": 73.45
    },
    {
      "cityName": "Lidinka",
      "lat": 55.65,
      "lng": 71.9166667
    },
    {
      "cityName": "Liflyandka",
      "lat": 56.9833333,
      "lng": 74.7833333
    },
    {
      "cityName": "Lileyka",
      "lat": 57.05,
      "lng": 75.1333333
    },
    {
      "cityName": "Lipatovka",
      "lat": 55.4666667,
      "lng": 73.55
    },
    {
      "cityName": "Lipovka",
      "lat": 57.2333333,
      "lng": 73.45
    },
    {
      "cityName": "Lisina",
      "lat": 56.4,
      "lng": 75.0833333
    },
    {
      "cityName": "Listvyagi",
      "lat": 57.2330556,
      "lng": 71.9102778
    },
    {
      "cityName": "Litkovka",
      "lat": 57.35,
      "lng": 75.0833333
    },
    {
      "cityName": "Livenka",
      "lat": 55.5666667,
      "lng": 73.5333333
    },
    {
      "cityName": "Lobkovo",
      "lat": 54.65,
      "lng": 73.7
    },
    {
      "cityName": "Loginova",
      "lat": 56.6166667,
      "lng": 74.6833333
    },
    {
      "cityName": "Loginovka",
      "lat": 54.2833333,
      "lng": 73.7166667
    },
    {
      "cityName": "Loginovo",
      "lat": 56.5,
      "lng": 73.7666667
    },
    {
      "cityName": "Logunovka",
      "lat": 53.8641667,
      "lng": 74.4583333
    },
    {
      "cityName": "Lokti",
      "lat": 55.2333333,
      "lng": 75.0333333
    },
    {
      "cityName": "Loris-Melikovo",
      "lat": 55.5833333,
      "lng": 71.6
    },
    {
      "cityName": "Losevo",
      "lat": 55.0333333,
      "lng": 71.1833333
    },
    {
      "cityName": "Loskutovo",
      "lat": 56.8666667,
      "lng": 74.2333333
    },
    {
      "cityName": "Lozhnikova",
      "lat": 56.8913889,
      "lng": 73.8802778
    },
    {
      "cityName": "Lozovaya",
      "lat": 54.3,
      "lng": 73.8666667
    },
    {
      "cityName": "Lubyanskiy",
      "lat": 54.4733333,
      "lng": 71.4511111
    },
    {
      "cityName": "Lugovaya Bitiya",
      "lat": 55.4666667,
      "lng": 73.3833333
    },
    {
      "cityName": "Lugovaya",
      "lat": 54.6166667,
      "lng": 73.8833333
    },
    {
      "cityName": "Lugovo-Bestrashnikovo",
      "lat": 56.0166667,
      "lng": 74.7
    },
    {
      "cityName": "Lugovoi",
      "lat": 54.8333333,
      "lng": 73.4666667
    },
    {
      "cityName": "Lugovoye",
      "lat": 57.6333333,
      "lng": 72.7666667
    },
    {
      "cityName": "Lukerino",
      "lat": 55.2166667,
      "lng": 71.3833333
    },
    {
      "cityName": "Lukinka",
      "lat": 55.4,
      "lng": 73.5166667
    },
    {
      "cityName": "Lukyanovka",
      "lat": 54.3166667,
      "lng": 73.05
    },
    {
      "cityName": "Luzino",
      "lat": 54.95,
      "lng": 73.0333333
    },
    {
      "cityName": "Luzinskaya",
      "lat": 55.1833333,
      "lng": 72.0333333
    },
    {
      "cityName": "Lvovka",
      "lat": 55.0333333,
      "lng": 75.0833333
    },
    {
      "cityName": "Lyalichi",
      "lat": 54.05,
      "lng": 72.5
    },
    {
      "cityName": "Lyapunova",
      "lat": 56.55,
      "lng": 75.5166667
    },
    {
      "cityName": "Lyubchino",
      "lat": 54.75,
      "lng": 74.9833333
    },
    {
      "cityName": "Lyubimova",
      "lat": 56.3,
      "lng": 75.7
    },
    {
      "cityName": "Lyubimovka",
      "lat": 54.4333333,
      "lng": 73.5833333
    },
    {
      "cityName": "Lyubimovskaya",
      "lat": 54.6666667,
      "lng": 75.1
    },
    {
      "cityName": "Lyubino",
      "lat": 55.15,
      "lng": 72.7
    },
    {
      "cityName": "Lyubino-maloross",
      "lat": 55.2,
      "lng": 72.9833333
    },
    {
      "cityName": "Lyubino-Moskali",
      "lat": 55.2166667,
      "lng": 72.9333333
    },
    {
      "cityName": "Lyubino-Starozhilcheskoye",
      "lat": 55.2,
      "lng": 72.9666667
    },
    {
      "cityName": "Lyublino",
      "lat": 54.1833333,
      "lng": 71.6
    },
    {
      "cityName": "Lyubovka",
      "lat": 54.1166667,
      "lng": 74.5166667
    },
    {
      "cityName": "Lyzhino",
      "lat": 55.4,
      "lng": 72.7166667
    },
    {
      "cityName": "Magazy",
      "lat": 57.6666667,
      "lng": 71.6166667
    },
    {
      "cityName": "Makarkino",
      "lat": 55.2333333,
      "lng": 75.25
    },
    {
      "cityName": "Makeyevka",
      "lat": 55.2,
      "lng": 74.4166667
    },
    {
      "cityName": "Maksimovka",
      "lat": 54.5333333,
      "lng": 72.1666667
    },
    {
      "cityName": "Malakhovo",
      "lat": 54.3636111,
      "lng": 71.8180556
    },
    {
      "cityName": "Malaya Bicha",
      "lat": 57.95,
      "lng": 70.45
    },
    {
      "cityName": "Malaya Chernoostrovka",
      "lat": 55.2833333,
      "lng": 72.1166667
    },
    {
      "cityName": "Malaya Kazantseva",
      "lat": 55.9333333,
      "lng": 73
    },
    {
      "cityName": "Malaya Mitkina",
      "lat": 55.2833333,
      "lng": 74.7166667
    },
    {
      "cityName": "Malaya Rebrovka",
      "lat": 54.9,
      "lng": 73.1833333
    },
    {
      "cityName": "Malaya Safonikha",
      "lat": 55.7166667,
      "lng": 71.4833333
    },
    {
      "cityName": "Malaya Tava",
      "lat": 57.5,
      "lng": 71.3833333
    },
    {
      "cityName": "Malaya Vasilyevka",
      "lat": 54.6833333,
      "lng": 72.25
    },
    {
      "cityName": "Malinkina",
      "lat": 56.4666667,
      "lng": 75.8166667
    },
    {
      "cityName": "Malinovka",
      "lat": 55.65,
      "lng": 72.5
    },
    {
      "cityName": "Malinovskiy",
      "lat": 56.5666667,
      "lng": 73.1666667
    },
    {
      "cityName": "Malobutakovo",
      "lat": 57.2166667,
      "lng": 73.55
    },
    {
      "cityName": "Malo-Mogilnoye",
      "lat": 55.3666667,
      "lng": 72.5166667
    },
    {
      "cityName": "Malo-Nikolskiy",
      "lat": 56.1833333,
      "lng": 75
    },
    {
      "cityName": "Maloye Kulachye",
      "lat": 55.2666667,
      "lng": 73.1833333
    },
    {
      "cityName": "Maloye Terekhino",
      "lat": 56.55,
      "lng": 73.8833333
    },
    {
      "cityName": "Maly Ayev",
      "lat": 56.9166667,
      "lng": 71.9333333
    },
    {
      "cityName": "Malyshevka",
      "lat": 54.95,
      "lng": 74.2333333
    },
    {
      "cityName": "Malyy Atmas",
      "lat": 53.9933333,
      "lng": 74.9338889
    },
    {
      "cityName": "Malyy Bygat",
      "lat": 57.6833333,
      "lng": 72.5333333
    },
    {
      "cityName": "Malyye Tunzy",
      "lat": 57.35,
      "lng": 73.9333333
    },
    {
      "cityName": "Malyy Karasir",
      "lat": 54.05,
      "lng": 75.2
    },
    {
      "cityName": "Malyy Kitap",
      "lat": 57.0166667,
      "lng": 74.85
    },
    {
      "cityName": "Malyy Tevriz",
      "lat": 57.45,
      "lng": 72.4833333
    },
    {
      "cityName": "Malyy Vasis",
      "lat": 57.3558333,
      "lng": 74.7405556
    },
    {
      "cityName": "Mangut",
      "lat": 55.7833333,
      "lng": 70.7666667
    },
    {
      "cityName": "Marchenko",
      "lat": 54.7,
      "lng": 73.7
    },
    {
      "cityName": "Margenau",
      "lat": 54.9166667,
      "lng": 71.55
    },
    {
      "cityName": "Marianowka",
      "lat": 54.9666667,
      "lng": 72.6333333
    },
    {
      "cityName": "Mariinovka",
      "lat": 56.4,
      "lng": 70.95
    },
    {
      "cityName": "Mariinskiy",
      "lat": 54.5666667,
      "lng": 75.3166667
    },
    {
      "cityName": "Marininka",
      "lat": 55.6833333,
      "lng": 70.7
    },
    {
      "cityName": "Mariupol",
      "lat": 54.3666667,
      "lng": 72.2166667
    },
    {
      "cityName": "Markovka",
      "lat": 54.2166667,
      "lng": 73.6
    },
    {
      "cityName": "Martasheva",
      "lat": 57.1166667,
      "lng": 74.5
    },
    {
      "cityName": "Maryanovskaya",
      "lat": 56.7333333,
      "lng": 72.9166667
    },
    {
      "cityName": "Maryanovskiy",
      "lat": 54.9166667,
      "lng": 72.5166667
    },
    {
      "cityName": "Mashinskoye",
      "lat": 56.5333333,
      "lng": 73.7166667
    },
    {
      "cityName": "Mashkanka",
      "lat": 56.7166667,
      "lng": 74.8
    },
    {
      "cityName": "Maslovka",
      "lat": 55.45,
      "lng": 71.4
    },
    {
      "cityName": "Maslyanovka",
      "lat": 55.2,
      "lng": 72.65
    },
    {
      "cityName": "Matarova",
      "lat": 56.5166667,
      "lng": 71.1666667
    },
    {
      "cityName": "Matkul",
      "lat": 56.0833333,
      "lng": 74.3833333
    },
    {
      "cityName": "Mauery",
      "lat": 54.9,
      "lng": 73.0333333
    },
    {
      "cityName": "Mayak Sotsializma",
      "lat": 54.5666667,
      "lng": 75.05
    },
    {
      "cityName": "Mayskiy",
      "lat": 55.15,
      "lng": 71.75
    },
    {
      "cityName": "Mechebilovka",
      "lat": 54.4402778,
      "lng": 71.2436111
    },
    {
      "cityName": "Mechetovka",
      "lat": 54.1333333,
      "lng": 73.6833333
    },
    {
      "cityName": "Medet",
      "lat": 54.1833333,
      "lng": 75.5333333
    },
    {
      "cityName": "Medvezhegrivskoye",
      "lat": 55.2666667,
      "lng": 75.2166667
    },
    {
      "cityName": "Medvezhye",
      "lat": 55.1833333,
      "lng": 71.2833333
    },
    {
      "cityName": "Melnichnaya",
      "lat": 55.0166667,
      "lng": 73.0333333
    },
    {
      "cityName": "Merkutly",
      "lat": 56.1,
      "lng": 72.9666667
    },
    {
      "cityName": "Meshcherka",
      "lat": 55.8666667,
      "lng": 75.1833333
    },
    {
      "cityName": "Meshkova",
      "lat": 56.2,
      "lng": 74.1666667
    },
    {
      "cityName": "Mezenka",
      "lat": 57.3,
      "lng": 71.45
    },
    {
      "cityName": "Mezhevnaya",
      "lat": 57.1,
      "lng": 74.8333333
    },
    {
      "cityName": "Migunovka",
      "lat": 54.3333333,
      "lng": 73.3
    },
    {
      "cityName": "Mikhailovskoye",
      "lat": 54.1333333,
      "lng": 75.25
    },
    {
      "cityName": "Mikheyevka",
      "lat": 55.1166667,
      "lng": 74.0333333
    },
    {
      "cityName": "Milogradovka",
      "lat": 54.1,
      "lng": 73.65
    },
    {
      "cityName": "Milyutino",
      "lat": 55.5166667,
      "lng": 71.8333333
    },
    {
      "cityName": "Minsk-Deoryanskoye",
      "lat": 56.8333333,
      "lng": 74.8833333
    },
    {
      "cityName": "Mirgorodka",
      "lat": 54.9333333,
      "lng": 75.0833333
    },
    {
      "cityName": "Mirolyubovka",
      "lat": 54.8666667,
      "lng": 71.6333333
    },
    {
      "cityName": "Mironenko",
      "lat": 55.1166667,
      "lng": 72.7833333
    },
    {
      "cityName": "Mironovka",
      "lat": 55.2333333,
      "lng": 72.1666667
    },
    {
      "cityName": "Miyan",
      "lat": 53.7272222,
      "lng": 74.1672222
    },
    {
      "cityName": "Mnogopolye",
      "lat": 55.0333333,
      "lng": 72.1833333
    },
    {
      "cityName": "Mogilnaya",
      "lat": 55.7833333,
      "lng": 70.65
    },
    {
      "cityName": "Mogilno-Poselskoye",
      "lat": 55.9166667,
      "lng": 74.45
    },
    {
      "cityName": "Mogilno-Starozhilcheskoye",
      "lat": 55.9,
      "lng": 74.4166667
    },
    {
      "cityName": "Mogulinka",
      "lat": 55.9833333,
      "lng": 74.6
    },
    {
      "cityName": "Moiseyevka",
      "lat": 53.9325,
      "lng": 74.5702778
    },
    {
      "cityName": "Mokhovo-Privalny",
      "lat": 56.0333333,
      "lng": 74.9166667
    },
    {
      "cityName": "Mokhovoye",
      "lat": 55.05,
      "lng": 72.55
    },
    {
      "cityName": "Mokhovoye Ozero",
      "lat": 55.9166667,
      "lng": 74.2166667
    },
    {
      "cityName": "Mokshino",
      "lat": 55.35,
      "lng": 72.3166667
    },
    {
      "cityName": "Mokshinskiy",
      "lat": 55.3833333,
      "lng": 72.3
    },
    {
      "cityName": "Molniya",
      "lat": 54.9666667,
      "lng": 75.1333333
    },
    {
      "cityName": "Morozkino",
      "lat": 56.7666667,
      "lng": 73.2333333
    },
    {
      "cityName": "Moskalenki",
      "lat": 54.8166667,
      "lng": 71.7666667
    },
    {
      "cityName": "Mukat",
      "lat": 54.0333333,
      "lng": 74.0833333
    },
    {
      "cityName": "Muravyevka",
      "lat": 55.6833333,
      "lng": 71.4166667
    },
    {
      "cityName": "Murlinka",
      "lat": 56.4333333,
      "lng": 75.1833333
    },
    {
      "cityName": "Murly",
      "lat": 56.6333333,
      "lng": 74.7
    },
    {
      "cityName": "Muromtsevo",
      "lat": 56.3725,
      "lng": 75.2469444
    },
    {
      "cityName": "Murtuk",
      "lat": 54.5166667,
      "lng": 73.3333333
    },
    {
      "cityName": "Murzabulat",
      "lat": 54.7,
      "lng": 72.7833333
    },
    {
      "cityName": "Myadelsk",
      "lat": 57.1333333,
      "lng": 75.2166667
    },
    {
      "cityName": "Myasniki",
      "lat": 54.5825,
      "lng": 71.4188889
    },
    {
      "cityName": "Myasnikova",
      "lat": 56.2666667,
      "lng": 74.0833333
    },
    {
      "cityName": "Mys",
      "lat": 56.3666667,
      "lng": 75.4333333
    },
    {
      "cityName": "Mysovaya",
      "lat": 56.2,
      "lng": 71.8666667
    },
    {
      "cityName": "Nadezhdinka",
      "lat": 56.3,
      "lng": 75.8
    },
    {
      "cityName": "Nadezhdino",
      "lat": 55.2,
      "lng": 73.2333333
    },
    {
      "cityName": "Nadezhdinskiy",
      "lat": 56.4666667,
      "lng": 74.2333333
    },
    {
      "cityName": "Nagibino",
      "lat": 55.7666667,
      "lng": 72.7166667
    },
    {
      "cityName": "Nagornaya",
      "lat": 57.5333333,
      "lng": 71.9666667
    },
    {
      "cityName": "Nagorno-Ayevskaya",
      "lat": 57.4,
      "lng": 72.9333333
    },
    {
      "cityName": "Nagornoye",
      "lat": 56.7166667,
      "lng": 74.8833333
    },
    {
      "cityName": "Nalimovka",
      "lat": 55.6333333,
      "lng": 71.8166667
    },
    {
      "cityName": "Narimanovka",
      "lat": 54.8666667,
      "lng": 72.65
    },
    {
      "cityName": "Narodnyy 1-y",
      "lat": 53.9075,
      "lng": 75.1252778
    },
    {
      "cityName": "Narodnyy 2-y",
      "lat": 53.9172222,
      "lng": 75.0736111
    },
    {
      "cityName": "Narybkina",
      "lat": 56.6333333,
      "lng": 73.85
    },
    {
      "cityName": "Naydenovka",
      "lat": 55.7833333,
      "lng": 72.9166667
    },
    {
      "cityName": "Nayman",
      "lat": 54.5333333,
      "lng": 72.55
    },
    {
      "cityName": "Nazarovka",
      "lat": 54.1833333,
      "lng": 73.4333333
    },
    {
      "cityName": "Nazyvayevka",
      "lat": 55.4666667,
      "lng": 71.2833333
    },
    {
      "cityName": "Nazyvayevskaya",
      "lat": 55.5666667,
      "lng": 71.35
    },
    {
      "cityName": "Nefedyeva",
      "lat": 56.1166667,
      "lng": 73.3166667
    },
    {
      "cityName": "Nekrasovka",
      "lat": 54.8833333,
      "lng": 74.1166667
    },
    {
      "cityName": "Nekrasovo",
      "lat": 56.6,
      "lng": 73.4
    },
    {
      "cityName": "Nekrasovskiy",
      "lat": 55.6666667,
      "lng": 74.8166667
    },
    {
      "cityName": "Nelyubina",
      "lat": 56.9666667,
      "lng": 75.7
    },
    {
      "cityName": "Nemetskiy",
      "lat": 55.1166667,
      "lng": 73.65
    },
    {
      "cityName": "Nemirovka",
      "lat": 54.9333333,
      "lng": 73.8666667
    },
    {
      "cityName": "Netesovo",
      "lat": 54.25,
      "lng": 74.4
    },
    {
      "cityName": "Neupokoyevo",
      "lat": 56.4833333,
      "lng": 74.4333333
    },
    {
      "cityName": "Neverovka",
      "lat": 54.4666667,
      "lng": 73.2833333
    },
    {
      "cityName": "Nevolnoye",
      "lat": 53.7266667,
      "lng": 73.8075
    },
    {
      "cityName": "Neydorf",
      "lat": 54.85,
      "lng": 72.2833333
    },
    {
      "cityName": "Ney-Feld",
      "lat": 54.9333333,
      "lng": 71.8666667
    },
    {
      "cityName": "Nezhdanovka",
      "lat": 56.9666667,
      "lng": 75.8833333
    },
    {
      "cityName": "Nichki",
      "lat": 56.1833333,
      "lng": 71.3166667
    },
    {
      "cityName": "Nifonovka",
      "lat": 56.9,
      "lng": 76.15
    },
    {
      "cityName": "Nikiforovka",
      "lat": 57.0333333,
      "lng": 75.4333333
    },
    {
      "cityName": "Nikitino",
      "lat": 57.1833333,
      "lng": 73.6666667
    },
    {
      "cityName": "Nikitovka",
      "lat": 54.2166667,
      "lng": 74.2833333
    },
    {
      "cityName": "Nikodimovka",
      "lat": 57.0166667,
      "lng": 75.0166667
    },
    {
      "cityName": "Nikolayevka",
      "lat": 54.2666667,
      "lng": 75.0333333
    },
    {
      "cityName": "Nikolay-Pol",
      "lat": 54.8666667,
      "lng": 71.5166667
    },
    {
      "cityName": "Nikonovka",
      "lat": 54.3008333,
      "lng": 71.595
    },
    {
      "cityName": "Nikopol",
      "lat": 54.1502778,
      "lng": 71.7472222
    },
    {
      "cityName": "Niva",
      "lat": 54.75,
      "lng": 73.7666667
    },
    {
      "cityName": "Nizhne-Ilinka",
      "lat": 55.3833333,
      "lng": 73.2333333
    },
    {
      "cityName": "Nizhneirtyshskiy",
      "lat": 55.45,
      "lng": 73.25
    },
    {
      "cityName": "Nizhne-Omka",
      "lat": 55.4333333,
      "lng": 74.9166667
    },
    {
      "cityName": "Nizhniye Azy",
      "lat": 57.8833333,
      "lng": 71.0833333
    },
    {
      "cityName": "Nizhniye Tunguzy",
      "lat": 56.9666667,
      "lng": 76.0833333
    },
    {
      "cityName": "Nizhniye Tuzy",
      "lat": 56.9166667,
      "lng": 75.5166667
    },
    {
      "cityName": "Nizhniy Syutkes",
      "lat": 56.3833333,
      "lng": 75.2166667
    },
    {
      "cityName": "Nizhnyaya Baklyanka",
      "lat": 57.05,
      "lng": 75.2166667
    },
    {
      "cityName": "Nizovaya",
      "lat": 56.3966667,
      "lng": 75.8641667
    },
    {
      "cityName": "Nochka",
      "lat": 54.7166667,
      "lng": 71.3166667
    },
    {
      "cityName": "Nogus",
      "lat": 57.3,
      "lng": 74.4666667
    },
    {
      "cityName": "Noka",
      "lat": 54.85,
      "lng": 72.55
    },
    {
      "cityName": "Noskovskoye",
      "lat": 55.3186111,
      "lng": 70.5516667
    },
    {
      "cityName": "Novaya Derevnya",
      "lat": 54.9666667,
      "lng": 74.0333333
    },
    {
      "cityName": "Novaya Ilinskaya",
      "lat": 54.2322222,
      "lng": 71.1125
    },
    {
      "cityName": "Novaya Kurganka",
      "lat": 54.9666667,
      "lng": 72.55
    },
    {
      "cityName": "Novaya Roshcha",
      "lat": 53.955,
      "lng": 73.4958333
    },
    {
      "cityName": "Novaya Sharapovka",
      "lat": 54.9833333,
      "lng": 72.7666667
    },
    {
      "cityName": "Novaya Stanitsa",
      "lat": 54.85,
      "lng": 73.3666667
    },
    {
      "cityName": "Novaya Timofeyevka",
      "lat": 54.3466667,
      "lng": 71.5694444
    },
    {
      "cityName": "Novaya Zarya",
      "lat": 55.2166667,
      "lng": 72.7166667
    },
    {
      "cityName": "Novaya Znamenka",
      "lat": 54.6166667,
      "lng": 71.6166667
    },
    {
      "cityName": "Novikovka",
      "lat": 57.2,
      "lng": 74.9833333
    },
    {
      "cityName": "Novoaleksandrovka",
      "lat": 55.1166667,
      "lng": 73.1833333
    },
    {
      "cityName": "Novo-Aleksevka",
      "lat": 54.85,
      "lng": 71.9333333
    },
    {
      "cityName": "Novoarkhangelka",
      "lat": 55.3666667,
      "lng": 73.0333333
    },
    {
      "cityName": "Novobelozerka",
      "lat": 54.5833333,
      "lng": 73.4333333
    },
    {
      "cityName": "Novodonka",
      "lat": 54.6522222,
      "lng": 71.4022222
    },
    {
      "cityName": "Novoivanovka",
      "lat": 53.7925,
      "lng": 73.8088889
    },
    {
      "cityName": "Novoivanovskiy",
      "lat": 55.5666667,
      "lng": 74.5
    },
    {
      "cityName": "NovoKarasuk",
      "lat": 56.2655556,
      "lng": 71.8063889
    },
    {
      "cityName": "Novokazanka",
      "lat": 57.7166667,
      "lng": 72.6166667
    },
    {
      "cityName": "Novokiyevka",
      "lat": 55.2666667,
      "lng": 72.45
    },
    {
      "cityName": "Novoknyazevka",
      "lat": 57.5666667,
      "lng": 74.1
    },
    {
      "cityName": "Novo-Konkul",
      "lat": 56.1,
      "lng": 72.0833333
    },
    {
      "cityName": "Novokonovka",
      "lat": 54.8833333,
      "lng": 72.3166667
    },
    {
      "cityName": "Novokoshkul",
      "lat": 55.9833333,
      "lng": 72.35
    },
    {
      "cityName": "Novokrestiki",
      "lat": 54.6833333,
      "lng": 75.4333333
    },
    {
      "cityName": "Novokubanka",
      "lat": 54.3833333,
      "lng": 72.7333333
    },
    {
      "cityName": "Novokupyanka",
      "lat": 54.1166667,
      "lng": 73.5833333
    },
    {
      "cityName": "Novologinovo",
      "lat": 56.5833333,
      "lng": 74.6166667
    },
    {
      "cityName": "Novolosevo",
      "lat": 55.1333333,
      "lng": 71.2
    },
    {
      "cityName": "Novoluzino",
      "lat": 55.1333333,
      "lng": 72.0666667
    },
    {
      "cityName": "Novolyublinka",
      "lat": 54.1333333,
      "lng": 74.1666667
    },
    {
      "cityName": "Novomikhaylovka",
      "lat": 56.8833333,
      "lng": 75.65
    },
    {
      "cityName": "Novomoskovka",
      "lat": 55.0166667,
      "lng": 73.5166667
    },
    {
      "cityName": "Novo-Nikolskaya",
      "lat": 57.7333333,
      "lng": 71.1666667
    },
    {
      "cityName": "Novonikolskoye",
      "lat": 57.1166667,
      "lng": 72.75
    },
    {
      "cityName": "Novoobolon",
      "lat": 55.5833333,
      "lng": 73.75
    },
    {
      "cityName": "Novoomskiy",
      "lat": 54.8333333,
      "lng": 73.3
    },
    {
      "cityName": "Novopavlovka",
      "lat": 54.2833333,
      "lng": 72.9833333
    },
    {
      "cityName": "Novopokrovka",
      "lat": 55.5833333,
      "lng": 73.1833333
    },
    {
      "cityName": "Novorevel",
      "lat": 55.1333333,
      "lng": 75.1666667
    },
    {
      "cityName": "Novoromanovka",
      "lat": 56.9833333,
      "lng": 73.1666667
    },
    {
      "cityName": "Novorossiyanovka",
      "lat": 54.2166667,
      "lng": 72.3666667
    },
    {
      "cityName": "Novorossiyka",
      "lat": 54.1166667,
      "lng": 74.6666667
    },
    {
      "cityName": "Novorozhdestvenka",
      "lat": 55.1,
      "lng": 71.4666667
    },
    {
      "cityName": "Novo-Rozhdestvenskoye",
      "lat": 56.2,
      "lng": 74.9
    },
    {
      "cityName": "Novosanzharovka",
      "lat": 53.6722222,
      "lng": 73.6411111
    },
    {
      "cityName": "Novoseletsk",
      "lat": 54.65,
      "lng": 73.5166667
    },
    {
      "cityName": "Novoselye",
      "lat": 54.8666667,
      "lng": 74.2333333
    },
    {
      "cityName": "Novosely",
      "lat": 54.0666667,
      "lng": 73.0166667
    },
    {
      "cityName": "Novosergeyevka",
      "lat": 54.4580556,
      "lng": 71.9880556
    },
    {
      "cityName": "Novoskatovka",
      "lat": 54.3333333,
      "lng": 72.2833333
    },
    {
      "cityName": "Novosoldatka",
      "lat": 55.8333333,
      "lng": 72.8
    },
    {
      "cityName": "Novosorochye",
      "lat": 55.0333333,
      "lng": 71.0333333
    },
    {
      "cityName": "Novostroy",
      "lat": 55.2333333,
      "lng": 72.0166667
    },
    {
      "cityName": "Novotelegino",
      "lat": 54.65,
      "lng": 73.65
    },
    {
      "cityName": "Novotroitskaya",
      "lat": 56.1666667,
      "lng": 74.35
    },
    {
      "cityName": "Novotroitskiy",
      "lat": 54.1941667,
      "lng": 71.4219444
    },
    {
      "cityName": "Novotroitskoye",
      "lat": 55.2666667,
      "lng": 73.15
    },
    {
      "cityName": "Novo-Troitskoye",
      "lat": 55.5333333,
      "lng": 73.9666667
    },
    {
      "cityName": "Novotsaritsino",
      "lat": 54.6666667,
      "lng": 71.9394444
    },
    {
      "cityName": "Novouralskiy",
      "lat": 54.3666667,
      "lng": 74.1166667
    },
    {
      "cityName": "Novouralsk",
      "lat": 54.25,
      "lng": 74.2
    },
    {
      "cityName": "Novouyka",
      "lat": 57.0286111,
      "lng": 75.1888889
    },
    {
      "cityName": "Novovarshavka",
      "lat": 54.1833333,
      "lng": 74.7
    },
    {
      "cityName": "Novovasilyevka",
      "lat": 54.9166667,
      "lng": 74.3833333
    },
    {
      "cityName": "Novovishnevka",
      "lat": 54.7666667,
      "lng": 72.5166667
    },
    {
      "cityName": "Novoyagodnoye",
      "lat": 57.3666667,
      "lng": 73.5166667
    },
    {
      "cityName": "Novoyarkovo",
      "lat": 57.65,
      "lng": 71.45
    },
    {
      "cityName": "Novo-Yekaterininskoye",
      "lat": 54.4333333,
      "lng": 73.4333333
    },
    {
      "cityName": "Novoye Pole",
      "lat": 55.0833333,
      "lng": 72.75
    },
    {
      "cityName": "Novoyermakovka",
      "lat": 57.05,
      "lng": 74.7833333
    },
    {
      "cityName": "Novoye Selo",
      "lat": 54.9666667,
      "lng": 74.6
    },
    {
      "cityName": "Novoye Yuryevo",
      "lat": 55.2333333,
      "lng": 74.25
    },
    {
      "cityName": "Novozheyevka",
      "lat": 54.7,
      "lng": 71.2833333
    },
    {
      "cityName": "Novyy Aul",
      "lat": 55.2833333,
      "lng": 71.4
    },
    {
      "cityName": "Novyy Stroy",
      "lat": 55.2333333,
      "lng": 71.9666667
    },
    {
      "cityName": "Novyy Svet",
      "lat": 55.1166667,
      "lng": 74.85
    },
    {
      "cityName": "Novyy Tursun",
      "lat": 54.7,
      "lng": 72.3333333
    },
    {
      "cityName": "Nurkinskiy",
      "lat": 54.4333333,
      "lng": 75.25
    },
    {
      "cityName": "Nyukhalovka",
      "lat": 56.5333333,
      "lng": 74.5
    },
    {
      "cityName": "Obalykul",
      "lat": 53.75,
      "lng": 73.4833333
    },
    {
      "cityName": "Odesskoye",
      "lat": 54.2166667,
      "lng": 72.9666667
    },
    {
      "cityName": "Oglukhino",
      "lat": 55.8666667,
      "lng": 71.7833333
    },
    {
      "cityName": "Ogorodnoye",
      "lat": 57.8,
      "lng": 72.2666667
    },
    {
      "cityName": "Ogryzhova",
      "lat": 56.5833333,
      "lng": 72.3333333
    },
    {
      "cityName": "Okhotnikovo",
      "lat": 55.95,
      "lng": 74.8
    },
    {
      "cityName": "Okoneshnikovo",
      "lat": 54.8333333,
      "lng": 75.0833333
    },
    {
      "cityName": "Oktyabrskiy",
      "lat": 55.5666667,
      "lng": 73.6333333
    },
    {
      "cityName": "Okuneva",
      "lat": 56.45,
      "lng": 74.9
    },
    {
      "cityName": "Olginka",
      "lat": 56.9,
      "lng": 76
    },
    {
      "cityName": "Olgino",
      "lat": 54.2655556,
      "lng": 71.6802778
    },
    {
      "cityName": "Olgovka",
      "lat": 54.3666667,
      "lng": 75
    },
    {
      "cityName": "Olkhovka",
      "lat": 53.8833333,
      "lng": 75.0513889
    },
    {
      "cityName": "Olviopol",
      "lat": 54.515,
      "lng": 71.2563889
    },
    {
      "cityName": "Omskiy",
      "lat": 54.8,
      "lng": 73.0833333
    },
    {
      "cityName": "Omsk",
      "lat": 55,
      "lng": 73.4
    },
    {
      "cityName": "Opyt",
      "lat": 55.1,
      "lng": 73.1166667
    },
    {
      "cityName": "Orekhovka",
      "lat": 53.9830556,
      "lng": 72.4877778
    },
    {
      "cityName": "Orikova",
      "lat": 56.7,
      "lng": 73.2166667
    },
    {
      "cityName": "Orlovka",
      "lat": 54.5844444,
      "lng": 71.2325
    },
    {
      "cityName": "Orlovo-Kukushkino",
      "lat": 55.7666667,
      "lng": 72.2
    },
    {
      "cityName": "Orlovo",
      "lat": 56.1166667,
      "lng": 71.0833333
    },
    {
      "cityName": "Orlovskiy",
      "lat": 54.6019444,
      "lng": 71.3738889
    },
    {
      "cityName": "Orlovskoye",
      "lat": 54.7333333,
      "lng": 75.2833333
    },
    {
      "cityName": "Osikhino",
      "lat": 56.1166667,
      "lng": 74.4666667
    },
    {
      "cityName": "Osinovka",
      "lat": 55.4,
      "lng": 73.55
    },
    {
      "cityName": "Osinovo",
      "lat": 55.4666667,
      "lng": 70.7333333
    },
    {
      "cityName": "Osokinskiy",
      "lat": 54.8666667,
      "lng": 74.9166667
    },
    {
      "cityName": "Ostrovka",
      "lat": 54.9833333,
      "lng": 73.3333333
    },
    {
      "cityName": "Ostrovnaya",
      "lat": 56.3475,
      "lng": 72.1419444
    },
    {
      "cityName": "Otradnovka",
      "lat": 55.8,
      "lng": 74.7
    },
    {
      "cityName": "Ozerki",
      "lat": 54.9666667,
      "lng": 74.35
    },
    {
      "cityName": "Ozernoye",
      "lat": 53.9258333,
      "lng": 73.7861111
    },
    {
      "cityName": "Pakhomovka",
      "lat": 54.6833333,
      "lng": 73.1333333
    },
    {
      "cityName": "Paltsevka",
      "lat": 54.4666667,
      "lng": 73.6333333
    },
    {
      "cityName": "Pamyat Svobody",
      "lat": 54.9666667,
      "lng": 71.2166667
    },
    {
      "cityName": "Panki",
      "lat": 54.8666667,
      "lng": 72.05
    },
    {
      "cityName": "Panovo",
      "lat": 56.3544444,
      "lng": 70.9697222
    },
    {
      "cityName": "Panovskiy",
      "lat": 56.4166667,
      "lng": 73.8833333
    },
    {
      "cityName": "Pashennaya Roshcha",
      "lat": 54.2,
      "lng": 74.05
    },
    {
      "cityName": "Patrovka",
      "lat": 54.35,
      "lng": 74.5666667
    },
    {
      "cityName": "Pautovskiy",
      "lat": 55.4833333,
      "lng": 74.4833333
    },
    {
      "cityName": "Pavlodarka",
      "lat": 54.2,
      "lng": 73.55
    },
    {
      "cityName": "Pavlodarovka",
      "lat": 55.2666667,
      "lng": 73.9333333
    },
    {
      "cityName": "Pavlogradskiy",
      "lat": 54,
      "lng": 74.0166667
    },
    {
      "cityName": "Pavlovka",
      "lat": 54.85,
      "lng": 74.65
    },
    {
      "cityName": "Pavlovskiy",
      "lat": 56.8,
      "lng": 75.1
    },
    {
      "cityName": "Pervaya Pyatiletka",
      "lat": 57.1333333,
      "lng": 74.1166667
    },
    {
      "cityName": "Pervomayka",
      "lat": 55.9,
      "lng": 71.3
    },
    {
      "cityName": "Pervotarovskoye",
      "lat": 55.0666667,
      "lng": 71.05
    },
    {
      "cityName": "Pervyy Shag",
      "lat": 54.0666667,
      "lng": 75.25
    },
    {
      "cityName": "Peschanka",
      "lat": 54.35,
      "lng": 73.15
    },
    {
      "cityName": "Pesochno",
      "lat": 56.8666667,
      "lng": 76.2333333
    },
    {
      "cityName": "Pestrovka",
      "lat": 55.4666667,
      "lng": 72.6833333
    },
    {
      "cityName": "Petelina",
      "lat": 57.4280556,
      "lng": 72.6930556
    },
    {
      "cityName": "Petropavlovka",
      "lat": 55.8166667,
      "lng": 75.0166667
    },
    {
      "cityName": "Petropavlovskoye",
      "lat": 57.7,
      "lng": 72.3166667
    },
    {
      "cityName": "Petrova",
      "lat": 56.9666667,
      "lng": 74.1666667
    },
    {
      "cityName": "Petrovka Pervaya",
      "lat": 56.6166667,
      "lng": 74.8166667
    },
    {
      "cityName": "Petrovka Vtoraya",
      "lat": 56.5833333,
      "lng": 74.8666667
    },
    {
      "cityName": "Petrovskiy",
      "lat": 55.2666667,
      "lng": 73.5333333
    },
    {
      "cityName": "Petrushinskiy",
      "lat": 54.7166667,
      "lng": 75.1666667
    },
    {
      "cityName": "Pichugino",
      "lat": 53.7644444,
      "lng": 74.5955556
    },
    {
      "cityName": "Piketnoye",
      "lat": 54.95,
      "lng": 72.3
    },
    {
      "cityName": "Pikhtovskiy",
      "lat": 57.45,
      "lng": 74.5
    },
    {
      "cityName": "Pirogovka",
      "lat": 54.3666667,
      "lng": 73.2
    },
    {
      "cityName": "Pitomnik",
      "lat": 54.8,
      "lng": 72.1
    },
    {
      "cityName": "Plakhchina",
      "lat": 56.3166667,
      "lng": 73.35
    },
    {
      "cityName": "Platonovka",
      "lat": 53.88,
      "lng": 74.6744444
    },
    {
      "cityName": "Platovo",
      "lat": 54.4866667,
      "lng": 71.7261111
    },