{
  "name": "Udmurt",
  "cities": [
    {
      "cityName": "Abagurt",
      "lat": 57.9794444,
      "lng": 52.6622222
    },
    {
      "cityName": "Abashevo",
      "lat": 58,
      "lng": 52.15
    },
    {
      "cityName": "Ablystem",
      "lat": 56.9,
      "lng": 51.7833333
    },
    {
      "cityName": "Abraz-Pelga",
      "lat": 56.2036111,
      "lng": 51.8419444
    },
    {
      "cityName": "Abrosyata",
      "lat": 58.3566667,
      "lng": 53.7436111
    },
    {
      "cityName": "Abyshevo",
      "lat": 56.215,
      "lng": 52.5666667
    },
    {
      "cityName": "Adam",
      "lat": 58.1333333,
      "lng": 52.8666667
    },
    {
      "cityName": "Adam-Uchi",
      "lat": 56.08,
      "lng": 52.0502778
    },
    {
      "cityName": "Adyamigurt",
      "lat": 57.8666667,
      "lng": 53.75
    },
    {
      "cityName": "Adzi",
      "lat": 57.2166667,
      "lng": 51.95
    },
    {
      "cityName": "Afonintsy",
      "lat": 57.5833333,
      "lng": 51.85
    },
    {
      "cityName": "Agarevka",
      "lat": 56.4166667,
      "lng": 53.05
    },
    {
      "cityName": "Akarshur",
      "lat": 56.4847222,
      "lng": 52.5875
    },
    {
      "cityName": "Akcheshur",
      "lat": 58.0333333,
      "lng": 53.9166667
    },
    {
      "cityName": "Akhmety",
      "lat": 57.2833333,
      "lng": 51.4833333
    },
    {
      "cityName": "Akilovo",
      "lat": 57.0855556,
      "lng": 51.6725
    },
    {
      "cityName": "Aksahur",
      "lat": 56.4375,
      "lng": 53.1941667
    },
    {
      "cityName": "Aksarino",
      "lat": 56.3977778,
      "lng": 53.1736111
    },
    {
      "cityName": "Aksenovtsy",
      "lat": 57.4069444,
      "lng": 52.1255556
    },
    {
      "cityName": "Aktemyr",
      "lat": 56.75,
      "lng": 51.5666667
    },
    {
      "cityName": "Aleksandrovka",
      "lat": 56.8,
      "lng": 53.1
    },
    {
      "cityName": "Aleksandrovo",
      "lat": 56.3183333,
      "lng": 52.3588889
    },
    {
      "cityName": "Aleksandrovskoye",
      "lat": 58.05,
      "lng": 53.5666667
    },
    {
      "cityName": "Algancha-Igra",
      "lat": 56.5683333,
      "lng": 52.8225
    },
    {
      "cityName": "Algazy",
      "lat": 57.3,
      "lng": 52.7333333
    },
    {
      "cityName": "Alnashi",
      "lat": 56.1894444,
      "lng": 52.4780556
    },
    {
      "cityName": "Alnetsk",
      "lat": 56.3166667,
      "lng": 52.1333333
    },
    {
      "cityName": "Amany",
      "lat": 57.45,
      "lng": 51.75
    },
    {
      "cityName": "Andreyevsk",
      "lat": 57.6188889,
      "lng": 52.7638889
    },
    {
      "cityName": "Andreyevtsy",
      "lat": 57.4833333,
      "lng": 51.7
    },
    {
      "cityName": "Andreyshur",
      "lat": 57.7666667,
      "lng": 53.25
    },
    {
      "cityName": "Andrianovo",
      "lat": 56.4833333,
      "lng": 53.5
    },
    {
      "cityName": "Arikovo",
      "lat": 57.67,
      "lng": 53.9219444
    },
    {
      "cityName": "Arkhangelskoye",
      "lat": 55.9891667,
      "lng": 52.0338889
    },
    {
      "cityName": "Arkhinovskiy",
      "lat": 58.3666667,
      "lng": 52.95
    },
    {
      "cityName": "Arkhipovo",
      "lat": 58.1833333,
      "lng": 53.65
    },
    {
      "cityName": "Arkhipyata",
      "lat": 58.3569444,
      "lng": 53.4463889
    },
    {
      "cityName": "Arlet",
      "lat": 57.4,
      "lng": 52.4
    },
    {
      "cityName": "Arlyanovo",
      "lat": 56.4575,
      "lng": 52.8427778
    },
    {
      "cityName": "Armyaz",
      "lat": 56.4094444,
      "lng": 53.9297222
    },
    {
      "cityName": "Artimony",
      "lat": 57.0833333,
      "lng": 53.8166667
    },
    {
      "cityName": "Artyk",
      "lat": 57.7333333,
      "lng": 52.35
    },
    {
      "cityName": "Arzamastsevo",
      "lat": 56.1483333,
      "lng": 53.6952778
    },
    {
      "cityName": "Asan",
      "lat": 58.1166667,
      "lng": 53.6333333
    },
    {
      "cityName": "Asiner",
      "lat": 56.4058333,
      "lng": 51.6630556
    },
    {
      "cityName": "Atabayevo",
      "lat": 56.4119444,
      "lng": 52.5013889
    },
    {
      "cityName": "Ayduan-Chabya",
      "lat": 56.2063889,
      "lng": 51.6752778
    },
    {
      "cityName": "Azamatovo",
      "lat": 56.1925,
      "lng": 52.6236111
    },
    {
      "cityName": "Azamay",
      "lat": 58.0858333,
      "lng": 52.5897222
    },
    {
      "cityName": "Azina",
      "lat": 56.9733333,
      "lng": 52.7088889
    },
    {
      "cityName": "Azmanovo",
      "lat": 58.0666667,
      "lng": 51.8833333
    },
    {
      "cityName": "Babino",
      "lat": 56.6494444,
      "lng": 53.4677778
    },
    {
      "cityName": "Babya-Ucha",
      "lat": 56.4883333,
      "lng": 52.6891667
    },
    {
      "cityName": "Bachkeyevo",
      "lat": 57.5,
      "lng": 52.95
    },
    {
      "cityName": "Bachumovo",
      "lat": 58.2727778,
      "lng": 51.9255556
    },
    {
      "cityName": "Badera",
      "lat": 57.8833333,
      "lng": 52.35
    },
    {
      "cityName": "Badyarovo",
      "lat": 57.3166667,
      "lng": 53.6666667
    },
    {
      "cityName": "Badzimishor",
      "lat": 57.6122222,
      "lng": 53.5222222
    },
    {
      "cityName": "Badzimlud",
      "lat": 57.2027778,
      "lng": 51.4205556
    },
    {
      "cityName": "Badzymshur",
      "lat": 58.2716667,
      "lng": 52.9311111
    },
    {
      "cityName": "Bagrash-Bigra",
      "lat": 56.5166667,
      "lng": 52.95
    },
    {
      "cityName": "Bakagurt",
      "lat": 56.5083333,
      "lng": 52.315
    },
    {
      "cityName": "Bakhily",
      "lat": 56.7116667,
      "lng": 53.5555556
    },
    {
      "cityName": "Bakhteyevo",
      "lat": 57.8663889,
      "lng": 52.945
    },
    {
      "cityName": "Balaki",
      "lat": 56.3333333,
      "lng": 54.3166667
    },
    {
      "cityName": "Baldeyka",
      "lat": 56.2022222,
      "lng": 51.5330556
    },
    {
      "cityName": "Balezino",
      "lat": 57.9786111,
      "lng": 53.0022222
    },
    {
      "cityName": "Balma",
      "lat": 57.0258333,
      "lng": 51.3694444
    },
    {
      "cityName": "Baltsy",
      "lat": 58.0711111,
      "lng": 52.3066667
    },
    {
      "cityName": "Baluy",
      "lat": 58.2911111,
      "lng": 53.5155556
    },
    {
      "cityName": "Bani",
      "lat": 57.9333333,
      "lng": 53.3833333
    },
    {
      "cityName": "Bannoye",
      "lat": 56.95,
      "lng": 53.5666667
    },
    {
      "cityName": "Baranovskiy",
      "lat": 57.7666667,
      "lng": 52.75
    },
    {
      "cityName": "Barany",
      "lat": 57.6302778,
      "lng": 52.2505556
    },
    {
      "cityName": "Barashur-Biya",
      "lat": 56.5166667,
      "lng": 52.45
    },
    {
      "cityName": "Barmino",
      "lat": 56.6977778,
      "lng": 52.1711111
    },
    {
      "cityName": "Baryshnikovo",
      "lat": 57.7033333,
      "lng": 52.5041667
    },
    {
      "cityName": "Bashmakovo",
      "lat": 57.6466667,
      "lng": 52.8922222
    },
    {
      "cityName": "Bashmanovo",
      "lat": 57.45,
      "lng": 53.55
    },
    {
      "cityName": "Bashur",
      "lat": 56.7777778,
      "lng": 53.4377778
    },
    {
      "cityName": "Bayaran",
      "lat": 58.2855556,
      "lng": 52.33
    },
    {
      "cityName": "Baydalino",
      "lat": 58.1638889,
      "lng": 52.2238889
    },
    {
      "cityName": "Baykuzino",
      "lat": 56.6397222,
      "lng": 53.3294444
    },
    {
      "cityName": "Baysitovo",
      "lat": 56.4669444,
      "lng": 53.3233333
    },
    {
      "cityName": "Bayteryakovo",
      "lat": 56.0802778,
      "lng": 52.4263889
    },
    {
      "cityName": "Bazany",
      "lat": 58.2877778,
      "lng": 53.1336111
    },
    {
      "cityName": "Bazhanovo",
      "lat": 56.5216667,
      "lng": 52.79
    },
    {
      "cityName": "Bazhenikha",
      "lat": 55.9666667,
      "lng": 51.5166667
    },
    {
      "cityName": "Begesh",
      "lat": 57.1302778,
      "lng": 53.2447222
    },
    {
      "cityName": "Begishi",
      "lat": 57.8,
      "lng": 54.0666667
    },
    {
      "cityName": "Belousy",
      "lat": 57.45,
      "lng": 52.6833333
    },
    {
      "cityName": "Belskoye",
      "lat": 57.5,
      "lng": 52.9166667
    },
    {
      "cityName": "Belyanovo",
      "lat": 57.9833333,
      "lng": 52.1
    },
    {
      "cityName": "Belyayevtsy",
      "lat": 57.75,
      "lng": 52.8666667
    },
    {
      "cityName": "Bemyzh",
      "lat": 56.1452778,
      "lng": 51.7280556
    },
    {
      "cityName": "Berazevyr",
      "lat": 57.55,
      "lng": 53.2666667
    },
    {
      "cityName": "Berezek",
      "lat": 56.6730556,
      "lng": 52.0177778
    },
    {
      "cityName": "Berezgurt",
      "lat": 57.0313889,
      "lng": 51.9877778
    },
    {
      "cityName": "Berezino",
      "lat": 57.3666667,
      "lng": 53.7833333
    },
    {
      "cityName": "Berezovka",
      "lat": 56.7666667,
      "lng": 52.3666667
    },
    {
      "cityName": "Berezovsk",
      "lat": 58.1,
      "lng": 53.4166667
    },
    {
      "cityName": "Bertlo",
      "lat": 56.45,
      "lng": 51.2666667
    },
    {
      "cityName": "Bezmenshur",
      "lat": 56.4597222,
      "lng": 51.275
    },
    {
      "cityName": "Bigbay",
      "lat": 56.3666667,
      "lng": 52.2833333
    },
    {
      "cityName": "Biligurt",
      "lat": 57.3,
      "lng": 52.5166667
    },
    {
      "cityName": "Bilyar",
      "lat": 56.2141667,
      "lng": 52.1822222
    },
    {
      "cityName": "Bisarka",
      "lat": 56.2294444,
      "lng": 53.7969444
    },
    {
      "cityName": "Bisarpi",
      "lat": 57.9,
      "lng": 53.0333333
    },
    {
      "cityName": "Bitchemshur",
      "lat": 57.9652778,
      "lng": 53.2022222
    },
    {
      "cityName": "Blazh\"yus",
      "lat": 56.95,
      "lng": 51.6
    },
    {
      "cityName": "Bliz-Varyzh",
      "lat": 58.1333333,
      "lng": 53.15
    },
    {
      "cityName": "Bobya",
      "lat": 57.0663889,
      "lng": 51.5547222
    },
    {
      "cityName": "Bogatyrka",
      "lat": 58.1911111,
      "lng": 52.6788889
    },
    {
      "cityName": "Bogdanovo",
      "lat": 57.4833333,
      "lng": 53.8833333
    },
    {
      "cityName": "Bogorodskaya",
      "lat": 57.2166667,
      "lng": 52.8833333
    },
    {
      "cityName": "Bolgury",
      "lat": 56.9625,
      "lng": 53.7733333
    },
    {
      "cityName": "Bolshaya Bolma",
      "lat": 57.25,
      "lng": 51.85
    },
    {
      "cityName": "Bolshaya Cheptsa",
      "lat": 57.7166667,
      "lng": 54.0833333
    },
    {
      "cityName": "Bolshaya Dokya",
      "lat": 56.7422222,
      "lng": 52.0691667
    },
    {
      "cityName": "Bolshaya Dubovka",
      "lat": 56.4833333,
      "lng": 52.2
    },
    {
      "cityName": "Bolshaya Gurez-Pudga",
      "lat": 56.7713889,
      "lng": 52.0830556
    },
    {
      "cityName": "Bolshaya Inga",
      "lat": 57.0666667,
      "lng": 51.85
    },
    {
      "cityName": "Bolshaya Karcha",
      "lat": 57.4833333,
      "lng": 51.5666667
    },
    {
      "cityName": "Bolshaya Kibya",
      "lat": 56.3672222,
      "lng": 52.5980556
    },
    {
      "cityName": "Bolshaya Kivara",
      "lat": 57.1833333,
      "lng": 54.2
    },
    {
      "cityName": "Bolshaya Klyuchevka",
      "lat": 56.1833333,
      "lng": 52.1666667
    },
    {
      "cityName": "Bolshaya Mozhga",
      "lat": 56.8594444,
      "lng": 51.9202778
    },
    {
      "cityName": "Bolshaya Norya",
      "lat": 56.6708333,
      "lng": 52.7077778
    },
    {
      "cityName": "Bolshaya Pudga",
      "lat": 56.4894444,
      "lng": 52.1136111
    },
    {
      "cityName": "Bolshaya Purga",
      "lat": 57.5286111,
      "lng": 53.4736111
    },
    {
      "cityName": "Bolshaya Syuga",
      "lat": 56.5802778,
      "lng": 51.9908333
    },
    {
      "cityName": "Bolshaya Ucha",
      "lat": 56.6113889,
      "lng": 52.0736111
    },
    {
      "cityName": "Bolshaya Valozhikya",
      "lat": 56.5833333,
      "lng": 52.3
    },
    {
      "cityName": "Bolshaya Venya",
      "lat": 56.7336111,
      "lng": 53.1441667
    },
    {
      "cityName": "Bolshaya Yeryksa",
      "lat": 56.025,
      "lng": 52.2044444
    },
    {
      "cityName": "Bolshaya Yunda",
      "lat": 57.8841667,
      "lng": 52.8930556
    },
    {
      "cityName": "Bolshe-Malagovskaya",
      "lat": 58.4,
      "lng": 52.2
    },
    {
      "cityName": "Bolshe-Votskiye",
      "lat": 57.5666667,
      "lng": 51.9166667
    },
    {
      "cityName": "Bolshiye Kalmashi",
      "lat": 56.1555556,
      "lng": 53.9069444
    },
    {
      "cityName": "Bolshiye Karkalay",
      "lat": 56.9838889,
      "lng": 52.3788889
    },
    {
      "cityName": "Bolshiye Oshvortsy",
      "lat": 57.2,
      "lng": 53.3
    },
    {
      "cityName": "Bolshiye Siby",
      "lat": 56.3352778,
      "lng": 52.2541667
    },
    {
      "cityName": "Bolshiye Syurzi",
      "lat": 57.2333333,
      "lng": 52.4
    },
    {
      "cityName": "Bolshoy Bilib",
      "lat": 57.3655556,
      "lng": 53.9422222
    },
    {
      "cityName": "Bolshoye Doronino",
      "lat": 57.8263889,
      "lng": 52.0655556
    },
    {
      "cityName": "Bolshoye Kamyzhevo",
      "lat": 57.9666667,
      "lng": 53.7166667
    },
    {
      "cityName": "Bolshoye Lukoshino",
      "lat": 57.6166667,
      "lng": 52.0333333
    },
    {
      "cityName": "Bolshoye Sazonovo",
      "lat": 58.0969444,
      "lng": 53.325
    },
    {
      "cityName": "Bolshoye Vodzimonye",
      "lat": 56.8108333,
      "lng": 51.6202778
    },
    {
      "cityName": "Bolshoye Volkovo",
      "lat": 56.6997222,
      "lng": 51.9747222
    },
    {
      "cityName": "Bolshoy Kez",
      "lat": 57.9166667,
      "lng": 53.6833333
    },
    {
      "cityName": "Bolshoy Kiyaik",
      "lat": 57.0219444,
      "lng": 52.7588889
    },
    {
      "cityName": "Bolshoy Ludoshur",
      "lat": 58.0833333,
      "lng": 52.7333333
    },
    {
      "cityName": "Bolshoy Olyp",
      "lat": 58.0472222,
      "lng": 53.5272222
    },
    {
      "cityName": "Bolshoy Palagay",
      "lat": 57.9536111,
      "lng": 52.3647222
    },
    {
      "cityName": "Bolshoy Polom",
      "lat": 57.7419444,
      "lng": 51.9569444
    },
    {
      "cityName": "Bolshoy Pulyb",
      "lat": 57.7833333,
      "lng": 53.2833333
    },
    {
      "cityName": "Bolshoy Seleg",
      "lat": 57.6583333,
      "lng": 51.9216667
    },
    {
      "cityName": "Bolshoy Skalgurt",
      "lat": 56.8916667,
      "lng": 52.0319444
    },
    {
      "cityName": "Bolshoy Uyvay",
      "lat": 57.05,
      "lng": 51.6666667
    },
    {
      "cityName": "Bolshoy Varizh",
      "lat": 58.1166667,
      "lng": 53.15
    },
    {
      "cityName": "Bolshoy Zetym",
      "lat": 57.6166667,
      "lng": 53.75
    },
    {
      "cityName": "Bolshoy Zhuvam",
      "lat": 57.8216667,
      "lng": 52.3344444
    },
    {
      "cityName": "Bolshoy Zhuzhges",
      "lat": 56.7133333,
      "lng": 52.2722222
    },
    {
      "cityName": "Borisovo",
      "lat": 56.3994444,
      "lng": 53.7061111
    },
    {
      "cityName": "Boroduli",
      "lat": 57.4333333,
      "lng": 54.1666667
    },
    {
      "cityName": "Borok",
      "lat": 56.4322222,
      "lng": 53.8986111
    },
    {
      "cityName": "Borovyye",
      "lat": 57.3833333,
      "lng": 52.0833333
    },
    {
      "cityName": "Botanikha",
      "lat": 57.7166667,
      "lng": 57.0333333
    },
    {
      "cityName": "Botino",
      "lat": 57.4877778,
      "lng": 51.7927778
    },
    {
      "cityName": "Boyarka",
      "lat": 56.05,
      "lng": 54.0333333
    },
    {
      "cityName": "Bozgon",
      "lat": 57.95,
      "lng": 53.25
    },
    {
      "cityName": "Bozhal",
      "lat": 58.3,
      "lng": 53.1
    },
    {
      "cityName": "Bozino",
      "lat": 58.3961111,
      "lng": 52.0891667
    },
    {
      "cityName": "Bragin",
      "lat": 58.1666667,
      "lng": 53.4666667
    },
    {
      "cityName": "Bryzgalovo",
      "lat": 56.7147222,
      "lng": 51.4961111
    },
    {
      "cityName": "Bugrysh",
      "lat": 56.5008333,
      "lng": 53.3958333
    },
    {
      "cityName": "Bukhma",
      "lat": 57.7011111,
      "lng": 51.9816667
    },
    {
      "cityName": "Bulay",
      "lat": 56.6819444,
      "lng": 52.3169444
    },
    {
      "cityName": "Bulgurt",
      "lat": 56.7577778,
      "lng": 52.4219444
    },
    {
      "cityName": "Buran",
      "lat": 56.5897222,
      "lng": 53.3275
    },
    {
      "cityName": "Burino",
      "lat": 57.9805556,
      "lng": 53.0730556
    },
    {
      "cityName": "Butolino",
      "lat": 57.3808333,
      "lng": 53.6283333
    },
    {
      "cityName": "Butysh",
      "lat": 56.3,
      "lng": 54.1833333
    },
    {
      "cityName": "Bydypi",
      "lat": 57.9119444,
      "lng": 52.9930556
    },
    {
      "cityName": "Bygi",
      "lat": 57.1966667,
      "lng": 53.7413889
    },
    {
      "cityName": "Byki",
      "lat": 57.55,
      "lng": 51.7
    },
    {
      "cityName": "Byrgynda",
      "lat": 55.8997222,
      "lng": 53.4097222
    },
    {
      "cityName": "Chabishur",
      "lat": 57.0169444,
      "lng": 52.1361111
    },
    {
      "cityName": "Chabyrovo",
      "lat": 58.2666667,
      "lng": 52.2666667
    },
    {
      "cityName": "Chazhayskiy",
      "lat": 58.3308333,
      "lng": 52.7161111
    },
    {
      "cityName": "Chazhibash",
      "lat": 56.3688889,
      "lng": 52.4530556
    },
    {
      "cityName": "Chazhi",
      "lat": 57.0833333,
      "lng": 51.85
    },
    {
      "cityName": "Chebakovo",
      "lat": 57.85,
      "lng": 52.6666667
    },
    {
      "cityName": "Cheganda",
      "lat": 55.9527778,
      "lng": 53.5147222
    },
    {
      "cityName": "Chekalka",
      "lat": 56.3061111,
      "lng": 53.4872222
    },
    {
      "cityName": "Chekan",
      "lat": 57.1136111,
      "lng": 52.6661111
    },
    {
      "cityName": "Chekan Russkiy",
      "lat": 56.8,
      "lng": 52.4333333
    },
    {
      "cityName": "Chekari",
      "lat": 57.7666667,
      "lng": 53.85
    },
    {
      "cityName": "Chekerevo",
      "lat": 57.1833333,
      "lng": 53.4333333
    },
    {
      "cityName": "Chemashur",
      "lat": 56.1166667,
      "lng": 53.35
    },
    {
      "cityName": "Chemoshur",
      "lat": 56.1647222,
      "lng": 52.7122222
    },
    {
      "cityName": "Chepanikha",
      "lat": 56.6702778,
      "lng": 53.6316667
    },
    {
      "cityName": "Cheptsa",
      "lat": 57.8916667,
      "lng": 53.4180556
    },
    {
      "cityName": "Chepyk",
      "lat": 57.7344444,
      "lng": 53.6533333
    },
    {
      "cityName": "Cherashur",
      "lat": 56.5752778,
      "lng": 52.9086111
    },
    {
      "cityName": "Cherepanovka",
      "lat": 57.1166667,
      "lng": 54.1666667
    },
    {
      "cityName": "Chernaya",
      "lat": 57.0580556,
      "lng": 53.5075
    },
    {
      "cityName": "Chernova",
      "lat": 56.1772222,
      "lng": 53.6091667
    },
    {
      "cityName": "Chernyy Yelnik",
      "lat": 56.2411111,
      "lng": 53.9747222
    },
    {
      "cityName": "Chetker",
      "lat": 56.7333333,
      "lng": 52.1333333
    },
    {
      "cityName": "Chezhest-Kaksi",
      "lat": 56.3611111,
      "lng": 52.3725
    },
    {
      "cityName": "Chibyanshur",
      "lat": 57.3833333,
      "lng": 52.2
    },
    {
      "cityName": "Chimoshur",
      "lat": 57.4,
      "lng": 53.1
    },
    {
      "cityName": "Chistostem",
      "lat": 56.8613889,
      "lng": 52.2208333
    },
    {
      "cityName": "Chistyakovo",
      "lat": 56.2333333,
      "lng": 52.5333333
    },
    {
      "cityName": "Chuboy",
      "lat": 57.7833333,
      "lng": 53.3
    },
    {
      "cityName": "Chudzyalud",
      "lat": 56.7994444,
      "lng": 51.7702778
    },
    {
      "cityName": "Chukavniki",
      "lat": 56.7,
      "lng": 53.5166667
    },
    {
      "cityName": "Chulya",
      "lat": 56.45,
      "lng": 51.8166667
    },
    {
      "cityName": "Chumali",
      "lat": 56.0469444,
      "lng": 52.7033333
    },
    {
      "cityName": "Chumoshur",
      "lat": 58.0833333,
      "lng": 53.4
    },
    {
      "cityName": "Chumoy",
      "lat": 57.4,
      "lng": 53.4333333
    },
    {
      "cityName": "Chura",
      "lat": 58.1027778,
      "lng": 52.5111111
    },
    {
      "cityName": "Chur",
      "lat": 57.1136111,
      "lng": 52.9669444
    },
    {
      "cityName": "Churikha",
      "lat": 57.8166667,
      "lng": 52.15
    },
    {
      "cityName": "Churino",
      "lat": 57.95,
      "lng": 53.8
    },
    {
      "cityName": "Chushtaskem",
      "lat": 56.4572222,
      "lng": 51.1997222
    },
    {
      "cityName": "Chutozhmon",
      "lat": 56.6022222,
      "lng": 53.2855556
    },
    {
      "cityName": "Chutyr",
      "lat": 57.3866667,
      "lng": 53.2541667
    },
    {
      "cityName": "Chuvashayka",
      "lat": 56.2447222,
      "lng": 53.2055556
    },
    {
      "cityName": "Chuya-Ozon",
      "lat": 57.7333333,
      "lng": 53.4833333
    },
    {
      "cityName": "Chuzhyalovo",
      "lat": 56.8569444,
      "lng": 52.95
    },
    {
      "cityName": "Chuzhyem",
      "lat": 56.6541667,
      "lng": 52.1788889
    },
    {
      "cityName": "Danilovo",
      "lat": 56.4244444,
      "lng": 53.0769444
    },
    {
      "cityName": "Danvyr",
      "lat": 57.7666667,
      "lng": 52.9333333
    },
    {
      "cityName": "Davkino",
      "lat": 56.2408333,
      "lng": 51.9177778
    },
    {
      "cityName": "Debessy",
      "lat": 57.6536111,
      "lng": 53.8025
    },
    {
      "cityName": "Deby",
      "lat": 57.8252778,
      "lng": 52.4891667
    },
    {
      "cityName": "Demidovtsy",
      "lat": 57.75,
      "lng": 52.2666667
    },
    {
      "cityName": "Devyatova",
      "lat": 56.5416667,
      "lng": 53.6469444
    },
    {
      "cityName": "Dikaya-Dubrova",
      "lat": 56.3833333,
      "lng": 53.6166667
    },
    {
      "cityName": "Dimitriyevka",
      "lat": 57.22,
      "lng": 53.4166667
    },
    {
      "cityName": "Dizmino",
      "lat": 58.2175,
      "lng": 52.1466667
    },
    {
      "cityName": "Dmitroshur",
      "lat": 57.0833333,
      "lng": 51.8
    },
    {
      "cityName": "Dobrin",
      "lat": 58.1,
      "lng": 52.05
    },
    {
      "cityName": "Doksha",
      "lat": 56.8119444,
      "lng": 53.7472222
    },
    {
      "cityName": "Dolgushka",
      "lat": 56.9333333,
      "lng": 53.4333333
    },
    {
      "cityName": "Doshkopi",
      "lat": 57.7166667,
      "lng": 52.5833333
    },
    {
      "cityName": "Dremina",
      "lat": 56.3,
      "lng": 53.8166667
    },
    {
      "cityName": "Dubrova",
      "lat": 56.2166667,
      "lng": 53.75
    },
    {
      "cityName": "Dubrovka",
      "lat": 56.4452778,
      "lng": 53.7391667
    },
    {
      "cityName": "Dubrovo",
      "lat": 57.75,
      "lng": 52.1666667
    },
    {
      "cityName": "Dulesovo",
      "lat": 56.5513889,
      "lng": 53.7827778
    },
    {
      "cityName": "Dulesovskaya Baza",
      "lat": 56.5666667,
      "lng": 53.8333333
    },
    {
      "cityName": "Durakovo",
      "lat": 58.15,
      "lng": 52.6666667
    },
    {
      "cityName": "Durekshur",
      "lat": 57.8833333,
      "lng": 53.9
    },
    {
      "cityName": "Durnopi",
      "lat": 58.2666667,
      "lng": 52.95
    },
    {
      "cityName": "Dusykovo",
      "lat": 58.0833333,
      "lng": 52.0333333
    },
    {
      "cityName": "Duvanak",
      "lat": 56.6425,
      "lng": 53.6552778
    },
    {
      "cityName": "Dyatlevo",
      "lat": 56.2,
      "lng": 52.5333333
    },
    {
      "cityName": "Dyrpa",
      "lat": 58.0536111,
      "lng": 53.4194444
    },
    {
      "cityName": "Dyrpavozh",
      "lat": 58.0333333,
      "lng": 53.4333333
    },
    {
      "cityName": "Dzyakino",
      "lat": 58.1775,
      "lng": 52.3547222
    },
    {
      "cityName": "Dzyuchkaril",
      "lat": 57.7,
      "lng": 53.4333333
    },
    {
      "cityName": "Ebekkuton",
      "lat": 57.7277778,
      "lng": 52.9433333
    },
    {
      "cityName": "Egyr",
      "lat": 57.2186111,
      "lng": 51.4658333
    },
    {
      "cityName": "Erestem",
      "lat": 57.1633333,
      "lng": 52.7313889
    },
    {
      "cityName": "Erkeshevo",
      "lat": 58.0666667,
      "lng": 53.1833333
    },
    {
      "cityName": "Ertem",
      "lat": 57.8886111,
      "lng": 52.0527778
    },
    {
      "cityName": "Eshmakovo",
      "lat": 57.8894444,
      "lng": 52.1794444
    },
    {
      "cityName": "Fakel",
      "lat": 57.6319444,
      "lng": 53.0272222
    },
    {
      "cityName": "Fedory",
      "lat": 57.3963889,
      "lng": 51.7055556
    },
    {
      "cityName": "Fedoski",
      "lat": 56.7333333,
      "lng": 53.4333333
    },
    {
      "cityName": "Feklistovo",
      "lat": 58.3833333,
      "lng": 52.0666667
    },
    {
      "cityName": "Fertiki",
      "lat": 56.3,
      "lng": 53.9166667
    },
    {
      "cityName": "Galanovo",
      "lat": 56.1666667,
      "lng": 54.1166667
    },
    {
      "cityName": "Galevo",
      "lat": 56.9666667,
      "lng": 54.1166667
    },
    {
      "cityName": "Gamy",
      "lat": 57.0152778,
      "lng": 53.8138889
    },
    {
      "cityName": "Gankina",
      "lat": 56.0833333,
      "lng": 53.7166667
    },
    {
      "cityName": "Garga",
      "lat": 56.0805556,
      "lng": 52.6544444
    },
    {
      "cityName": "Gari",
      "lat": 56.3333333,
      "lng": 53.8166667
    },
    {
      "cityName": "Gay",
      "lat": 56.8333333,
      "lng": 52.5
    },
    {
      "cityName": "Gezneshur",
      "lat": 56.4280556,
      "lng": 51.4575
    },
    {
      "cityName": "Glazov",
      "lat": 58.135,
      "lng": 52.6558333
    },
    {
      "cityName": "Gobgurt",
      "lat": 57.1569444,
      "lng": 52.0625
    },
    {
      "cityName": "Godekshur",
      "lat": 57.4833333,
      "lng": 53.1333333
    },
    {
      "cityName": "Gogoli",
      "lat": 56.4166667,
      "lng": 54.1833333
    },
    {
      "cityName": "Goloviznin Yazok",
      "lat": 57.35,
      "lng": 52.1333333
    },
    {
      "cityName": "Golyansk",
      "lat": 56.8952778,
      "lng": 53.5222222
    },
    {
      "cityName": "Golyany",
      "lat": 56.7563889,
      "lng": 53.7377778
    },
    {
      "cityName": "Golyushurma",
      "lat": 56,
      "lng": 52.7166667
    },
    {
      "cityName": "Gondyrevo Udmurtskoye",
      "lat": 56.1211111,
      "lng": 52.2444444
    },
    {
      "cityName": "Gondyrvay",
      "lat": 57.2666667,
      "lng": 54.1333333
    },
    {
      "cityName": "Gora Selty",
      "lat": 57.2666667,
      "lng": 51.5666667
    },
    {
      "cityName": "Gorbashi",
      "lat": 58.3166667,
      "lng": 52.4833333
    },
    {
      "cityName": "Gorbunovo",
      "lat": 56.6191667,
      "lng": 53.7383333
    },
    {
      "cityName": "Gordoshur",
      "lat": 57.9325,
      "lng": 52.8213889
    },
    {
      "cityName": "Gord\"yar",
      "lat": 57.7316667,
      "lng": 53.5527778
    },
    {
      "cityName": "Gord-Yar",
      "lat": 58.15,
      "lng": 52.4666667
    },
    {
      "cityName": "Gorelovo",
      "lat": 56.8666667,
      "lng": 52.35
    },
    {
      "cityName": "Gozhmuayr",
      "lat": 57.1738889,
      "lng": 53.3358333
    },
    {
      "cityName": "Gozhnya",
      "lat": 56.5388889,
      "lng": 52.8552778
    },
    {
      "cityName": "Grakhovo",
      "lat": 56.0430556,
      "lng": 51.9683333
    },
    {
      "cityName": "Gremyachevo",
      "lat": 56.0930556,
      "lng": 53.5061111
    },
    {
      "cityName": "Grishanka",
      "lat": 56.9908333,
      "lng": 53.8491667
    },
    {
      "cityName": "Gryaznukha",
      "lat": 56.5,
      "lng": 53.45
    },
    {
      "cityName": "Gryzuny",
      "lat": 57.0833333,
      "lng": 51.7
    },
    {
      "cityName": "Guchin-Bodya",
      "lat": 56.3741667,
      "lng": 51.3722222
    },
    {
      "cityName": "Gulekovo",
      "lat": 58,
      "lng": 52.45
    },
    {
      "cityName": "Gulyayevo",
      "lat": 56.8666667,
      "lng": 51.65
    },
    {
      "cityName": "Gura",
      "lat": 57.2852778,
      "lng": 51.4025
    },
    {
      "cityName": "Gurklud",
      "lat": 57.1205556,
      "lng": 51.7166667
    },
    {
      "cityName": "Gurkoshur",
      "lat": 58,
      "lng": 53.4666667
    },
    {
      "cityName": "Gushchino",
      "lat": 56.3825,
      "lng": 52.3411111
    },
    {
      "cityName": "Guzhnoshur",
      "lat": 56.4688889,
      "lng": 52.7227778
    },
    {
      "cityName": "Gybdan",
      "lat": 56.5572222,
      "lng": 51.6291667
    },
    {
      "cityName": "Gynnyr",
      "lat": 58.1666667,
      "lng": 53.7666667
    },
    {
      "cityName": "Igra",
      "lat": 57.5558333,
      "lng": 53.0547222
    },
    {
      "cityName": "Ildibayevo",
      "lat": 56.2661111,
      "lng": 53.2461111
    },
    {
      "cityName": "Ilin",
      "lat": 56.75,
      "lng": 53.5
    },
    {
      "cityName": "Ilinskaya",
      "lat": 56.1594444,
      "lng": 52.2683333
    },
    {
      "cityName": "Ilmovo",
      "lat": 58.2333333,
      "lng": 53.5333333
    },
    {
      "cityName": "Ilnesh",
      "lat": 55.9166667,
      "lng": 53.2666667
    },
    {
      "cityName": "Imeni V.G. Karolenko",
      "lat": 56.4175,
      "lng": 51.7705556
    },
    {
      "cityName": "Indyuk",
      "lat": 56.4,
      "lng": 52.5833333
    },
    {
      "cityName": "Inga",
      "lat": 56.8613889,
      "lng": 51.7613889
    },
    {
      "cityName": "Isakovo",
      "lat": 57.8333333,
      "lng": 52.9333333
    },
    {
      "cityName": "Ishem",
      "lat": 57.2652778,
      "lng": 53.1058333
    },
    {
      "cityName": "Ishewsk",
      "lat": 56.85,
      "lng": 53.2333333
    },
    {
      "cityName": "Iska",
      "lat": 57.45,
      "lng": 53.6
    },
    {
      "cityName": "Istomino",
      "lat": 57.1666667,
      "lng": 51.8833333
    },
    {
      "cityName": "Itchi-Vamya",
      "lat": 57.0166667,
      "lng": 52.4666667
    },
    {
      "cityName": "Iteshevo",
      "lat": 56.4191667,
      "lng": 52.9025
    },
    {
      "cityName": "Itinsk",
      "lat": 57.4833333,
      "lng": 53.8666667
    },
    {
      "cityName": "Ivanovo",
      "lat": 56.2966667,
      "lng": 52.6352778
    },
    {
      "cityName": "Ivanovo-Samarskoye",
      "lat": 56.6966667,
      "lng": 52.7858333
    },
    {
      "cityName": "Ivany",
      "lat": 57.5166667,
      "lng": 54.05
    },
    {
      "cityName": "Iyulskoye",
      "lat": 56.9213889,
      "lng": 53.6166667
    },
    {
      "cityName": "Izbushka",
      "lat": 57.4538889,
      "lng": 53.5886111
    },
    {
      "cityName": "Izh",
      "lat": 57.1380556,
      "lng": 53.3436111
    },
    {
      "cityName": "Iznegvay",
      "lat": 57.6833333,
      "lng": 53.5333333
    },
    {
      "cityName": "Izvil",
      "lat": 57.9666667,
      "lng": 53.0166667
    },
    {
      "cityName": "Kabachigurt",
      "lat": 57.5833333,
      "lng": 53.2
    },
    {
      "cityName": "Kabakovo",
      "lat": 57.0833333,
      "lng": 51.9833333
    },
    {
      "cityName": "Kabalud",
      "lat": 57.9219444,
      "lng": 53.8713889
    },
    {
      "cityName": "Kabanovo",
      "lat": 57.4166667,
      "lng": 53.5
    },
    {
      "cityName": "Kablovyr",
      "lat": 57.95,
      "lng": 53.65
    },
    {
      "cityName": "Kachka",
      "lat": 58.0333333,
      "lng": 52.6
    },
    {
      "cityName": "Kachkashur",
      "lat": 58.1013889,
      "lng": 52.7827778
    },
    {
      "cityName": "Kadikovo",
      "lat": 56.1263889,
      "lng": 52.4066667
    },
    {
      "cityName": "Kadilovo",
      "lat": 57.3208333,
      "lng": 53.3766667
    },
    {
      "cityName": "Kady-Salya",
      "lat": 56.1172222,
      "lng": 53.3144444
    },
    {
      "cityName": "Kakmozh-Itchi",
      "lat": 56.8866667,
      "lng": 51.8436111
    },
    {
      "cityName": "Kakmozh",
      "lat": 56.8508333,
      "lng": 51.8466667
    },
    {
      "cityName": "Kalesur",
      "lat": 57.3,
      "lng": 52.3
    },
    {
      "cityName": "Kalininskiy",
      "lat": 57.45,
      "lng": 52.9166667
    },
    {
      "cityName": "Kalmyki",
      "lat": 57.4166667,
      "lng": 52.6666667
    },
    {
      "cityName": "Kamarka",
      "lat": 56.25,
      "lng": 54.1833333
    },
    {
      "cityName": "Kamennaya Gora",
      "lat": 56.2833333,
      "lng": 51.8
    },
    {
      "cityName": "Kamennoye",
      "lat": 56.0369444,
      "lng": 52.0194444
    },
    {
      "cityName": "Kamennoye Zadelye",
      "lat": 57.9369444,
      "lng": 53.2097222
    },
    {
      "cityName": "Kamennyy Klyuch",
      "lat": 56.4575,
      "lng": 52.5416667
    },
    {
      "cityName": "Kamki",
      "lat": 57.8102778,
      "lng": 52.2186111
    },
    {
      "cityName": "Kamskoye",
      "lat": 57.0333333,
      "lng": 54.2166667
    },
    {
      "cityName": "Kapustino",
      "lat": 56.7005556,
      "lng": 52.7463889
    },
    {
      "cityName": "Karachum",
      "lat": 57.7,
      "lng": 53.25
    },
    {
      "cityName": "Karakulino",
      "lat": 56.0116667,
      "lng": 53.7041667
    },
    {
      "cityName": "Karamas-Pelga",
      "lat": 56.3083333,
      "lng": 53.0733333
    },
    {
      "cityName": "Karaseva",
      "lat": 56.1,
      "lng": 53.6
    },
    {
      "cityName": "Karasevo",
      "lat": 58.15,
      "lng": 52.3833333
    },
    {
      "cityName": "Karashur",
      "lat": 56.3702778,
      "lng": 52.5486111
    },
    {
      "cityName": "Karatayevo",
      "lat": 58.1808333,
      "lng": 53.1061111
    },
    {
      "cityName": "Karaul Udmurtskiy",
      "lat": 57.8333333,
      "lng": 52.5666667
    },
    {
      "cityName": "Karavayevskaya",
      "lat": 58.3666667,
      "lng": 52.2
    },
    {
      "cityName": "Karavay",
      "lat": 56.73,
      "lng": 52.4969444
    },
    {
      "cityName": "Kargurez",
      "lat": 57.65,
      "lng": 53.4166667
    },
    {
      "cityName": "Karkashur",
      "lat": 57.7666667,
      "lng": 52.1833333
    },
    {
      "cityName": "Karsashur",
      "lat": 57.2833333,
      "lng": 54.0833333
    },
    {
      "cityName": "Karshevikhino",
      "lat": 58.2,
      "lng": 52.8833333
    },
    {
      "cityName": "Karso",
      "lat": 57.2666667,
      "lng": 52.3
    },
    {
      "cityName": "Karsovai",
      "lat": 58.2286111,
      "lng": 53.1863889
    },
    {
      "cityName": "Kashabegi",
      "lat": 56.7166667,
      "lng": 53.4666667
    },
    {
      "cityName": "Katekshur",
      "lat": 56.3333333,
      "lng": 52.1333333
    },
    {
      "cityName": "KatyshiGami",
      "lat": 57.01,
      "lng": 53.7713889
    },
    {
      "cityName": "Kaymashur",
      "lat": 56.5869444,
      "lng": 52.7922222
    },
    {
      "cityName": "Kayshur",
      "lat": 56.7733333,
      "lng": 52.0161111
    },
    {
      "cityName": "Kazakovo",
      "lat": 58.3047222,
      "lng": 52.2641667
    },
    {
      "cityName": "Kechshur",
      "lat": 57.2222222,
      "lng": 53.2761111
    },
    {
      "cityName": "Kechur",
      "lat": 56.6066667,
      "lng": 52.8827778
    },
    {
      "cityName": "Kekoran",
      "lat": 57.2111111,
      "lng": 52.9841667
    },
    {
      "cityName": "Kelchino",
      "lat": 57.25,
      "lng": 54.2
    },
    {
      "cityName": "Keldyki",
      "lat": 57.9772222,
      "lng": 52.0413889
    },
    {
      "cityName": "Keldysh",
      "lat": 57.4,
      "lng": 54.0666667
    },
    {
      "cityName": "Kesshur",
      "lat": 57.2833333,
      "lng": 53.7
    },
    {
      "cityName": "Kestym",
      "lat": 58.0288889,
      "lng": 52.9702778
    },
    {
      "cityName": "Kesyag",
      "lat": 57.8166667,
      "lng": 53.5666667
    },
    {
      "cityName": "Kezdur",
      "lat": 57.85,
      "lng": 53.7
    },
    {
      "cityName": "Kez",
      "lat": 57.895,
      "lng": 53.72
    },
    {
      "cityName": "Khaldy",
      "lat": 57.2077778,
      "lng": 51.9275
    },
    {
      "cityName": "Khodyri",
      "lat": 57.35,
      "lng": 51.4666667
    },
    {
      "cityName": "Khokhryaki",
      "lat": 56.9172222,
      "lng": 53.3241667
    },
    {
      "cityName": "Kholodnyy Klyuch",
      "lat": 56.2833333,
      "lng": 53.45
    },
    {
      "cityName": "Khomyakovo",
      "lat": 58,
      "lng": 52.5333333
    },
    {
      "cityName": "Khorokhory",
      "lat": 56.9269444,
      "lng": 53.7211111
    },
    {
      "cityName": "Kibayevo",
      "lat": 56.3641667,
      "lng": 53.64
    },
    {
      "cityName": "Kibi-Zhikya",
      "lat": 56.8802778,
      "lng": 52.1522222
    },
    {
      "cityName": "Kibya",
      "lat": 56.4086111,
      "lng": 51.4122222
    },
    {
      "cityName": "Kilmez",
      "lat": 57.0083333,
      "lng": 51.3330556
    },
    {
      "cityName": "Kinervay",
      "lat": 57.2666667,
      "lng": 53.2166667
    },
    {
      "cityName": "Kineus",
      "lat": 56.3463889,
      "lng": 52.0311111
    },
    {
      "cityName": "Kinyagil",
      "lat": 56.3933333,
      "lng": 52.2366667
    },
    {
      "cityName": "Kion Lipeto",
      "lat": 57.35,
      "lng": 53.9
    },
    {
      "cityName": "Kipryata",
      "lat": 58.4166667,
      "lng": 53.5166667
    },
    {
      "cityName": "Kipun",
      "lat": 57.2666667,
      "lng": 53.8833333
    },
    {
      "cityName": "Kirillov",
      "lat": 56.05,
      "lng": 53.7
    },
    {
      "cityName": "Kirpino",
      "lat": 58.2333333,
      "lng": 53.4333333
    },
    {
      "cityName": "Kirshonki",
      "lat": 58.2333333,
      "lng": 53.3666667
    },
    {
      "cityName": "Kiyasovo",
      "lat": 56.3452778,
      "lng": 53.1263889
    },
    {
      "cityName": "Kizelovo-Udmurtskoye",
      "lat": 56.1166667,
      "lng": 52.4666667
    },
    {
      "cityName": "Kizner",
      "lat": 56.2788889,
      "lng": 51.5138889
    },
    {
      "cityName": "Klestovo",
      "lat": 56.0091667,
      "lng": 53.6247222
    },
    {
      "cityName": "Klyanovo",
      "lat": 58.25,
      "lng": 52.8833333
    },
    {
      "cityName": "Klyuchevaya",
      "lat": 56.9,
      "lng": 52.1333333
    },
    {
      "cityName": "Klyuchevka",
      "lat": 56.2166667,
      "lng": 52.6833333
    },
    {
      "cityName": "Klyuchevskiy",
      "lat": 58.0702778,
      "lng": 53.7483333
    },
    {
      "cityName": "Klyuchi",
      "lat": 56.5808333,
      "lng": 52.17
    },
    {
      "cityName": "Klyuchi Tatarskiye",
      "lat": 57.9833333,
      "lng": 52.2666667
    },
    {
      "cityName": "Klyuchi-Udmurtskiye",
      "lat": 58.0391667,
      "lng": 52.4638889
    },
    {
      "cityName": "Knyazevo",
      "lat": 57.5166667,
      "lng": 53.6833333
    },
    {
      "cityName": "Kobinpi",
      "lat": 57.85,
      "lng": 52.9833333
    },
    {
      "cityName": "Kobylino",
      "lat": 56.6405556,
      "lng": 52.8138889
    },
    {
      "cityName": "Kochegurt",
      "lat": 57.1666667,
      "lng": 52.2
    },
    {
      "cityName": "Kochetla",
      "lat": 56.2333333,
      "lng": 51.4833333
    },
    {
      "cityName": "Kochezhgurt",
      "lat": 56.6,
      "lng": 51.75
    },
    {
      "cityName": "Kochishevo",
      "lat": 58.05,
      "lng": 52.75
    },
    {
      "cityName": "Kochish",
      "lat": 57.2166667,
      "lng": 52.5
    },
    {
      "cityName": "Kochukovo",
      "lat": 57.9333333,
      "lng": 52.05
    },
    {
      "cityName": "Kochur",
      "lat": 56.7941667,
      "lng": 52.4166667
    },
    {
      "cityName": "Kokman",
      "lat": 57.5722222,
      "lng": 52.3736111
    },
    {
      "cityName": "Kokshan",
      "lat": 56.1111111,
      "lng": 52.1266667
    },
    {
      "cityName": "Kolesnikovo",
      "lat": 55.9786111,
      "lng": 53.5580556
    },
    {
      "cityName": "Kolnogorovo",
      "lat": 56.6633333,
      "lng": 51.8597222
    },
    {
      "cityName": "Koltymak",
      "lat": 56.185,
      "lng": 52.245
    },
    {
      "cityName": "Kolyushevo",
      "lat": 56.8216667,
      "lng": 53.6880556
    },
    {
      "cityName": "Komakgurt",
      "lat": 56.9833333,
      "lng": 52.2166667
    },
    {
      "cityName": "Komarovo",
      "lat": 58.2683333,
      "lng": 52.3863889
    },
    {
      "cityName": "Komary",
      "lat": 57.7222222,
      "lng": 53.9602778
    },
    {
      "cityName": "Komyak",
      "lat": 56.3266667,
      "lng": 51.9816667
    },
    {
      "cityName": "Konkopi",
      "lat": 58.0333333,
      "lng": 53.85
    },
    {
      "cityName": "Kopki",
      "lat": 57.3788889,
      "lng": 51.7494444
    },
    {
      "cityName": "Korobeyniki",
      "lat": 56.35,
      "lng": 53.55
    },
    {
      "cityName": "Korobyata",
      "lat": 57.65,
      "lng": 52.3
    },
    {
      "cityName": "Koroby",
      "lat": 58.25,
      "lng": 53.75
    },
    {
      "cityName": "Koroli",
      "lat": 58.1511111,
      "lng": 51.7541667
    },
    {
      "cityName": "Korovino",
      "lat": 58.4155556,
      "lng": 53.6625
    },
    {
      "cityName": "Korovkintsy",
      "lat": 57.6666667,
      "lng": 52.35
    },
    {
      "cityName": "Korshunovo",
      "lat": 58.1336111,
      "lng": 53.3513889
    },
    {
      "cityName": "Kosaya Mozhga",
      "lat": 56.6636111,
      "lng": 51.5097222
    },
    {
      "cityName": "Kosolapovo",
      "lat": 56.4233333,
      "lng": 53.3191667
    },
    {
      "cityName": "Kosolapy",
      "lat": 57.3166667,
      "lng": 52.5
    },
    {
      "cityName": "Kostoshur",
      "lat": 57.4666667,
      "lng": 53.4
    },
    {
      "cityName": "Kostovatova",
      "lat": 56.1,
      "lng": 53.9333333
    },
    {
      "cityName": "Kostromka",
      "lat": 58.35,
      "lng": 52.0166667
    },
    {
      "cityName": "Kotegovo",
      "lat": 57.9,
      "lng": 52.8
    },
    {
      "cityName": "Kotegurt",
      "lat": 57.6777778,
      "lng": 53.5311111
    },
    {
      "cityName": "Kotova",
      "lat": 56.1902778,
      "lng": 53.7125
    },
    {
      "cityName": "Kotya",
      "lat": 56.7130556,
      "lng": 51.8036111
    },
    {
      "cityName": "Kozhil",
      "lat": 57.2141667,
      "lng": 51.8180556
    },
    {
      "cityName": "Kozhilo",
      "lat": 58.0166667,
      "lng": 53
    },
    {
      "cityName": "Kozino",
      "lat": 57.3166667,
      "lng": 53.9666667
    },
    {
      "cityName": "Kozlovo",
      "lat": 56.5502778,
      "lng": 53.4780556
    },
    {
      "cityName": "Kozmodemyansk",
      "lat": 55.9666667,
      "lng": 51.9
    },
    {
      "cityName": "Krasnaya Gorka",
      "lat": 56.4166667,
      "lng": 53.5
    },
    {
      "cityName": "Krasnoperovo",
      "lat": 56.35,
      "lng": 53.05
    },
    {
      "cityName": "Krasnoye",
      "lat": 56.735,
      "lng": 52.5833333
    },
    {
      "cityName": "Krasnyye Gorki",
      "lat": 56.8833333,
      "lng": 52.15
    },
    {
      "cityName": "Krasnyye Luchi",
      "lat": 56.1,
      "lng": 53.2666667
    },
    {
      "cityName": "Krasnyy",
      "lat": 56.4438889,
      "lng": 52.2158333
    },
    {
      "cityName": "Krasnyy Yar",
      "lat": 56.6955556,
      "lng": 52.0925
    },
    {
      "cityName": "Krestovozdvizhenskaya",
      "lat": 56.9666667,
      "lng": 53.2666667
    },
    {
      "cityName": "Krymskaya Sludka",
      "lat": 55.9833333,
      "lng": 51.4166667
    },
    {
      "cityName": "Krysovo",
      "lat": 57.7166667,
      "lng": 52.75
    },
    {
      "cityName": "Kuashur",
      "lat": 57.25,
      "lng": 52.1
    },
    {
      "cityName": "Kuchanovskaya",
      "lat": 58.0611111,
      "lng": 52.1863889
    },
    {
      "cityName": "Kucheryanovo",
      "lat": 56.1369444,
      "lng": 52.5094444
    },
    {
      "cityName": "Kuchino",
      "lat": 58.2219444,
      "lng": 52.0233333
    },
    {
      "cityName": "Kudeksa",
      "lat": 56.1397222,
      "lng": 53.7894444
    },
    {
      "cityName": "Kudrino",
      "lat": 57.01,
      "lng": 53.5747222
    },
    {
      "cityName": "Kukhtino",
      "lat": 56.1,
      "lng": 54.0333333
    },
    {
      "cityName": "Kukuy",
      "lat": 57.0333333,
      "lng": 53.9
    },
    {
      "cityName": "Kulak-Kuches",
      "lat": 57.3483333,
      "lng": 53.5988889
    },
    {
      "cityName": "Kulevo",
      "lat": 56.1333333,
      "lng": 53.9
    },
    {
      "cityName": "Kuliga",
      "lat": 58.1833333,
      "lng": 53.7630556
    },
    {
      "cityName": "Kulyabino",
      "lat": 56.8075,
      "lng": 52.3069444
    },
    {
      "cityName": "Kulyushevo",
      "lat": 56.0544444,
      "lng": 53.5663889
    },
    {
      "cityName": "Kumyrsa",
      "lat": 56.0772222,
      "lng": 53.3294444
    },
    {
      "cityName": "Kunayevo",
      "lat": 57.9,
      "lng": 53.1166667
    },
    {
      "cityName": "Kureggurt",
      "lat": 56.45,
      "lng": 52.2166667
    },
    {
      "cityName": "Kuregovo",
      "lat": 58.1833333,
      "lng": 53.0666667
    },
    {
      "cityName": "Kurekovo",
      "lat": 56.8,
      "lng": 53
    },
    {
      "cityName": "Kurka",
      "lat": 58.0780556,
      "lng": 52.4630556
    },
    {
      "cityName": "Kurkan",
      "lat": 57.9166667,
      "lng": 52.3166667
    },
    {
      "cityName": "Kurya",
      "lat": 57.7077778,
      "lng": 52.0786111
    },
    {
      "cityName": "Kushman",
      "lat": 58.2333333,
      "lng": 52.3333333
    },
    {
      "cityName": "Kushya",
      "lat": 57.4522222,
      "lng": 53.1027778
    },
    {
      "cityName": "Kushya-Tyloy",
      "lat": 57.3333333,
      "lng": 53.2
    },
    {
      "cityName": "Kusma",
      "lat": 57.95,
      "lng": 54.05
    },
    {
      "cityName": "Kutmes",
      "lat": 56.2166667,
      "lng": 53.95
    },
    {
      "cityName": "Kutonshur",
      "lat": 57.25,
      "lng": 53.45
    },
    {
      "cityName": "Kuzebayevo",
      "lat": 56.0727778,
      "lng": 52.7008333
    },
    {
      "cityName": "Kuzem",
      "lat": 58.1666667,
      "lng": 53.3833333
    },
    {
      "cityName": "Kuzmino",
      "lat": 58.3666667,
      "lng": 52.1
    },
    {
      "cityName": "Kuzmovyr",
      "lat": 57.5166667,
      "lng": 53.1833333
    },
    {
      "cityName": "Kuznerka",
      "lat": 56.4536111,
      "lng": 51.7233333
    },
    {
      "cityName": "Kuznetsevo",
      "lat": 56.5666667,
      "lng": 53.65
    },
    {
      "cityName": "Kuznetsovo",
      "lat": 55.9333333,
      "lng": 51.9
    },
    {
      "cityName": "Kuzyumovo",
      "lat": 56.1866667,
      "lng": 52.7333333
    },
    {
      "cityName": "Kvachi",
      "lat": 56.7322222,
      "lng": 51.4319444
    },
    {
      "cityName": "Kvachkam Russkiy",
      "lat": 56.6,
      "lng": 51.9333333
    },
    {
      "cityName": "Kvardavoz",
      "lat": 57.55,
      "lng": 53.4
    },
    {
      "cityName": "Kvarsa",
      "lat": 56.9588889,
      "lng": 53.9427778
    },
    {
      "cityName": "Kvashur",
      "lat": 56.765,
      "lng": 51.5516667
    },
    {
      "cityName": "Kvatchi",
      "lat": 56.3983333,
      "lng": 52.3669444
    },
    {
      "cityName": "Kychinskiy",
      "lat": 58.2111111,
      "lng": 51.9502778
    },
    {
      "cityName": "Kydach",
      "lat": 56.4666667,
      "lng": 51.9
    },
    {
      "cityName": "Kykva",
      "lat": 57.2908333,
      "lng": 53.4297222
    },
    {
      "cityName": "Kyrchim-Selty",
      "lat": 57.3194444,
      "lng": 51.7269444
    },
    {
      "cityName": "Kyrlud",
      "lat": 58.3,
      "lng": 52.8
    },
    {
      "cityName": "Kyylud",
      "lat": 56.8630556,
      "lng": 52.4408333
    },
    {
      "cityName": "Lagunovo",
      "lat": 56.6194444,
      "lng": 53.6127778
    },
    {
      "cityName": "Laka-Tyzhma",
      "lat": 56.25,
      "lng": 51.5166667
    },
    {
      "cityName": "Laptevshchino",
      "lat": 57.5,
      "lng": 52.1833333
    },
    {
      "cityName": "Lapugi",
      "lat": 56.8833333,
      "lng": 52.3
    },
    {
      "cityName": "Larchonovo",
      "lat": 57.6833333,
      "lng": 52.5666667
    },
    {
      "cityName": "Latyri",
      "lat": 57.4833333,
      "lng": 51.8333333
    },
    {
      "cityName": "Lebedevka",
      "lat": 56.0255556,
      "lng": 51.9088889
    },
    {
      "cityName": "Legashur",
      "lat": 58.05,
      "lng": 53.7
    },
    {
      "cityName": "Legoil",
      "lat": 58.0833333,
      "lng": 53.7
    },
    {
      "cityName": "Lekovayevskaya",
      "lat": 58.35,
      "lng": 52.2166667
    },
    {
      "cityName": "Lekshur",
      "lat": 57.1436111,
      "lng": 51.8558333
    },
    {
      "cityName": "Lemeslud",
      "lat": 56.6811111,
      "lng": 52.1311111
    },
    {
      "cityName": "Lem Udmurtskiy",
      "lat": 57.6666667,
      "lng": 54.0166667
    },
    {
      "cityName": "Lesagurt",
      "lat": 57.6636111,
      "lng": 53.6894444
    },
    {
      "cityName": "Lesnoy",
      "lat": 56.5866667,
      "lng": 52.5811111
    },
    {
      "cityName": "Levaya Kushya",
      "lat": 57.4833333,
      "lng": 53.1166667
    },
    {
      "cityName": "Lezino",
      "lat": 58.1333333,
      "lng": 52.2833333
    },
    {
      "cityName": "Lipovka",
      "lat": 56.8833333,
      "lng": 52.0333333
    },
    {
      "cityName": "Listvenka",
      "lat": 57.1475,
      "lng": 53.8852778
    },
    {
      "cityName": "Lnozavod",
      "lat": 56.45,
      "lng": 52.3
    },
    {
      "cityName": "Loboshur",
      "lat": 57.5666667,
      "lng": 53.8833333
    },
    {
      "cityName": "Logolyuk",
      "lat": 57.7,
      "lng": 53.35
    },
    {
      "cityName": "Logoshur",
      "lat": 58.0833333,
      "lng": 52.0833333
    },
    {
      "cityName": "Logovo",
      "lat": 57.65,
      "lng": 52.2333333
    },
    {
      "cityName": "Lokteva",
      "lat": 56.0833333,
      "lng": 53.7833333
    },
    {
      "cityName": "Lollez Udmurtskaya",
      "lat": 56.7,
      "lng": 52.4333333
    },
    {
      "cityName": "Lollez-Zhikya",
      "lat": 56.7236111,
      "lng": 52.4502778
    },
    {
      "cityName": "Loloshur-Bozzhi",
      "lat": 56.0011111,
      "lng": 51.805
    },
    {
      "cityName": "Lomovaya",
      "lat": 56.0927778,
      "lng": 53.8041667
    },
    {
      "cityName": "Lonki-Vortsy",
      "lat": 57.4725,
      "lng": 53.2
    },
    {
      "cityName": "Loza",
      "lat": 57.3661111,
      "lng": 53.0155556
    },
    {
      "cityName": "Loza-Russkaya",
      "lat": 57.3333333,
      "lng": 53.0166667
    },
    {
      "cityName": "Loza-Udmurtskaya",
      "lat": 57.45,
      "lng": 53.15
    },
    {
      "cityName": "Lozo-Vortsy",
      "lat": 57.2833333,
      "lng": 52.7166667
    },
    {
      "cityName": "Lubyanka",
      "lat": 56.1333333,
      "lng": 51.6666667
    },
    {
      "cityName": "Lubyanki",
      "lat": 56.3833333,
      "lng": 53.9666667
    },
    {
      "cityName": "Luchik",
      "lat": 57.6,
      "lng": 53.05
    },
    {
      "cityName": "Ludorvay",
      "lat": 56.7547222,
      "lng": 53.0933333
    },
    {
      "cityName": "Ludoshur",
      "lat": 58.1,
      "lng": 52.7333333
    },
    {
      "cityName": "Ludya",
      "lat": 58.15,
      "lng": 53.55
    },
    {
      "cityName": "Ludyany",
      "lat": 57.4152778,
      "lng": 52.6641667
    },
    {
      "cityName": "Ludzil-Tuklya",
      "lat": 57.15,
      "lng": 52.15
    },
    {
      "cityName": "Ludzi-Shudzi",
      "lat": 56.4558333,
      "lng": 52.4452778
    },
    {
      "cityName": "Ludzi-Zhikya",
      "lat": 57.2711111,
      "lng": 52.2863889
    },
    {
      "cityName": "Ludzya",
      "lat": 56.7063889,
      "lng": 53.0877778
    },
    {
      "cityName": "Ludzya-Norya",
      "lat": 56.6744444,
      "lng": 52.9577778
    },
    {
      "cityName": "Lumpovo",
      "lat": 57.2688889,
      "lng": 52.7961111
    },
    {
      "cityName": "Lupikha",
      "lat": 56.35,
      "lng": 53.9666667
    },
    {
      "cityName": "Lutokha",
      "lat": 56.3008333,
      "lng": 53.2980556
    },
    {
      "cityName": "Lutoshki",
      "lat": 57.2,
      "lng": 53.2333333
    },
    {
      "cityName": "Lvovskiy",
      "lat": 56.3433333,
      "lng": 51.5844444
    },
    {
      "cityName": "Lyali",
      "lat": 56.1519444,
      "lng": 52.8052778
    },
    {
      "cityName": "Lyalino",
      "lat": 57.8333333,
      "lng": 52.2333333
    },
    {
      "cityName": "Lyalshur",
      "lat": 57.2697222,
      "lng": 53.68
    },
    {
      "cityName": "Lyamshur-Vishur",
      "lat": 57.2333333,
      "lng": 53.6666667
    },
    {
      "cityName": "Lynga",
      "lat": 57.295,
      "lng": 53.0297222
    },
    {
      "cityName": "Lyshganka",
      "lat": 56.6277778,
      "lng": 51.6044444
    },
    {
      "cityName": "Lysovo",
      "lat": 56.3161111,
      "lng": 53.8727778
    },
    {
      "cityName": "Lystem",
      "lat": 56.8375,
      "lng": 51.7977778
    },
    {
      "cityName": "Lyuga",
      "lat": 56.4291667,
      "lng": 51.95
    },
    {
      "cityName": "Lyuk",
      "lat": 56.9122222,
      "lng": 52.7877778
    },
    {
      "cityName": "Lyukshudya",
      "lat": 56.9663889,
      "lng": 53.0111111
    },
    {
      "cityName": "Lyulli",
      "lat": 56.7880556,
      "lng": 53.3063889
    },
    {
      "cityName": "Lyum",
      "lat": 58.2458333,
      "lng": 52.475
    },
    {
      "cityName": "Madyarovo",
      "lat": 57.2791667,
      "lng": 52.1533333
    },
    {
      "cityName": "Makan-Pelga",
      "lat": 56.1522222,
      "lng": 51.8452778
    },
    {
      "cityName": "Makarovka",
      "lat": 56.1652778,
      "lng": 52.0808333
    },
    {
      "cityName": "Maklino",
      "lat": 56.4333333,
      "lng": 53.65
    },
    {
      "cityName": "Makretsy",
      "lat": 58.3166667,
      "lng": 53.1166667
    },
    {
      "cityName": "Makshaki",
      "lat": 56.2833333,
      "lng": 53.4666667
    },
    {
      "cityName": "Makshur",
      "lat": 57.4333333,
      "lng": 51.8166667
    },
    {
      "cityName": "Maksimovo",
      "lat": 56.0333333,
      "lng": 53.5166667
    },
    {
      "cityName": "Maksimovtsy",
      "lat": 57.2666667,
      "lng": 52.35
    },
    {
      "cityName": "Malaya Bodya",
      "lat": 56.5661111,
      "lng": 53.0552778
    },
    {
      "cityName": "Malaya Cheptsa",
      "lat": 57.6333333,
      "lng": 53.7666667
    },
    {
      "cityName": "Malaya Inga",
      "lat": 57.0755556,
      "lng": 51.8552778
    },
    {
      "cityName": "Malaya Itcha",
      "lat": 57.1402778,
      "lng": 52.8491667
    },
    {
      "cityName": "Malaya Kibya",
      "lat": 56.4058333,
      "lng": 52.5791667
    },
    {
      "cityName": "Malaya Kopka",
      "lat": 56.505,
      "lng": 52.155
    },
    {
      "cityName": "Malaya Medla",
      "lat": 57.7716667,
      "lng": 53.8652778
    },
    {
      "cityName": "Malaya Popovka",
      "lat": 56.4,
      "lng": 53.4333333
    },
    {
      "cityName": "Malaya Pudga",
      "lat": 56.5072222,
      "lng": 52.0427778
    },
    {
      "cityName": "Malaya Purga",
      "lat": 56.5522222,
      "lng": 53.0027778
    },
    {
      "cityName": "Malaya Syuga",
      "lat": 56.5105556,
      "lng": 52.1897222
    },
    {
      "cityName": "Malaya Volozhikya",
      "lat": 56.6194444,
      "lng": 52.2977778
    },
    {
      "cityName": "Malchikovo",
      "lat": 56.8,
      "lng": 51.95
    },
    {
      "cityName": "Malegurt",
      "lat": 57.6583333,
      "lng": 52.545
    },
    {
      "cityName": "Malinovo",
      "lat": 56.35,
      "lng": 53.2166667
    },
    {
      "cityName": "Malo-Kiyasovo",
      "lat": 56.2897222,
      "lng": 53.245
    },
    {
      "cityName": "Malo-Klyuchi",
      "lat": 58.0522222,
      "lng": 52.3919444
    },
    {
      "cityName": "Maloye Sazanovo",
      "lat": 58.0825,
      "lng": 53.3469444
    },
    {
      "cityName": "Malyagurt",
      "lat": 57.5375,
      "lng": 52.5508333
    },
    {
      "cityName": "Malyashi",
      "lat": 55.95,
      "lng": 53.6666667
    },
    {
      "cityName": "Malyy Bilib",
      "lat": 57.3666667,
      "lng": 53.9333333
    },
    {
      "cityName": "Malyy Dasos",
      "lat": 57.8666667,
      "lng": 52.4
    },
    {
      "cityName": "Malyye Kalmashi",
      "lat": 56.1847222,
      "lng": 53.8994444
    },
    {
      "cityName": "Malyye Oshvortsy",
      "lat": 57.2572222,
      "lng": 53.3102778
    },
    {
      "cityName": "Malyye Peshchery",
      "lat": 56.6,
      "lng": 53.7833333
    },
    {
      "cityName": "Malyye Syumsi",
      "lat": 57.1716667,
      "lng": 51.6169444
    },
    {
      "cityName": "Malyye Syurzi",
      "lat": 57.2013889,
      "lng": 52.3811111
    },
    {
      "cityName": "Malyy Irym",
      "lat": 57.5833333,
      "lng": 53.5166667
    },
    {
      "cityName": "Malyy Kazes",
      "lat": 57.2166667,
      "lng": 53.8333333
    },
    {
      "cityName": "Malyy Oshmesvay",
      "lat": 57.1333333,
      "lng": 52.6
    },
    {
      "cityName": "Malyy Polom",
      "lat": 57.75,
      "lng": 53.5333333
    },
    {
      "cityName": "Malyy Sardyk",
      "lat": 57.1333333,
      "lng": 52.0166667
    },
    {
      "cityName": "Malyy Untem",
      "lat": 58,
      "lng": 53.1333333
    },
    {
      "cityName": "Malyy Venizh",
      "lat": 57.9,
      "lng": 52.45
    },
    {
      "cityName": "Malyy Zhaygil",
      "lat": 57.2833333,
      "lng": 52.1
    },
    {
      "cityName": "Malyy Zhuzhges",
      "lat": 56.7280556,
      "lng": 52.3119444
    },
    {
      "cityName": "Mamleyevo",
      "lat": 57.9333333,
      "lng": 52.2166667
    },
    {
      "cityName": "Maragino",
      "lat": 56.0333333,
      "lng": 53.65
    },
    {
      "cityName": "Marchenki",
      "lat": 58.25,
      "lng": 53.2
    },
    {
      "cityName": "Mari-Gondyrevo",
      "lat": 56.1061111,
      "lng": 52.2522222
    },
    {
      "cityName": "Mari-Vozzhay",
      "lat": 56.0130556,
      "lng": 52.1094444
    },
    {
      "cityName": "Markelovo",
      "lat": 57.1655556,
      "lng": 51.7644444
    },
    {
      "cityName": "Martynovo",
      "lat": 56.5666667,
      "lng": 53.5833333
    },
    {
      "cityName": "Masunino",
      "lat": 56.3191667,
      "lng": 54.0022222
    },
    {
      "cityName": "Maygan",
      "lat": 56.4097222,
      "lng": 83.6961111
    },
    {
      "cityName": "Mayskiy",
      "lat": 56.25,
      "lng": 54.15
    },
    {
      "cityName": "Medma",
      "lat": 58.1566667,
      "lng": 53.6091667
    },
    {
      "cityName": "Medvezhye",
      "lat": 56.3333333,
      "lng": 53.3166667
    },
    {
      "cityName": "Melnikovo",
      "lat": 56.5838889,
      "lng": 52.5144444
    },
    {
      "cityName": "Menil",
      "lat": 57.64,
      "lng": 53.0933333
    },
    {
      "cityName": "Meshcheryaki",
      "lat": 56.7419444,
      "lng": 53.3161111
    },
    {
      "cityName": "Meshcheryakovo",
      "lat": 55.9666667,
      "lng": 51.7333333
    },
    {
      "cityName": "Mezhnaya",
      "lat": 56.3547222,
      "lng": 53.9669444
    },
    {
      "cityName": "Mikhaylovka",
      "lat": 56.4166667,
      "lng": 54.2833333
    },
    {
      "cityName": "Minchegurt",
      "lat": 56.565,
      "lng": 52.4122222
    },
    {
      "cityName": "Mishkino",
      "lat": 57.1894444,
      "lng": 53.9419444
    },
    {
      "cityName": "Mitrenki",
      "lat": 58.3833333,
      "lng": 53.1333333
    },
    {
      "cityName": "Mitroshino",
      "lat": 56.3597222,
      "lng": 53.7041667
    },
    {
      "cityName": "Mokretsovo",
      "lat": 56.8272222,
      "lng": 51.5638889
    },
    {
      "cityName": "Molchany",
      "lat": 56.8761111,
      "lng": 53.6463889
    },
    {
      "cityName": "Molebnoye",
      "lat": 56.35,
      "lng": 53.4666667
    },
    {
      "cityName": "Monya",
      "lat": 56.7494444,
      "lng": 51.5083333
    },
    {
      "cityName": "Morozy",
      "lat": 58.3666667,
      "lng": 52.9
    },
    {
      "cityName": "Moseyevo",
      "lat": 58.1888889,
      "lng": 52.2497222
    },
    {
      "cityName": "Mostovoye",
      "lat": 56.2791667,
      "lng": 53.7175
    },
    {
      "cityName": "Mozhga",
      "lat": 56.3747222,
      "lng": 52.2605556
    },
    {
      "cityName": "Mozhvay",
      "lat": 56.8258333,
      "lng": 52.9033333
    },
    {
      "cityName": "Muchi",
      "lat": 57.4333333,
      "lng": 52.6333333
    },
    {
      "cityName": "Mukhino",
      "lat": 57.4833333,
      "lng": 52.65
    },
    {
      "cityName": "Muki-Kaksi",
      "lat": 56.9666667,
      "lng": 51.4333333
    },
    {
      "cityName": "Mukshi",
      "lat": 57.2405556,
      "lng": 53.3977778
    },
    {
      "cityName": "Mulshur",
      "lat": 56.8325,
      "lng": 52.3638889
    },
    {
      "cityName": "Mundey",
      "lat": 58.1666667,
      "lng": 53.15
    },
    {
      "cityName": "Murkoz",
      "lat": 56.65,
      "lng": 51.3
    },
    {
      "cityName": "Murkoz Omga",
      "lat": 56.5855556,
      "lng": 51.335
    },
    {
      "cityName": "Mushak",
      "lat": 56.2397222,
      "lng": 53.0633333
    },
    {
      "cityName": "Mushkovay",
      "lat": 57.0561111,
      "lng": 52.5297222
    },
    {
      "cityName": "Muvyr",
      "lat": 57.3,
      "lng": 53.6
    },
    {
      "cityName": "Muzhber",
      "lat": 57.3936111,
      "lng": 53.4338889
    },
    {
      "cityName": "Mymrina-Bobovka",
      "lat": 56.4019444,
      "lng": 53.4986111
    },
    {
      "cityName": "Mys",
      "lat": 58.25,
      "lng": 53.5333333
    },
    {
      "cityName": "Mysy",
      "lat": 58.1280556,
      "lng": 53.8361111
    },
    {
      "cityName": "Nachar-Kotya",
      "lat": 56.8,
      "lng": 51.9166667
    },
    {
      "cityName": "Nagovitsyno",
      "lat": 58.05,
      "lng": 53.1666667
    },
    {
      "cityName": "Nakhrino",
      "lat": 57.7333333,
      "lng": 52.45
    },
    {
      "cityName": "Nardyg",
      "lat": 56.6933333,
      "lng": 52.5658333
    },
    {
      "cityName": "Nechkino",
      "lat": 56.6497222,
      "lng": 53.765
    },
    {
      "cityName": "Nemeshayevo",
      "lat": 56.6233333,
      "lng": 53.5672222
    },
    {
      "cityName": "Nepryakha",
      "lat": 56.3688889,
      "lng": 53.8961111
    },
    {
      "cityName": "Nertsy",
      "lat": 57.135,
      "lng": 51.39
    },
    {
      "cityName": "Nikola-Syuga",
      "lat": 56.5466667,
      "lng": 51.9425
    },
    {
      "cityName": "Nikolskaya",
      "lat": 56.7333333,
      "lng": 52.5666667
    },
    {
      "cityName": "Nikolskaya Vala",
      "lat": 56.2666667,
      "lng": 52.0833333
    },
    {
      "cityName": "Nikolskiy",
      "lat": 56.6166667,
      "lng": 53.4333333
    },
    {
      "cityName": "Nikolskoye",
      "lat": 56.3666667,
      "lng": 54.2666667
    },
    {
      "cityName": "Nimoshur",
      "lat": 57.5472222,
      "lng": 53.65
    },
    {
      "cityName": "Nizheye Asanovo",
      "lat": 56.0833333,
      "lng": 52.5
    },
    {
      "cityName": "Nizhneye Kechevo",
      "lat": 56.5397222,
      "lng": 53.22
    },
    {
      "cityName": "Nizhneye Koryakino",
      "lat": 57.3333333,
      "lng": 53.55
    },
    {
      "cityName": "Nizhneye Kosoyevo",
      "lat": 56.7333333,
      "lng": 52.2
    },
    {
      "cityName": "Nizhneye Kotnyrevo",
      "lat": 56.1083333,
      "lng": 52.4013889
    },
    {
      "cityName": "Nizhneye Podshivalovo",
      "lat": 56.7297222,
      "lng": 52.9638889
    },
    {
      "cityName": "Nizhniy Armyaz",
      "lat": 56.4438889,
      "lng": 53.9836111
    },
    {
      "cityName": "Nizhniy Chultem",
      "lat": 56.7716667,
      "lng": 53.2677778
    },
    {
      "cityName": "Nizhniye Kivary",
      "lat": 57.3166667,
      "lng": 54.1
    },
    {
      "cityName": "Nizhniye Yuri",
      "lat": 56.4072222,
      "lng": 52.7225
    },
    {
      "cityName": "Nizhniye Zhigi",
      "lat": 57.15,
      "lng": 52.5166667
    },
    {
      "cityName": "Nizhniy Kazes",
      "lat": 57.2494444,
      "lng": 53.8052778
    },
    {
      "cityName": "Nizhniy Pazyal",
      "lat": 56.6333333,
      "lng": 52.1833333
    },
    {
      "cityName": "Nizhniy Pinkay",
      "lat": 57.7833333,
      "lng": 53.6
    },
    {
      "cityName": "Nizhniy Russkiy Kuyuk",
      "lat": 56.0666667,
      "lng": 51.8
    },
    {
      "cityName": "Nizhniy Shudzyalud",
      "lat": 57.4833333,
      "lng": 53.6833333
    },
    {
      "cityName": "Nizhniy Syryez",
      "lat": 56.3005556,
      "lng": 52.5527778
    },
    {
      "cityName": "Nizhniy Tylovay",
      "lat": 56.3,
      "lng": 51.5333333
    },
    {
      "cityName": "Nizhniy Tyloy",
      "lat": 57.3833333,
      "lng": 53.5333333
    },
    {
      "cityName": "Nizhniy Ubyt",
      "lat": 58.15,
      "lng": 52.5333333
    },
    {
      "cityName": "Nizhniy Ukan",
      "lat": 58.1166667,
      "lng": 51.8833333
    },
    {
      "cityName": "Nizhniy Utem",
      "lat": 57.4166667,
      "lng": 52.7833333
    },
    {
      "cityName": "Nizhniy Uyvay",
      "lat": 57.5391667,
      "lng": 53.9313889
    },
    {
      "cityName": "Nizhniy Vishur",
      "lat": 56.4080556,
      "lng": 52.3111111
    },
    {
      "cityName": "Nizhniy Yus",
      "lat": 56.8947222,
      "lng": 51.6980556
    },
    {
      "cityName": "Nizhnyaya Kuse-Kaksya",
      "lat": 56.5666667,
      "lng": 51.5166667
    },
    {
      "cityName": "Nizhnyaya Pazhma",
      "lat": 57.95,
      "lng": 52.1666667
    },
    {
      "cityName": "Nizhnyaya Pykhta",
      "lat": 57.6905556,
      "lng": 53.9994444
    },
    {
      "cityName": "Nizhnyaya Salya",
      "lat": 56.1811111,
      "lng": 53.2636111
    },
    {
      "cityName": "Nizhnyaya Talitsa",
      "lat": 57.0891667,
      "lng": 53.7908333
    },
    {
      "cityName": "Nosacheva",
      "lat": 55.9833333,
      "lng": 53.4333333
    },
    {
      "cityName": "Novaya Biya",
      "lat": 56.7975,
      "lng": 51.6944444
    },
    {
      "cityName": "Novaya Chernushka",
      "lat": 57.05,
      "lng": 53.1166667
    },
    {
      "cityName": "Novaya Kazamaska",
      "lat": 56.8272222,
      "lng": 53.5322222
    },
    {
      "cityName": "Novaya Laka",
      "lat": 56.3166667,
      "lng": 51.4
    },
    {
      "cityName": "Novaya Monya",
      "lat": 57.1919444,
      "lng": 52.1591667
    },
    {
      "cityName": "Novaya Oshmes",
      "lat": 56.3519444,
      "lng": 52.0902778
    },
    {
      "cityName": "Novaya Vozhayka",
      "lat": 57.0166667,
      "lng": 53.1833333
    },
    {
      "cityName": "Novaya Zhikya",
      "lat": 56.5088889,
      "lng": 52.7288889
    },
    {
      "cityName": "Noviye Zyatsy",
      "lat": 57.4563889,
      "lng": 52.5863889
    },
    {
      "cityName": "Novochurino",
      "lat": 57.7333333,
      "lng": 52.5333333
    },
    {
      "cityName": "Novoglazovo",
      "lat": 57.4794444,
      "lng": 53.4127778
    },
    {
      "cityName": "Novogorskoye",
      "lat": 56.0763889,
      "lng": 52.1752778
    },
    {
      "cityName": "Novokaravayskiy Vyselok",
      "lat": 57.3833333,
      "lng": 52.5833333
    },
    {
      "cityName": "Novoposelennoye",
      "lat": 55.9286111,
      "lng": 53.3847222
    },
    {
      "cityName": "Novosely",
      "lat": 58.3088889,
      "lng": 53.1652778
    },
    {
      "cityName": "Novotroitskaya",
      "lat": 56.2666667,
      "lng": 51.7166667
    },
    {
      "cityName": "Novovolkovo",
      "lat": 57.8294444,
      "lng": 53.0894444
    },
    {
      "cityName": "Novoye Kychino",
      "lat": 57.7344444,
      "lng": 52.4602778
    },
    {
      "cityName": "Novoye Martyanovo",
      "lat": 56.8286111,
      "lng": 53.4194444
    },
    {
      "cityName": "Novoye Yelovo",
      "lat": 58,
      "lng": 52.1
    },
    {
      "cityName": "Novyy Burnak",
      "lat": 56.5922222,
      "lng": 51.295
    },
    {
      "cityName": "Novyye Gayny",
      "lat": 57.3138889,
      "lng": 51.4383333
    },
    {
      "cityName": "Novyye Kopki",
      "lat": 56.45,
      "lng": 51.6
    },
    {
      "cityName": "Novyye Parzi",
      "lat": 57.9166667,
      "lng": 52.5666667
    },
    {
      "cityName": "Novyye Pikshi",
      "lat": 57.3166667,
      "lng": 52.65
    },
    {
      "cityName": "Novyye Siri",
      "lat": 57.7166667,
      "lng": 53.85
    },
    {
      "cityName": "Novyye Yuberi",
      "lat": 56.3011111,
      "lng": 52.3341667
    },
    {
      "cityName": "Novyy Kep",
      "lat": 57.8333333,
      "lng": 53.05
    },
    {
      "cityName": "Novyy Multan",
      "lat": 56.4072222,
      "lng": 51.7416667
    },
    {
      "cityName": "Novyy Mushkovay",
      "lat": 57.05,
      "lng": 52.5833333
    },
    {
      "cityName": "Novyy Pashur",
      "lat": 57.2666667,
      "lng": 53.6333333
    },
    {
      "cityName": "Novyy Russkiy Syugail",
      "lat": 56.4222222,
      "lng": 52.1233333
    },
    {
      "cityName": "Novyy Senteg",
      "lat": 56.9361111,
      "lng": 52.8630556
    },
    {
      "cityName": "Novyy Utchan",
      "lat": 56.1675,
      "lng": 52.38
    },
    {
      "cityName": "Numyrez",
      "lat": 57.65,
      "lng": 53.8
    },
    {
      "cityName": "Nuryzovo",
      "lat": 58,
      "lng": 52.9166667
    },
    {
      "cityName": "Nyaz-Vortsy",
      "lat": 57.4333333,
      "lng": 53.2333333
    },
    {
      "cityName": "Nylga",
      "lat": 56.7594444,
      "lng": 52.3691667
    },
    {
      "cityName": "Nynek",
      "lat": 56.2166667,
      "lng": 51.9666667
    },
    {
      "cityName": "Nyrganda",
      "lat": 55.8988889,
      "lng": 53.3319444
    },
    {
      "cityName": "Nyurdor-Kotya",
      "lat": 56.8069444,
      "lng": 51.8583333
    },
    {
      "cityName": "Nyurmush",
      "lat": 57.95,
      "lng": 53.7
    },
    {
      "cityName": "Nyurovay",
      "lat": 57.6,
      "lng": 53.6
    },
    {
      "cityName": "Oblastnaya",
      "lat": 56.9905556,
      "lng": 52.5738889
    },
    {
      "cityName": "Odintsovo",
      "lat": 57.1333333,
      "lng": 51.95
    },
    {
      "cityName": "Oktyabrskaya",
      "lat": 56.4,
      "lng": 54.25
    },
    {
      "cityName": "Oktyabrskiy",
      "lat": 56.5638889,
      "lng": 53.9741667
    },
    {
      "cityName": "Olenye Boloto",
      "lat": 56.3297222,
      "lng": 53.7877778
    },
    {
      "cityName": "Olkhovo",
      "lat": 56.8927778,
      "lng": 53.7941667
    },
    {
      "cityName": "Omutnitsa",
      "lat": 58.0788889,
      "lng": 52.9066667
    },
    {
      "cityName": "Onik-Irym",
      "lat": 57.5833333,
      "lng": 53.4833333
    },
    {
      "cityName": "Opary",
      "lat": 56.3,
      "lng": 53.65
    },
    {
      "cityName": "Orekhova",
      "lat": 56.0666667,
      "lng": 53.6166667
    },
    {
      "cityName": "Oreshniki",
      "lat": 56.2833333,
      "lng": 53.8333333
    },
    {
      "cityName": "Orlovka",
      "lat": 56.6,
      "lng": 51.2666667
    },
    {
      "cityName": "Orlovo",
      "lat": 57.1122222,
      "lng": 51.4408333
    },
    {
      "cityName": "Orlovskaya",
      "lat": 56.9497222,
      "lng": 53.2138889
    },
    {
      "cityName": "Orosovo",
      "lat": 58.0761111,
      "lng": 53.1083333
    },
    {
      "cityName": "Osenchugi",
      "lat": 58.0955556,
      "lng": 53.9308333
    },
    {
      "cityName": "Oshmes",
      "lat": 56.4,
      "lng": 52.6333333
    },
    {
      "cityName": "Osinovka",
      "lat": 57.1333333,
      "lng": 54.1166667
    },
    {
      "cityName": "Osipintsy",
      "lat": 57.6833333,
      "lng": 52.2333333
    },
    {
      "cityName": "Oska",
      "lat": 56.3666667,
      "lng": 53.3666667
    },
    {
      "cityName": "Osotovka",
      "lat": 56.2333333,
      "lng": 53.6833333
    },
    {
      "cityName": "Ostryy Mys",
      "lat": 57.4833333,
      "lng": 52.15
    },
    {
      "cityName": "Otogurt",
      "lat": 57.8877778,
      "lng": 52.6527778
    },
    {
      "cityName": "Otunikha",
      "lat": 56.4938889,
      "lng": 53.6327778
    },
    {
      "cityName": "Ozegvay",
      "lat": 57.9166667,
      "lng": 52.6
    },
    {
      "cityName": "Ozerki",
      "lat": 58.2466667,
      "lng": 52.2033333
    },
    {
      "cityName": "Ozhgi",
      "lat": 56.6047222,
      "lng": 51.7755556
    },
    {
      "cityName": "Ozon",
      "lat": 57.85,
      "lng": 53.4333333
    },
    {
      "cityName": "Padera",
      "lat": 57.9127778,
      "lng": 52.9461111
    },
    {
      "cityName": "Padezvay",
      "lat": 58.0147222,
      "lng": 53.6480556
    },
    {
      "cityName": "Pakshur",
      "lat": 56.4666667,
      "lng": 52.05
    },
    {
      "cityName": "Pali-Lystem",
      "lat": 57.25,
      "lng": 52.4666667
    },
    {
      "cityName": "Palniki",
      "lat": 56.5969444,
      "lng": 53.4933333
    },
    {
      "cityName": "Pancheshur",
      "lat": 57.1,
      "lng": 53.5666667
    },
    {
      "cityName": "Papogovo",
      "lat": 58.2166667,
      "lng": 52.9833333
    },
    {
      "cityName": "Parkachevo",
      "lat": 56.4758333,
      "lng": 53.5744444
    },
    {
      "cityName": "Parozovo",
      "lat": 57.2722222,
      "lng": 53.9627778
    },
    {
      "cityName": "Parsgurt",
      "lat": 56.6536111,
      "lng": 52.3608333
    },
    {
      "cityName": "Parzi",
      "lat": 57.9402778,
      "lng": 52.5841667
    },
    {
      "cityName": "Parzi-Tatarskiye",
      "lat": 58.0166667,
      "lng": 52.7166667
    },
    {
      "cityName": "Pashkopi",
      "lat": 58.0505556,
      "lng": 53.8302778
    },
    {
      "cityName": "Patraki",
      "lat": 57.2777778,
      "lng": 53.2327778
    },
    {
      "cityName": "Patrakova",
      "lat": 56.8666667,
      "lng": 53.9666667
    },
    {
      "cityName": "Pavlushata",
      "lat": 58.2694444,
      "lng": 53.0758333
    },
    {
      "cityName": "Pazdery",
      "lat": 56.8497222,
      "lng": 53.8886111
    },
    {
      "cityName": "Pazely",
      "lat": 56.9302778,
      "lng": 53.2372222
    },
    {
      "cityName": "Pazhman",
      "lat": 57.9719444,
      "lng": 53.6247222
    },
    {
      "cityName": "Pazyali",
      "lat": 57.35,
      "lng": 53.35
    },
    {
      "cityName": "Pazyal",
      "lat": 56.6238889,
      "lng": 52.1816667
    },
    {
      "cityName": "Pedonovo",
      "lat": 58.0375,
      "lng": 52.5408333
    },
    {
      "cityName": "Pedotlo",
      "lat": 57.3666667,
      "lng": 51.8666667
    },
    {
      "cityName": "Pekshur",
      "lat": 57.0166667,
      "lng": 52.1166667
    },
    {
      "cityName": "Pentegi",
      "lat": 56.2794444,
      "lng": 53.5161111
    },
    {
      "cityName": "Perevoznoye",
      "lat": 56.8838889,
      "lng": 53.92
    },
    {
      "cityName": "Pervomayskiy",
      "lat": 56.3755556,
      "lng": 53.2419444
    },
    {
      "cityName": "Pervomaysk",
      "lat": 56.9666667,
      "lng": 52.1833333
    },
    {
      "cityName": "Peskalud",
      "lat": 58.2833333,
      "lng": 52.5666667
    },
    {
      "cityName": "Pesterevo",
      "lat": 56.1791667,
      "lng": 53.9733333
    },
    {
      "cityName": "Petropavlovka",
      "lat": 56.7833333,
      "lng": 53.0333333
    },
    {
      "cityName": "Petropavlovo",
      "lat": 56.6961111,
      "lng": 52.5002778
    },
    {
      "cityName": "Petropavlovskiy",
      "lat": 56.0238889,
      "lng": 52.6469444
    },
    {
      "cityName": "Petrovka",
      "lat": 56.5188889,
      "lng": 53.5916667
    },
    {
      "cityName": "Petrovtsy",
      "lat": 58.2630556,
      "lng": 53.2936111
    },
    {
      "cityName": "Petunki",
      "lat": 57.2158333,
      "lng": 53.6222222
    },
    {
      "cityName": "Pibanshur",
      "lat": 57.9,
      "lng": 53.2666667
    },
    {
      "cityName": "Pikhtovka",
      "lat": 57.7333333,
      "lng": 53.4166667
    },
    {
      "cityName": "Pinyaz",
      "lat": 56.2011111,
      "lng": 53.6663889
    },
    {
      "cityName": "Pionerskiy",
      "lat": 57.6333333,
      "lng": 52.7833333
    },
    {
      "cityName": "Pirogovo",
      "lat": 56.7777778,
      "lng": 53.16
    },
    {
      "cityName": "Piseyevo",
      "lat": 56.3216667,
      "lng": 52.5277778
    },
    {
      "cityName": "Pisleglud",
      "lat": 57.2383333,
      "lng": 53.0875
    },
    {
      "cityName": "Pislegova",
      "lat": 56.6666667,
      "lng": 53.7166667
    },
    {
      "cityName": "Pizhil",
      "lat": 56.9047222,
      "lng": 51.5683333
    },
    {
      "cityName": "Platonovo",
      "lat": 58.3,
      "lng": 53.75
    },
    {
      "cityName": "Pocheshur-Kaksi",
      "lat": 56.345,
      "lng": 52.1880556
    },
    {
      "cityName": "Pochinki",
      "lat": 57.95,
      "lng": 52.2666667
    },
    {
      "cityName": "Pochinok Yelovskiy",
      "lat": 58.15,
      "lng": 51.9
    },
    {
      "cityName": "Podborkovo",
      "lat": 58.085,
      "lng": 52.9752778
    },
    {
      "cityName": "Podgornoye",
      "lat": 56.3838889,
      "lng": 53.0319444
    },
    {
      "cityName": "Podmoy",
      "lat": 56.9788889,
      "lng": 52.2905556
    },
    {
      "cityName": "Pokrovskaya",
      "lat": 56.05,
      "lng": 52.55
    },
    {
      "cityName": "Pokrovskiy",
      "lat": 56.2833333,
      "lng": 53.35
    },
    {
      "cityName": "Polevoy",
      "lat": 56.8333333,
      "lng": 53.3
    },
    {
      "cityName": "Polko",
      "lat": 56.5805556,
      "lng": 51.6513889
    },
    {
      "cityName": "Polomskaya",
      "lat": 58.35,
      "lng": 52.05
    },
    {
      "cityName": "Polukhi",
      "lat": 56.7166667,
      "lng": 53.6666667
    },
    {
      "cityName": "Polyakovo",
      "lat": 56.1719444,
      "lng": 51.8933333
    },
    {
      "cityName": "Polyana",
      "lat": 56.3666667,
      "lng": 52.2166667
    },
    {
      "cityName": "Ponino",
      "lat": 58.2472222,
      "lng": 52.8163889
    },
    {
      "cityName": "Poperechnyy Turnes",
      "lat": 57.6980556,
      "lng": 53.8725
    },
    {
      "cityName": "Popovka",
      "lat": 56.1672222,
      "lng": 53.8577778
    },
    {
      "cityName": "Porez",
      "lat": 57.6666667,
      "lng": 52.8333333
    },
    {
      "cityName": "Porozova",
      "lat": 56.0958333,
      "lng": 53.8397222
    },
    {
      "cityName": "Porshur",
      "lat": 56.0222222,
      "lng": 51.7136111
    },
    {
      "cityName": "Porshur-Tuklya",
      "lat": 57.0933333,
      "lng": 52.1530556
    },
    {
      "cityName": "Portyanovo",
      "lat": 58.2844444,
      "lng": 52.7030556
    },
    {
      "cityName": "Porva",
      "lat": 57.2130556,
      "lng": 53.0383333
    },
    {
      "cityName": "Porym",
      "lat": 56.0041667,
      "lng": 51.9972222
    },
    {
      "cityName": "Postol",
      "lat": 56.7705556,
      "lng": 52.7672222
    },
    {
      "cityName": "Postolskiy",
      "lat": 56.5822222,
      "lng": 53.0497222
    },
    {
      "cityName": "Potemkino",
      "lat": 57.8341667,
      "lng": 52.7666667
    },
    {
      "cityName": "Potorochino",
      "lat": 58.0444444,
      "lng": 53.3227778
    },
    {
      "cityName": "Povarenki",
      "lat": 56.8283333,
      "lng": 53.785
    },
    {
      "cityName": "Poykino",
      "lat": 56.3361111,
      "lng": 52.5958333
    },
    {
      "cityName": "Poyvay",
      "lat": 56.8327778,
      "lng": 52.6413889
    },
    {
      "cityName": "Pozhgurt",
      "lat": 57.3216667,
      "lng": 52.1975
    },
    {
      "cityName": "Pravaya Kushya",
      "lat": 57.4833333,
      "lng": 53.1666667
    },
    {
      "cityName": "Pravyye Gayny",
      "lat": 57.0833333,
      "lng": 51.7166667
    },
    {
      "cityName": "Prokhorovo",
      "lat": 57.7616667,
      "lng": 52.8069444
    },
    {
      "cityName": "Prokopyev",
      "lat": 56.45,
      "lng": 53.4
    },
    {
      "cityName": "Prokoshevo",
      "lat": 56.6333333,
      "lng": 52.9333333
    },
    {
      "cityName": "Pronyata",
      "lat": 58.2833333,
      "lng": 53.6166667
    },
    {
      "cityName": "Proy-Balma",
      "lat": 57.2555556,
      "lng": 51.8483333
    },
    {
      "cityName": "Prych",
      "lat": 57.2311111,
      "lng": 52.8494444
    },
    {
      "cityName": "Pudem",
      "lat": 58.3022222,
      "lng": 52.1691667
    },
    {
      "cityName": "Pudvay",
      "lat": 58.3580556,
      "lng": 52.9286111
    },
    {
      "cityName": "Pugachevo",
      "lat": 56.5975,
      "lng": 53.0691667
    },
    {
      "cityName": "Pumsi",
      "lat": 57.1833333,
      "lng": 51.7833333
    },
    {
      "cityName": "Punem",
      "lat": 56.6922222,
      "lng": 52.3769444
    },
    {
      "cityName": "Puro-Mozhga",
      "lat": 56.5497222,
      "lng": 53.405
    },
    {
      "cityName": "Pusenyata",
      "lat": 58.2166667,
      "lng": 53.25
    },
    {
      "cityName": "Pushkari",
      "lat": 57.2,
      "lng": 53.2166667
    },
    {
      "cityName": "Pusoshur",
      "lat": 57.9488889,
      "lng": 52.7230556
    },
    {
      "cityName": "Puzhma",
      "lat": 56.7938889,
      "lng": 52.0766667
    },
    {
      "cityName": "Puzhmes-Tuklya",
      "lat": 57.1169444,
      "lng": 52.4522222
    },
    {
      "cityName": "Puzhmez",
      "lat": 57.9261111,
      "lng": 53.5416667
    },
    {
      "cityName": "Pyatiletka",
      "lat": 56.85,
      "lng": 53.3
    },
    {
      "cityName": "Pybya",
      "lat": 58,
      "lng": 52.9333333
    },
    {
      "cityName": "Pychas",
      "lat": 56.5044444,
      "lng": 52.4433333
    },
    {
      "cityName": "Pychas-Russkiy",
      "lat": 56.6519444,
      "lng": 52.5205556
    },
    {
      "cityName": "Pyshket",
      "lat": 57.8994444,
      "lng": 51.9552778
    },
    {
      "cityName": "Pyshketskaya",
      "lat": 58.2333333,
      "lng": 52.3666667
    },
    {
      "cityName": "Pyshkets",
      "lat": 57.8833333,
      "lng": 53.2166667
    },
    {
      "cityName": "Pyttsam",
      "lat": 56.5322222,
      "lng": 52.7591667
    },
    {
      "cityName": "Pyzhya",
      "lat": 57.4166667,
      "lng": 51.6333333
    },
    {
      "cityName": "Ramentsy",
      "lat": 57.7058333,
      "lng": 51.9030556
    },
    {
      "cityName": "Razval",
      "lat": 58.23,
      "lng": 53.4038889
    },
    {
      "cityName": "Reshetniki",
      "lat": 57.4497222,
      "lng": 53.3202778
    },
    {
      "cityName": "Rodionovskaya Pervaya",
      "lat": 58.3166667,
      "lng": 53.5666667
    },
    {
      "cityName": "Romanovo",
      "lat": 57.0333333,
      "lng": 53.7166667
    },
    {
      "cityName": "Rossokha",
      "lat": 58.3666667,
      "lng": 53.15
    },
    {
      "cityName": "Rozhki",
      "lat": 57.2958333,
      "lng": 52.36
    },
    {
      "cityName": "Russkaya Kosa",
      "lat": 56.545,
      "lng": 51.51
    },
    {
      "cityName": "Russkaya Novotuklya",
      "lat": 57,
      "lng": 52.1666667
    },
    {
      "cityName": "Russkaya Yus",
      "lat": 57.0166667,
      "lng": 51.8
    },
    {
      "cityName": "Russkiy Karaul",
      "lat": 57.8,
      "lng": 52.5666667
    },
    {
      "cityName": "Russkiy Kuyuk",
      "lat": 56.0833333,
      "lng": 51.8
    },
    {
      "cityName": "Russkiy Syartchigurt",
      "lat": 56.8675,
      "lng": 52.5502778
    },
    {
      "cityName": "Russkiy Tylovay",
      "lat": 56.0541667,
      "lng": 52.14
    },
    {
      "cityName": "Russkiy Vozhoy",
      "lat": 56.9625,
      "lng": 53.3783333
    },
    {
      "cityName": "Ryabchik",
      "lat": 56.3666667,
      "lng": 52.7666667
    },
    {
      "cityName": "Ryabovo",
      "lat": 56.9177778,
      "lng": 52.0783333
    },
    {
      "cityName": "Rysay",
      "lat": 57.3838889,
      "lng": 51.6794444
    },
    {
      "cityName": "Sabanchino",
      "lat": 56.3294444,
      "lng": 53.3333333
    },
    {
      "cityName": "Sada",
      "lat": 58.2766667,
      "lng": 51.8247222
    },
    {
      "cityName": "Sada Udmurtskaya",
      "lat": 58.2333333,
      "lng": 51.8
    },
    {
      "cityName": "Salya",
      "lat": 57.6,
      "lng": 52.9333333
    },
    {
      "cityName": "Samoylovo",
      "lat": 57.4166667,
      "lng": 54.2
    },
    {
      "cityName": "Sannikovo",
      "lat": 56.2330556,
      "lng": 52.1858333
    },
    {
      "cityName": "Saramak Udmurtskiy",
      "lat": 56.0275,
      "lng": 51.5655556
    },
    {
      "cityName": "Sarapkino",
      "lat": 56.25,
      "lng": 53.9333333
    },
    {
      "cityName": "Sarapul",
      "lat": 56.4666667,
      "lng": 53.8038889
    },
    {
      "cityName": "Sardan",
      "lat": 56.4166667,
      "lng": 52.1
    },
    {
      "cityName": "Sarkuz",
      "lat": 56.3833333,
      "lng": 51.6833333
    },
    {
      "cityName": "Savanintsy",
      "lat": 57.4813889,
      "lng": 51.6408333
    },
    {
      "cityName": "Sazhino",
      "lat": 56.3166667,
      "lng": 53.5
    },
    {
      "cityName": "Sektyr",
      "lat": 57.4666667,
      "lng": 52.7833333
    },
    {
      "cityName": "Seligurt",
      "lat": 57.5361111,
      "lng": 53.2352778
    },
    {
      "cityName": "Seltinskiy",
      "lat": 57.25,
      "lng": 52.3
    },
    {
      "cityName": "Selty",
      "lat": 57.3097222,
      "lng": 52.1358333
    },
    {
      "cityName": "Selyanur",
      "lat": 56.0477778,
      "lng": 51.7336111
    },
    {
      "cityName": "Selychka",
      "lat": 57.0691667,
      "lng": 53.1913889
    },
    {
      "cityName": "Semenovo",
      "lat": 56.0166667,
      "lng": 53.4833333
    },
    {
      "cityName": "Sepozh",
      "lat": 57.5016667,
      "lng": 53.46
    },
    {
      "cityName": "Sep",
      "lat": 57.5333333,
      "lng": 53.3166667
    },
    {
      "cityName": "Sepych",
      "lat": 56.7672222,
      "lng": 53.0055556
    },
    {
      "cityName": "Sergino",
      "lat": 58.4086111,
      "lng": 53.5352778
    },
    {
      "cityName": "Setpnevo",
      "lat": 57.5833333,
      "lng": 53.3166667
    },
    {
      "cityName": "Seva",
      "lat": 58.45,
      "lng": 52.9541667
    },
    {
      "cityName": "Severnaya",
      "lat": 56.2666667,
      "lng": 53.8666667
    },
    {
      "cityName": "Severnyy",
      "lat": 56.4633333,
      "lng": 53.7422222
    },
    {
      "cityName": "Sever",
      "lat": 58.3241667,
      "lng": 53.0086111
    },
    {
      "cityName": "Sevinsk",
      "lat": 58.4658333,
      "lng": 53.0002778
    },
    {
      "cityName": "Shabalyuk",
      "lat": 57.7,
      "lng": 53.5
    },
    {
      "cityName": "Shaberdino",
      "lat": 56.9175,
      "lng": 52.9966667
    },
    {
      "cityName": "Shadrasak-Kibya",
      "lat": 56.1780556,
      "lng": 52.8066667
    },
    {
      "cityName": "Shadrenki",
      "lat": 56.6,
      "lng": 53.6666667
    },
    {
      "cityName": "Shadrino",
      "lat": 56.2858333,
      "lng": 53.5863889
    },
    {
      "cityName": "Shadrin",
      "lat": 56.3666667,
      "lng": 53.4
    },
    {
      "cityName": "Shafeyeva",
      "lat": 57.8333333,
      "lng": 52.1333333
    },
    {
      "cityName": "Shakhrovo",
      "lat": 57.7166667,
      "lng": 52.35
    },
    {
      "cityName": "Shakhtarovo",
      "lat": 58.1833333,
      "lng": 53.05
    },
    {
      "cityName": "Shalabany",
      "lat": 57.2333333,
      "lng": 52.5333333
    },
    {
      "cityName": "Shamardan",
      "lat": 58.0141667,
      "lng": 52.1436111
    },
    {
      "cityName": "Shamshur",
      "lat": 56.5333333,
      "lng": 52.6833333
    },
    {
      "cityName": "Sharkan",
      "lat": 57.3002778,
      "lng": 53.8802778
    },
    {
      "cityName": "Sharpa",
      "lat": 58.3386111,
      "lng": 53.4366667
    },
    {
      "cityName": "Sharshada",
      "lat": 56.2427778,
      "lng": 52.4116667
    },
    {
      "cityName": "Shashur",
      "lat": 56.8666667,
      "lng": 52.7833333
    },
    {
      "cityName": "Shestoperovo",
      "lat": 58.1,
      "lng": 52
    },
    {
      "cityName": "Shevyryalovo",
      "lat": 56.46,
      "lng": 53.6666667
    },
    {
      "cityName": "Shilozvay",
      "lat": 56.8333333,
      "lng": 52.25
    },
    {
      "cityName": "Shishi",
      "lat": 57.7333333,
      "lng": 52.7833333
    },
    {
      "cityName": "Shmyki",
      "lat": 57.3527778,
      "lng": 51.3236111
    },
    {
      "cityName": "Sholya",
      "lat": 56.35,
      "lng": 54.05
    },
    {
      "cityName": "Shtanigurt",
      "lat": 57.7175,
      "lng": 53.3333333
    },
    {
      "cityName": "Shudeg",
      "lat": 57.4,
      "lng": 52.6833333
    },
    {
      "cityName": "Shudya",
      "lat": 56.7833333,
      "lng": 53.0766667
    },
    {
      "cityName": "Shukshur",
      "lat": 58.3,
      "lng": 53.3833333
    },
    {
      "cityName": "Shulegovo",
      "lat": 58.4058333,
      "lng": 52.0563889
    },
    {
      "cityName": "Shumshora",
      "lat": 56.1027778,
      "lng": 53.6586111
    },
    {
      "cityName": "Shuralud",
      "lat": 57.6022222,
      "lng": 53.7241667
    },
    {
      "cityName": "Shurdymka",
      "lat": 56.75,
      "lng": 53.3666667
    },
    {
      "cityName": "Shuril",
      "lat": 56.2469444,
      "lng": 52.2669444
    },
    {
      "cityName": "Shutemovskaya",
      "lat": 58.3333333,
      "lng": 53.8333333
    },
    {
      "cityName": "Shutemy",
      "lat": 56.75,
      "lng": 53.7
    },
    {
      "cityName": "Sibirka",
      "lat": 58.2166667,
      "lng": 51.85
    },
    {
      "cityName": "Siby Russkiye",
      "lat": 56.3,
      "lng": 52.2
    },
    {
      "cityName": "Sigayevo",
      "lat": 56.4202778,
      "lng": 53.7808333
    },
    {
      "cityName": "Silino",
      "lat": 57.05,
      "lng": 51.65
    },
    {
      "cityName": "Silshur",
      "lat": 57.4405556,
      "lng": 53.9355556
    },
    {
      "cityName": "Simonikha",
      "lat": 56.5166667,
      "lng": 53.8333333
    },
    {
      "cityName": "Sinyar-Bodya",
      "lat": 56.3297222,
      "lng": 51.4016667
    },
    {
      "cityName": "Sinyarka",
      "lat": 56.3036111,
      "lng": 51.4161111
    },
    {
      "cityName": "Sinyashur",
      "lat": 56.6425,
      "lng": 52.6827778
    },
    {
      "cityName": "Siyag",
      "lat": 56.8,
      "lng": 52.55
    },
    {
      "cityName": "Sizevo",
      "lat": 56.7213889,
      "lng": 53.3683333
    },
    {
      "cityName": "Sizovo",
      "lat": 58.2,
      "lng": 53.3
    },
    {
      "cityName": "Slepokurovo",
      "lat": 56.65,
      "lng": 53.6
    },
    {
      "cityName": "Sludka",
      "lat": 56.7680556,
      "lng": 51.8338889
    },
    {
      "cityName": "Smirnovskiy",
      "lat": 56.9666667,
      "lng": 53.4
    },
    {
      "cityName": "Smolniki",
      "lat": 57.6666667,
      "lng": 53.6
    },
    {
      "cityName": "Sobino",
      "lat": 57.25,
      "lng": 53.9
    },
    {
      "cityName": "Sochnevo",
      "lat": 56.3333333,
      "lng": 53.4166667
    },
    {
      "cityName": "Sokolovka",
      "lat": 56.2666667,
      "lng": 54.0166667
    },
    {
      "cityName": "Solodyanki",
      "lat": 57.2166667,
      "lng": 52.2333333
    },
    {
      "cityName": "Solomenniki",
      "lat": 57,
      "lng": 54.0333333
    },
    {
      "cityName": "Solshur",
      "lat": 57.9166667,
      "lng": 52.2
    },
    {
      "cityName": "Sorok Let Oktyabrya",
      "lat": 58.0855556,
      "lng": 52.8602778
    },
    {
      "cityName": "Sosmak",
      "lat": 56.2838889,
      "lng": 51.9208333
    },
    {
      "cityName": "Sosnovka",
      "lat": 56.1586111,
      "lng": 52.6258333
    },
    {
      "cityName": "Sosnovyy Bor",
      "lat": 57.8833333,
      "lng": 53.7666667
    },
    {
      "cityName": "Sovetsko-Nikolskoye",
      "lat": 56.7444444,
      "lng": 52.8891667
    },
    {
      "cityName": "Sovkhoznyy",
      "lat": 56.6877778,
      "lng": 53.1080556
    },
    {
      "cityName": "Sozontovo",
      "lat": 57.6833333,
      "lng": 52.7666667
    },
    {
      "cityName": "Sredne-Kichevo",
      "lat": 56.5261111,
      "lng": 53.2166667
    },
    {
      "cityName": "Sredniye Klyuchi",
      "lat": 56.55,
      "lng": 52.1666667
    },
    {
      "cityName": "Sredniye Pykhti",
      "lat": 57.75,
      "lng": 54.0333333
    },
    {
      "cityName": "Sredniye Yuri",
      "lat": 56.4122222,
      "lng": 52.6525
    },
    {
      "cityName": "Sredniy Postol",
      "lat": 56.7563889,
      "lng": 52.7802778
    },
    {
      "cityName": "Sredniy Syryan",
      "lat": 56.1833333,
      "lng": 52.05
    },
    {
      "cityName": "Sredniy Yum",
      "lat": 56.0316667,
      "lng": 52.3788889
    },
    {
      "cityName": "Srednyaya Tyzhma",
      "lat": 56.2936111,
      "lng": 51.6844444
    },
    {
      "cityName": "Stanovka",
      "lat": 56.45,
      "lng": 53.4333333
    },
    {
      "cityName": "Staraya Bodya",
      "lat": 56.3544444,
      "lng": 51.3475
    },
    {
      "cityName": "Staraya Chuncha",
      "lat": 56.9833333,
      "lng": 51.95
    },
    {
      "cityName": "Staraya Gyya",
      "lat": 58.1283333,
      "lng": 53.5472222
    },
    {
      "cityName": "Staraya Kazanka",
      "lat": 56.6083333,
      "lng": 51.4030556
    },
    {
      "cityName": "Staraya Monya",
      "lat": 56.44,
      "lng": 52.8888889
    },
    {
      "cityName": "Staraya Monya-Udmurtskaya",
      "lat": 57.1833333,
      "lng": 52.0833333
    },
    {
      "cityName": "Staraya Omga",
      "lat": 56.5758333,
      "lng": 51.2488889
    },
    {
      "cityName": "Staraya Oshmest",
      "lat": 56.3658333,
      "lng": 52.0888889
    },
    {
      "cityName": "Staraya Salya",
      "lat": 56.1766667,
      "lng": 53.1819444
    },
    {
      "cityName": "Staraya Shudya",
      "lat": 56.1916667,
      "lng": 52.545
    },
    {
      "cityName": "Staraya Vamya",
      "lat": 56.8333333,
      "lng": 52.45
    },
    {
      "cityName": "Starki",
      "lat": 56.8880556,
      "lng": 53.3394444
    },
    {
      "cityName": "Staroye Shadbegovo",
      "lat": 57.6,
      "lng": 53.2166667
    },
    {
      "cityName": "Starry Senteg",
      "lat": 56.9072222,
      "lng": 52.9347222
    },
    {
      "cityName": "Stary Madyk",
      "lat": 55.9833333,
      "lng": 53.3666667
    },
    {
      "cityName": "Staryy Argabash",
      "lat": 56.1658333,
      "lng": 51.6447222
    },
    {
      "cityName": "Staryy Berezek",
      "lat": 56.3325,
      "lng": 52.44
    },
    {
      "cityName": "Staryy Chultem",
      "lat": 56.7538889,
      "lng": 53.2433333
    },
    {
      "cityName": "Staryye Bygi",
      "lat": 57.2333333,
      "lng": 53.65
    },
    {
      "cityName": "Staryye Kaksi",
      "lat": 56.2666667,
      "lng": 52.2833333
    },
    {
      "cityName": "Staryye Keny",
      "lat": 56.7086111,
      "lng": 53.2952778
    },
    {
      "cityName": "Staryye Kiseli",
      "lat": 57.5333333,
      "lng": 52.5333333
    },
    {
      "cityName": "Staryye Kopki",
      "lat": 56.4563889,
      "lng": 51.6372222
    },
    {
      "cityName": "Staryye Siri",
      "lat": 57.7666667,
      "lng": 53.7833333
    },
    {
      "cityName": "Staryye Tukmachi",
      "lat": 56.7969444,
      "lng": 53.5080556
    },
    {
      "cityName": "Staryye Yatchi",
      "lat": 56,
      "lng": 51.6616667
    },
    {
      "cityName": "Staryye Yuberi",
      "lat": 56.2897222,
      "lng": 52.3055556
    },
    {
      "cityName": "Staryye Zyattsy",
      "lat": 57.3469444,
      "lng": 52.6516667
    },
    {
      "cityName": "Staryy Igerman",
      "lat": 56.9447222,
      "lng": 53.1563889
    },
    {
      "cityName": "Staryy Kachkashur",
      "lat": 57.75,
      "lng": 52.5166667
    },
    {
      "cityName": "Staryy Karambay",
      "lat": 56.5541667,
      "lng": 52.495
    },
    {
      "cityName": "Staryy Karmyzh",
      "lat": 56.1763889,
      "lng": 51.8466667
    },
    {
      "cityName": "Staryy Kuzluk",
      "lat": 57.2975,
      "lng": 51.3561111
    },
    {
      "cityName": "Staryy Kych",
      "lat": 57.5380556,
      "lng": 53.72
    },
    {
      "cityName": "Staryy Postol",
      "lat": 56.6941667,
      "lng": 52.7977778
    },
    {
      "cityName": "Staryy Tryk",
      "lat": 56.35,
      "lng": 51.55
    },
    {
      "cityName": "Staryy Untem",
      "lat": 58.0797222,
      "lng": 53.7605556
    },
    {
      "cityName": "Staryy Utchan",
      "lat": 56.1633333,
      "lng": 52.3438889
    },
    {
      "cityName": "Staryy Yagolud",
      "lat": 56.7325,
      "lng": 52.1197222
    },
    {
      "cityName": "Staryy Yagul",
      "lat": 56.3666667,
      "lng": 51.6
    },
    {
      "cityName": "Stengurt",
      "lat": 57.85,
      "lng": 53.6666667
    },
    {
      "cityName": "Stepanenki",
      "lat": 58.2286111,
      "lng": 53.5602778
    },
    {
      "cityName": "Stepnoy",
      "lat": 56.3105556,
      "lng": 53.7441667
    },
    {
      "cityName": "Sukhanova",
      "lat": 56.1327778,
      "lng": 53.6175
    },
    {
      "cityName": "Sukharevo",
      "lat": 56.1166667,
      "lng": 54.0666667
    },
    {
      "cityName": "Sundoshur",
      "lat": 57.1319444,
      "lng": 52.7847222
    },
    {
      "cityName": "Sundo-Ucha",
      "lat": 56.6391667,
      "lng": 52.0388889
    },
    {
      "cityName": "Sundukovo",
      "lat": 56.5208333,
      "lng": 53.3147222
    },
    {
      "cityName": "Suntsovo",
      "lat": 56.4766667,
      "lng": 52.0819444
    },
    {
      "cityName": "Sura",
      "lat": 57.6030556,
      "lng": 53.4113889
    },
    {
      "cityName": "Surdovay",
      "lat": 58.1833333,
      "lng": 53.6
    },
    {
      "cityName": "Suronovo",
      "lat": 57.35,
      "lng": 53.4666667
    },
    {
      "cityName": "Surud",
      "lat": 58.05,
      "lng": 53.1166667
    },
    {
      "cityName": "Survay",
      "lat": 57.2013889,
      "lng": 52.9308333
    },
    {
      "cityName": "Sushinskoye",
      "lat": 57.0886111,
      "lng": 53.4475
    },
    {
      "cityName": "Sutyagino",
      "lat": 56.3002778,
      "lng": 53.2216667
    },
    {
      "cityName": "Svetloye",
      "lat": 57.0597222,
      "lng": 53.6325
    },
    {
      "cityName": "Syam-Kaksi",
      "lat": 56.2533333,
      "lng": 52.3536111
    },
    {
      "cityName": "Syam-Mozhga",
      "lat": 57.1019444,
      "lng": 51.975
    },
    {
      "cityName": "Syanino",
      "lat": 58.1333333,
      "lng": 52.4
    },
    {
      "cityName": "Sychadur",
      "lat": 57.8833333,
      "lng": 53.5333333
    },
    {
      "cityName": "Sychi",
      "lat": 57.6102778,
      "lng": 51.8780556
    },
    {
      "cityName": "Sygadur",
      "lat": 57.9166667,
      "lng": 53.5666667
    },
    {
      "cityName": "Syga",
      "lat": 57.8833333,
      "lng": 53.6166667
    },
    {
      "cityName": "Syga Vtoraya",
      "lat": 57.8688889,
      "lng": 53.5566667
    },
    {
      "cityName": "Sylyz",
      "lat": 57.5858333,
      "lng": 53.8305556
    },
    {
      "cityName": "Syropyatovo",
      "lat": 56.3666667,
      "lng": 53.75
    },
    {
      "cityName": "Syugail Udmurtskiy",
      "lat": 56.4138889,
      "lng": 52.1744444
    },
    {
      "cityName": "Syuga-Kaksi",
      "lat": 56.4497222,
      "lng": 52.0047222
    },
    {
      "cityName": "Syumsi",
      "lat": 57.1075,
      "lng": 51.6116667
    },