{
  "name": "Goa",
  "cities": [
    {
      "cityName": "Acaro",
      "lat": 15.533333,
      "lng": 73.933333
    },
    {
      "cityName": "Adsulim",
      "lat": 15.25,
      "lng": 73.916667
    },
    {
      "cityName": "Advolpale",
      "lat": 15.633333,
      "lng": 73.883333
    },
    {
      "cityName": "Advota",
      "lat": 15.016667,
      "lng": 74.016667
    },
    {
      "cityName": "Agacaim",
      "lat": 15.416667,
      "lng": 73.9
    },
    {
      "cityName": "Agarvado",
      "lat": 15.633333,
      "lng": 73.75
    },
    {
      "cityName": "Aglot",
      "lat": 15.416667,
      "lng": 74.15
    },
    {
      "cityName": "Agoada",
      "lat": 15.516667,
      "lng": 73.766667
    },
    {
      "cityName": "Agonda",
      "lat": 15.05,
      "lng": 73.983333
    },
    {
      "cityName": "Ajgaon",
      "lat": 15.766667,
      "lng": 73.7
    },
    {
      "cityName": "Aldona",
      "lat": 15.583333,
      "lng": 73.866667
    },
    {
      "cityName": "Alorna",
      "lat": 15.7,
      "lng": 73.9
    },
    {
      "cityName": "Ambarim",
      "lat": 15.55,
      "lng": 73.85
    },
    {
      "cityName": "Ambaulim",
      "lat": 15.2,
      "lng": 74.05
    },
    {
      "cityName": "Ambeachi-Gavol",
      "lat": 15.633333,
      "lng": 74.183333
    },
    {
      "cityName": "Ambedem",
      "lat": 15.55,
      "lng": 74.166667
    },
    {
      "cityName": "Ambelim",
      "lat": 15.166667,
      "lng": 73.966667
    },
    {
      "cityName": "Ambora",
      "lat": 15.316667,
      "lng": 73.983333
    },
    {
      "cityName": "Amona",
      "lat": 15.533333,
      "lng": 73.983333
    },
    {
      "cityName": "Anjuna",
      "lat": 15.583333,
      "lng": 73.733333
    },
    {
      "cityName": "Anjunem",
      "lat": 15.616667,
      "lng": 74.083333
    },
    {
      "cityName": "Arambol",
      "lat": 15.7,
      "lng": 73.7
    },
    {
      "cityName": "Aroe",
      "lat": 15.8,
      "lng": 73.8
    },
    {
      "cityName": "Arpora",
      "lat": 15.566667,
      "lng": 73.766667
    },
    {
      "cityName": "Assagao",
      "lat": 15.6,
      "lng": 73.75
    },
    {
      "cityName": "Assolda",
      "lat": 15.083333,
      "lng": 74.033333
    },
    {
      "cityName": "Assolna",
      "lat": 15.183333,
      "lng": 73.966667
    },
    {
      "cityName": "Assonora",
      "lat": 15.6,
      "lng": 73.883333
    },
    {
      "cityName": "Astagal",
      "lat": 14.95,
      "lng": 74.133333
    },
    {
      "cityName": "Azossim",
      "lat": 15.466667,
      "lng": 73.916667
    },
    {
      "cityName": "Bali",
      "lat": 15.166667,
      "lng": 74.033333
    },
    {
      "cityName": "Bambolim",
      "lat": 15.45,
      "lng": 73.85
    },
    {
      "cityName": "Banastarim",
      "lat": 15.483333,
      "lng": 73.95
    },
    {
      "cityName": "Bandavado",
      "lat": 15.083333,
      "lng": 74.233333
    },
    {
      "cityName": "Bandoli",
      "lat": 15.283333,
      "lng": 74.116667
    },
    {
      "cityName": "Bandora",
      "lat": 15.4,
      "lng": 73.966667
    },
    {
      "cityName": "Barcem",
      "lat": 15.066667,
      "lng": 74.05
    },
    {
      "cityName": "Bastora",
      "lat": 15.583333,
      "lng": 73.816667
    },
    {
      "cityName": "Batim",
      "lat": 15.45,
      "lng": 73.883333
    },
    {
      "cityName": "Betalbatim",
      "lat": 15.3,
      "lng": 73.916667
    },
    {
      "cityName": "Betgui",
      "lat": 15.5,
      "lng": 73.983333
    },
    {
      "cityName": "Betim",
      "lat": 15.5,
      "lng": 73.816667
    },
    {
      "cityName": "Betora",
      "lat": 15.366667,
      "lng": 74.05
    },
    {
      "cityName": "Betul",
      "lat": 15.133333,
      "lng": 73.95
    },
    {
      "cityName": "Bicholim",
      "lat": 15.6,
      "lng": 73.95
    },
    {
      "cityName": "Birondem",
      "lat": 15.483333,
      "lng": 74.15
    },
    {
      "cityName": "Bogmolo",
      "lat": 15.383333,
      "lng": 73.816667
    },
    {
      "cityName": "Boma",
      "lat": 15.3,
      "lng": 74.266667
    },
    {
      "cityName": "Borim",
      "lat": 15.366667,
      "lng": 74
    },
    {
      "cityName": "Buimpal",
      "lat": 15.533333,
      "lng": 74.066667
    },
    {
      "cityName": "Calangute",
      "lat": 15.533333,
      "lng": 73.75
    },
    {
      "cityName": "Camocllu",
      "lat": 15.633333,
      "lng": 73.8
    },
    {
      "cityName": "Camprol",
      "lat": 15.25,
      "lng": 74.133333
    },
    {
      "cityName": "Cana",
      "lat": 15.25,
      "lng": 73.933333
    },
    {
      "cityName": "Canaguinim",
      "lat": 15.116667,
      "lng": 73.933333
    },
    {
      "cityName": "Cancarvornem",
      "lat": 15.716667,
      "lng": 73.866667
    },
    {
      "cityName": "Candeapar",
      "lat": 15.433333,
      "lng": 74.033333
    },
    {
      "cityName": "Candolim",
      "lat": 15.516667,
      "lng": 73.75
    },
    {
      "cityName": "Canvorem",
      "lat": 15.133333,
      "lng": 74.066667
    },
    {
      "cityName": "Capao",
      "lat": 15.533333,
      "lng": 73.916667
    },
    {
      "cityName": "Carambolim",
      "lat": 15.466667,
      "lng": 73.9
    },
    {
      "cityName": "Caranzalem",
      "lat": 15.45,
      "lng": 73.8
    },
    {
      "cityName": "Caranzol",
      "lat": 15.333333,
      "lng": 74.266667
    },
    {
      "cityName": "Carapur",
      "lat": 15.55,
      "lng": 73.966667
    },
    {
      "cityName": "Carmona",
      "lat": 15.183333,
      "lng": 73.933333
    },
    {
      "cityName": "Cassabé-de-Pernem",
      "lat": 15.716667,
      "lng": 73.8
    },
    {
      "cityName": "Cassabé de Pondá",
      "lat": 15.4,
      "lng": 74.016667
    },
    {
      "cityName": "Caveloesim",
      "lat": 15.166667,
      "lng": 73.933333
    },
    {
      "cityName": "Chandel",
      "lat": 15.733333,
      "lng": 73.883333
    },
    {
      "cityName": "Chander",
      "lat": 15.283333,
      "lng": 74.033333
    },
    {
      "cityName": "Chapora",
      "lat": 15.6,
      "lng": 73.733333
    },
    {
      "cityName": "Chicalim",
      "lat": 15.4,
      "lng": 73.833333
    },
    {
      "cityName": "Chicolna",
      "lat": 15.366667,
      "lng": 73.833333
    },
    {
      "cityName": "Chinchinim",
      "lat": 15.2,
      "lng": 73.966667
    },
    {
      "cityName": "Chopdem",
      "lat": 15.633333,
      "lng": 73.733333
    },
    {
      "cityName": "Codal",
      "lat": 15.083333,
      "lng": 74.183333
    },
    {
      "cityName": "Codar",
      "lat": 15.4,
      "lng": 74.05
    },
    {
      "cityName": "Codqui",
      "lat": 15.516667,
      "lng": 74.133333
    },
    {
      "cityName": "Cola",
      "lat": 15.066667,
      "lng": 73.966667
    },
    {
      "cityName": "Colém",
      "lat": 15.35,
      "lng": 74.25
    },
    {
      "cityName": "Colomba",
      "lat": 15.15,
      "lng": 74.133333
    },
    {
      "cityName": "Colombi",
      "lat": 15.466667,
      "lng": 74.033333
    },
    {
      "cityName": "Colovale",
      "lat": 15.616667,
      "lng": 73.833333
    },
    {
      "cityName": "Colva",
      "lat": 15.266667,
      "lng": 73.916667
    },
    {
      "cityName": "Concem",
      "lat": 15.35,
      "lng": 74.066667
    },
    {
      "cityName": "Conquirem",
      "lat": 15.466667,
      "lng": 74.116667
    },
    {
      "cityName": "Consua",
      "lat": 15.366667,
      "lng": 73.916667
    },
    {
      "cityName": "Corchirém",
      "lat": 15.6,
      "lng": 74
    },
    {
      "cityName": "Corgao",
      "lat": 15.716667,
      "lng": 73.733333
    },
    {
      "cityName": "Cormonem",
      "lat": 15.316667,
      "lng": 74.166667
    },
    {
      "cityName": "Cortalim",
      "lat": 15.383333,
      "lng": 73.883333
    },
    {
      "cityName": "Costi",
      "lat": 15.25,
      "lng": 74.166667
    },
    {
      "cityName": "Cotigao",
      "lat": 15,
      "lng": 74.2
    },
    {
      "cityName": "Cotorem",
      "lat": 15.466667,
      "lng": 74.15
    },
    {
      "cityName": "Cudnem",
      "lat": 15.55,
      "lng": 74.016667
    },
    {
      "cityName": "Cuelim",
      "lat": 15.35,
      "lng": 73.9
    },
    {
      "cityName": "Cumbari",
      "lat": 15.166667,
      "lng": 74.266667
    },
    {
      "cityName": "Cunchelim",
      "lat": 15.6,
      "lng": 73.816667
    },
    {
      "cityName": "Cuncolim",
      "lat": 15.166667,
      "lng": 73.983333
    },
    {
      "cityName": "Cundaim",
      "lat": 15.45,
      "lng": 73.966667
    },
    {
      "cityName": "Cupa",
      "lat": 15.166667,
      "lng": 74.066667
    },
    {
      "cityName": "Curca",
      "lat": 15.433333,
      "lng": 73.866667
    },
    {
      "cityName": "Curchorem",
      "lat": 15.25,
      "lng": 74.1
    },
    {
      "cityName": "Curdi",
      "lat": 15.15,
      "lng": 74.183333
    },
    {
      "cityName": "Curpem",
      "lat": 15.133333,
      "lng": 74.166667
    },
    {
      "cityName": "Curti",
      "lat": 15.416667,
      "lng": 74.016667
    },
    {
      "cityName": "Dabal",
      "lat": 15.35,
      "lng": 74.1
    },
    {
      "cityName": "Dabem",
      "lat": 15.55,
      "lng": 74.116667
    },
    {
      "cityName": "Dabolim",
      "lat": 15.4,
      "lng": 73.866667
    },
    {
      "cityName": "Damal",
      "lat": 15.2,
      "lng": 74.2
    },
    {
      "cityName": "Darbandora",
      "lat": 15.383333,
      "lng": 74.116667
    },
    {
      "cityName": "Dargalim",
      "lat": 15.666667,
      "lng": 73.833333
    },
    {
      "cityName": "Dauconda",
      "lat": 15.35,
      "lng": 74.116667
    },
    {
      "cityName": "Davorlim",
      "lat": 15.25,
      "lng": 73.983333
    },
    {
      "cityName": "Derodem",
      "lat": 15.583333,
      "lng": 74.2
    },
    {
      "cityName": "Dramapur",
      "lat": 15.216667,
      "lng": 73.966667
    },
    {
      "cityName": "Dumacem",
      "lat": 15.666667,
      "lng": 73.9
    },
    {
      "cityName": "Durbate",
      "lat": 15.383333,
      "lng": 73.966667
    },
    {
      "cityName": "Dxel",
      "lat": 15.616667,
      "lng": 73.766667
    },
    {
      "cityName": "Fatorpa",
      "lat": 15.116667,
      "lng": 74
    },
    {
      "cityName": "Gandaulim",
      "lat": 15.5,
      "lng": 73.916667
    },
    {
      "cityName": "Gaundongrem",
      "lat": 15.033333,
      "lng": 74.116667
    },
    {
      "cityName": "Goa",
      "lat": 15.4,
      "lng": 73.8
    },
    {
      "cityName": "Goltim",
      "lat": 15.533333,
      "lng": 73.9
    },
    {
      "cityName": "Govanem",
      "lat": 15.45,
      "lng": 74.15
    },
    {
      "cityName": "Guirdolim",
      "lat": 15.283333,
      "lng": 74.05
    },
    {
      "cityName": "Guirim",
      "lat": 15.583333,
      "lng": 73.8
    },
    {
      "cityName": "Gululem",
      "lat": 15.583333,
      "lng": 74.1
    },
    {
      "cityName": "Itanagar",
      "lat": 27.1,
      "lng": 93.616667
    },
    {
      "cityName": "Jambavali",
      "lat": 15.183333,
      "lng": 74.1
    },
    {
      "cityName": "Latambarcem",
      "lat": 15.633333,
      "lng": 73.916667
    },
    {
      "cityName": "Ledo",
      "lat": 27.3,
      "lng": 95.733333
    },
    {
      "cityName": "Loliem",
      "lat": 14.933333,
      "lng": 74.066667
    },
    {
      "cityName": "Loutolim",
      "lat": 15.333333,
      "lng": 73.983333
    },
    {
      "cityName": "Madgaon",
      "lat": 15.3,
      "lng": 73.95
    },
    {
      "cityName": "Madkai",
      "lat": 15.416667,
      "lng": 73.95
    },
    {
      "cityName": "Maem",
      "lat": 15.633333,
      "lng": 73.9
    },
    {
      "cityName": "Magdal",
      "lat": 14.966667,
      "lng": 74.05
    },
    {
      "cityName": "Mahem",
      "lat": 15.583333,
      "lng": 73.916667
    },
    {
      "cityName": "Maida",
      "lat": 15.15,
      "lng": 74.2
    },
    {
      "cityName": "Maina",
      "lat": 15.116667,
      "lng": 74.083333
    },
    {
      "cityName": "Malar",
      "lat": 15.516667,
      "lng": 73.916667
    },
    {
      "cityName": "Malbona",
      "lat": 15.45,
      "lng": 74.166667
    },
    {
      "cityName": "Malconda",
      "lat": 15.433333,
      "lng": 74.233333
    },
    {
      "cityName": "Malcopona",
      "lat": 15.166667,
      "lng": 74.133333
    },
    {
      "cityName": "Mandrem",
      "lat": 15.65,
      "lng": 73.7
    },
    {
      "cityName": "Mandur",
      "lat": 15.45,
      "lng": 73.916667
    },
    {
      "cityName": "Mardol",
      "lat": 15.433333,
      "lng": 73.95
    },
    {
      "cityName": "Marna",
      "lat": 15.6,
      "lng": 73.766667
    },
    {
      "cityName": "Maulinguem",
      "lat": 15.6,
      "lng": 73.933333
    },
    {
      "cityName": "Maus",
      "lat": 15.533333,
      "lng": 74.1
    },
    {
      "cityName": "Melcornem",
      "lat": 15.183333,
      "lng": 74.15
    },
    {
      "cityName": "Mencurem",
      "lat": 15.7,
      "lng": 73.883333
    },
    {
      "cityName": "Merces",
      "lat": 15.483333,
      "lng": 73.85
    },
    {
      "cityName": "Moira",
      "lat": 15.6,
      "lng": 73.833333
    },
    {
      "cityName": "Molem",
      "lat": 15.366667,
      "lng": 74.216667
    },
    {
      "cityName": "Mopa",
      "lat": 15.75,
      "lng": 73.85
    },
    {
      "cityName": "Morgim",
      "lat": 15.6,
      "lng": 73.716667
    },
    {
      "cityName": "Moriem",
      "lat": 15.583333,
      "lng": 74.05
    },
    {
      "cityName": "Morpirla",
      "lat": 15.1,
      "lng": 74
    },
    {
      "cityName": "Muguli",
      "lat": 15.233333,
      "lng": 74.166667
    },
    {
      "cityName": "Mulem",
      "lat": 15.233333,
      "lng": 74.016667
    },
    {
      "cityName": "Mulgao",
      "lat": 15.6,
      "lng": 73.9
    },
    {
      "cityName": "Nachinola",
      "lat": 15.583333,
      "lng": 73.85
    },
    {
      "cityName": "Nadora",
      "lat": 15.666667,
      "lng": 73.866667
    },
    {
      "cityName": "Nagargao",
      "lat": 15.566667,
      "lng": 74.15
    },
    {
      "cityName": "Nagorcém",
      "lat": 15.016667,
      "lng": 74.033333
    },
    {
      "cityName": "Naneli",
      "lat": 15.583333,
      "lng": 74.133333
    },
    {
      "cityName": "Nanodem",
      "lat": 15.566667,
      "lng": 74.2
    },
    {
      "cityName": "Naozor",
      "lat": 15.7,
      "lng": 73.833333
    },
    {
      "cityName": "Nerul",
      "lat": 15.5,
      "lng": 73.783333
    },
    {
      "cityName": "Netorlim",
      "lat": 15.083333,
      "lng": 74.216667
    },
    {
      "cityName": "Neura",
      "lat": 15.433333,
      "lng": 73.9
    },
    {
      "cityName": "Nirancal",
      "lat": 15.366667,
      "lng": 74.083333
    },
    {
      "cityName": "Nova Goa",
      "lat": 15.483333,
      "lng": 73.833333
    },
    {
      "cityName": "Nundem",
      "lat": 15.066667,
      "lng": 74.2
    },
    {
      "cityName": "Nuvem",
      "lat": 15.316667,
      "lng": 73.916667
    },
    {
      "cityName": "Odxel",
      "lat": 15.45,
      "lng": 73.816667
    },
    {
      "cityName": "Orlim",
      "lat": 15.216667,
      "lng": 73.933333
    },
    {
      "cityName": "Oxel",
      "lat": 15.283333,
      "lng": 74.25
    },
    {
      "cityName": "Ozorim",
      "lat": 15.683333,
      "lng": 73.883333
    },
    {
      "cityName": "Pale",
      "lat": 15.466667,
      "lng": 74.083333
    },
    {
      "cityName": "Paliem",
      "lat": 15.716667,
      "lng": 73.7
    },
    {
      "cityName": "Paradá",
      "lat": 15.216667,
      "lng": 74.033333
    },
    {
      "cityName": "Parra",
      "lat": 15.566667,
      "lng": 73.783333
    },
    {
      "cityName": "Parxem",
      "lat": 15.666667,
      "lng": 73.766667
    },
    {
      "cityName": "Patnem",
      "lat": 15,
      "lng": 74.033333
    },
    {
      "cityName": "Peligão",
      "lat": 15.55,
      "lng": 73.933333
    },
    {
      "cityName": "Pilerne",
      "lat": 15.533333,
      "lng": 73.816667
    },
    {
      "cityName": "Piliem",
      "lat": 15.416667,
      "lng": 74.083333
    },
    {
      "cityName": "Pissurlem",
      "lat": 15.516667,
      "lng": 74.083333
    },
    {
      "cityName": "Poinguinim",
      "lat": 14.966667,
      "lng": 74.083333
    },
    {
      "cityName": "Polém",
      "lat": 14.916667,
      "lng": 74.083333
    },
    {
      "cityName": "Ponsuli",
      "lat": 15.616667,
      "lng": 74.1
    },
    {
      "cityName": "Poriem",
      "lat": 15.583333,
      "lng": 74.016667
    },
    {
      "cityName": "Poroscodem",
      "lat": 15.733333,
      "lng": 73.816667
    },
    {
      "cityName": "Potrem",
      "lat": 15.2,
      "lng": 74.25
    },
    {
      "cityName": "Priol",
      "lat": 15.416667,
      "lng": 73.983333
    },
    {
      "cityName": "Quelossim",
      "lat": 15.383333,
      "lng": 73.916667
    },
    {
      "cityName": "Quepem",
      "lat": 15.216667,
      "lng": 74.066667
    },
    {
      "cityName": "Querim",
      "lat": 15.45,
      "lng": 74
    },
    {
      "cityName": "Racaim",
      "lat": 15.35,
      "lng": 73.983333
    },
    {
      "cityName": "Rachol",
      "lat": 15.3,
      "lng": 74
    },
    {
      "cityName": "Raia",
      "lat": 15.3,
      "lng": 73.966667
    },
    {
      "cityName": "Ribandar",
      "lat": 15.5,
      "lng": 73.85
    },
    {
      "cityName": "Rivona",
      "lat": 15.166667,
      "lng": 74.116667
    },
    {
      "cityName": "Salauli",
      "lat": 15.2,
      "lng": 74.166667
    },
    {
      "cityName": "Salem",
      "lat": 15.7,
      "lng": 73.916667
    },
    {
      "cityName": "Saligao",
      "lat": 15.55,
      "lng": 73.766667
    },
    {
      "cityName": "Sancoale",
      "lat": 15.366667,
      "lng": 73.9
    },
    {
      "cityName": "Sancordám",
      "lat": 15.4,
      "lng": 74.183333
    },
    {
      "cityName": "Sangod",
      "lat": 15.383333,
      "lng": 74.166667
    },
    {
      "cityName": "Sanquelim",
      "lat": 15.583333,
      "lng": 74
    },
    {
      "cityName": "Santa Cruz",
      "lat": 15.466667,
      "lng": 73.833333
    },
    {
      "cityName": "Sanvordem",
      "lat": 15.266667,
      "lng": 74.116667
    },
    {
      "cityName": "Sarvona",
      "lat": 15.583333,
      "lng": 73.95
    },
    {
      "cityName": "Sarzora",
      "lat": 15.2,
      "lng": 73.983333
    },
    {
      "cityName": "Serula",
      "lat": 15.533333,
      "lng": 73.833333
    },
    {
      "cityName": "Sigao",
      "lat": 15.333333,
      "lng": 74.183333
    },
    {
      "cityName": "Sigonem",
      "lat": 15.116667,
      "lng": 74.25
    },
    {
      "cityName": "Sirangulim",
      "lat": 15.5,
      "lng": 74.166667
    },
    {
      "cityName": "Siroda",
      "lat": 15.3,
      "lng": 74.016667
    },
    {
      "cityName": "Sirvoi",
      "lat": 15.2,
      "lng": 74.083333
    },
    {
      "cityName": "Sonaulim",
      "lat": 15.316667,
      "lng": 74.3
    },
    {
      "cityName": "Sulcorna",
      "lat": 15.1,
      "lng": 74.166667
    },
    {
      "cityName": "Surla",
      "lat": 15.416667,
      "lng": 74.2
    },
    {
      "cityName": "Talaulim",
      "lat": 15.233333,
      "lng": 73.933333
    },
    {
      "cityName": "Taleigao",
      "lat": 15.466667,
      "lng": 73.8
    },
    {
      "cityName": "Talvorda",
      "lat": 15.2,
      "lng": 74.033333
    },
    {
      "cityName": "Tamborcem",
      "lat": 15.75,
      "lng": 73.833333
    },
    {
      "cityName": "Tanem",
      "lat": 15.6,
      "lng": 74.133333
    },
    {
      "cityName": "Tilamola",
      "lat": 15.216667,
      "lng": 74.083333
    },
    {
      "cityName": "Toldem",
      "lat": 15.45,
      "lng": 74.2
    },
    {
      "cityName": "Torxem",
      "lat": 15.783333,
      "lng": 73.85
    },
    {
      "cityName": "Tudou",
      "lat": 15.216667,
      "lng": 74.216667
    },
    {
      "cityName": "Tuem",
      "lat": 15.666667,
      "lng": 73.783333
    },
    {
      "cityName": "Uguem",
      "lat": 15.216667,
      "lng": 74.166667
    },
    {
      "cityName": "Usgao",
      "lat": 15.433333,
      "lng": 74.066667
    },
    {
      "cityName": "Ustem",
      "lat": 15.55,
      "lng": 74.183333
    },
    {
      "cityName": "Utorda",
      "lat": 15.316667,
      "lng": 73.9
    },
    {
      "cityName": "Vainguinim",
      "lat": 15.566667,
      "lng": 73.883333
    },
    {
      "cityName": "Valpoi Town",
      "lat": 15.533333,
      "lng": 74.133333
    },
    {
      "cityName": "Vantem",
      "lat": 15.466667,
      "lng": 74.1
    },
    {
      "cityName": "Varca",
      "lat": 15.216667,
      "lng": 73.916667
    },
    {
      "cityName": "Velcao",
      "lat": 15.35,
      "lng": 73.883333
    },
    {
      "cityName": "Velguem",
      "lat": 15.483333,
      "lng": 74.066667
    },
    {
      "cityName": "Velim",
      "lat": 15.15,
      "lng": 73.966667
    },
    {
      "cityName": "Velinga",
      "lat": 15.416667,
      "lng": 73.966667
    },
    {
      "cityName": "Veluz",
      "lat": 15.55,
      "lng": 74.15
    },
    {
      "cityName": "Verem",
      "lat": 15.466667,
      "lng": 74.016667
    },
    {
      "cityName": "Verla",
      "lat": 15.583333,
      "lng": 73.783333
    },
    {
      "cityName": "Verlem",
      "lat": 15.05,
      "lng": 74.25
    },
    {
      "cityName": "Verna",
      "lat": 15.35,
      "lng": 73.916667
    },
    {
      "cityName": "Vichondrem",
      "lat": 15.1,
      "lng": 74.2
    },
    {
      "cityName": "Viliena",
      "lat": 15.166667,
      "lng": 74.233333
    },
    {
      "cityName": "Xeldem",
      "lat": 15.25,
      "lng": 74.083333
    },
    {
      "cityName": "Xelvona",
      "lat": 15.266667,
      "lng": 74.083333
    },
    {
      "cityName": "Zadani",
      "lat": 15.55,
      "lng": 74.216667
    }
  ]
}