{
  "name": "Orasac",
  "cities": [
    {
      "cityName": "Agino Selo",
      "lat": 42.0463889,
      "lng": 21.6811111
    },
    {
      "cityName": "Dlga",
      "lat": 42.0069444,
      "lng": 21.7833333
    },
    {
      "cityName": "Dobrosane",
      "lat": 42.1002778,
      "lng": 21.7572222
    },
    {
      "cityName": "Gabres",
      "lat": 42.0086111,
      "lng": 21.8569444
    },
    {
      "cityName": "Gradiste",
      "lat": 42.0230556,
      "lng": 21.8877778
    },
    {
      "cityName": "Katlanovska Susica",
      "lat": 41.9577778,
      "lng": 21.7802778
    },
    {
      "cityName": "Kolicko",
      "lat": 42.0172222,
      "lng": 21.8158333
    },
    {
      "cityName": "Kuckarevo",
      "lat": 42.0344444,
      "lng": 21.8605556
    },
    {
      "cityName": "Novi Ciflik",
      "lat": 42,
      "lng": 21.7205556
    },
    {
      "cityName": "Novoseljane",
      "lat": 42.0647222,
      "lng": 21.8538889
    },
    {
      "cityName": "Orasac",
      "lat": 42.0625,
      "lng": 21.7997222
    },
    {
      "cityName": "Pavlesenci",
      "lat": 41.9983333,
      "lng": 21.9038889
    },
    {
      "cityName": "Pcinja",
      "lat": 42.0397222,
      "lng": 21.7561111
    },
    {
      "cityName": "Skackovce",
      "lat": 42.0480556,
      "lng": 21.8252778
    },
    {
      "cityName": "Studena Bara",
      "lat": 42.0213889,
      "lng": 21.7258333
    },
    {
      "cityName": "Vakav",
      "lat": 42.0227778,
      "lng": 21.7469444
    },
    {
      "cityName": "Vince",
      "lat": 41.9944444,
      "lng": 21.7591667
    },
    {
      "cityName": "Zivenje",
      "lat": 41.9791667,
      "lng": 21.8088889
    }
  ]
}