{
  "name": "Sipkovica",
  "cities": [
    {
      "cityName": "Bezovec",
      "lat": 42.0533333,
      "lng": 20.8280556
    },
    {
      "cityName": "Brodec",
      "lat": 42.0580556,
      "lng": 20.8922222
    },
    {
      "cityName": "Lisac",
      "lat": 42.0033333,
      "lng": 20.9241667
    },
    {
      "cityName": "Mezefovica",
      "lat": 42.035,
      "lng": 20.9155556
    },
    {
      "cityName": "Selce",
      "lat": 42.0347222,
      "lng": 20.9397222
    },
    {
      "cityName": "Sipkoecko Teke",
      "lat": 42.0263889,
      "lng": 20.935
    },
    {
      "cityName": "Vejce",
      "lat": 42.0827778,
      "lng": 20.925
    },
    {
      "cityName": "Vesala",
      "lat": 42.0605556,
      "lng": 20.8469444
    }
  ]
}