{
  "name": "Vitoliste",
  "cities": [
    {
      "cityName": "Alsar",
      "lat": 41.155,
      "lng": 21.9433333
    },
    {
      "cityName": "Arnicko",
      "lat": 41.1913889,
      "lng": 21.915
    },
    {
      "cityName": "Beluce",
      "lat": 41.2358333,
      "lng": 21.7355556
    },
    {
      "cityName": "Besiste",
      "lat": 41.1397222,
      "lng": 21.7822222
    },
    {
      "cityName": "Culovci",
      "lat": 41.1616667,
      "lng": 21.9516667
    },
    {
      "cityName": "Dupkarevi Kolibi",
      "lat": 41.1747222,
      "lng": 21.9194444
    },
    {
      "cityName": "GuÄ‘akovo",
      "lat": 41.2836111,
      "lng": 21.7977778
    },
    {
      "cityName": "Klin",
      "lat": 41.2375,
      "lng": 21.9486111
    },
    {
      "cityName": "Kojcevi Kolibi",
      "lat": 41.1813889,
      "lng": 21.9297222
    },
    {
      "cityName": "Manastir",
      "lat": 41.1680556,
      "lng": 21.7283333
    },
    {
      "cityName": "Polciste",
      "lat": 41.1486111,
      "lng": 21.8227778
    },
    {
      "cityName": "Privos",
      "lat": 41.1669444,
      "lng": 21.9588889
    },
    {
      "cityName": "Rozden",
      "lat": 41.1869444,
      "lng": 21.9586111
    },
    {
      "cityName": "Rzanovo",
      "lat": 41.1766667,
      "lng": 21.9819444
    },
    {
      "cityName": "(( R'zanovo ))",
      "lat": 41.2288889,
      "lng": 21.9522222
    },
    {
      "cityName": "Veprcani",
      "lat": 41.27,
      "lng": 21.7505556
    },
    {
      "cityName": "Vitaliste",
      "lat": 41.1808333,
      "lng": 21.8266667
    },
    {
      "cityName": "Vrisko",
      "lat": 41.2394444,
      "lng": 21.8133333
    },
    {
      "cityName": "Zivovo",
      "lat": 41.2077778,
      "lng": 21.8163889
    }
  ]
}