{
  "name": "Istanbul",
  "cities": [
    {
      "cityName": "Adalar",
      "lat": 40.867778,
      "lng": 29.133056
    },
    {
      "cityName": "Agacli",
      "lat": 41.268889,
      "lng": 28.875556
    },
    {
      "cityName": "Agva",
      "lat": 41.138056,
      "lng": 29.856667
    },
    {
      "cityName": "Ahmediye",
      "lat": 41.090278,
      "lng": 28.5125
    },
    {
      "cityName": "Akalan",
      "lat": 41.257778,
      "lng": 28.421667
    },
    {
      "cityName": "Akbaba",
      "lat": 41.15,
      "lng": 29.1
    },
    {
      "cityName": "Ak Bunar",
      "lat": 41.279167,
      "lng": 28.810556
    },
    {
      "cityName": "Akçakese",
      "lat": 41.144444,
      "lng": 29.718611
    },
    {
      "cityName": "Akören",
      "lat": 41.196667,
      "lng": 28.336111
    },
    {
      "cityName": "Alacali",
      "lat": 41.124167,
      "lng": 29.478333
    },
    {
      "cityName": "Alaton",
      "lat": 41.375556,
      "lng": 28.206944
    },
    {
      "cityName": "Alemdag",
      "lat": 41.049167,
      "lng": 29.241389
    },
    {
      "cityName": "Alibahadir",
      "lat": 41.183333,
      "lng": 29.2
    },
    {
      "cityName": "Alibeyköy",
      "lat": 41.066667,
      "lng": 28.933333
    },
    {
      "cityName": "Alipasa",
      "lat": 41.111667,
      "lng": 28.222222
    },
    {
      "cityName": "Allajalee",
      "lat": 41.183333,
      "lng": 29.45
    },
    {
      "cityName": "Altinsehir",
      "lat": 41.046389,
      "lng": 28.753056
    },
    {
      "cityName": "Ambarli",
      "lat": 40.966667,
      "lng": 28.7
    },
    {
      "cityName": "Anadolu Fener",
      "lat": 41.216667,
      "lng": 29.2
    },
    {
      "cityName": "Anadoluhisari",
      "lat": 41.083333,
      "lng": 29.05
    },
    {
      "cityName": "Anadolukavagi",
      "lat": 41.166667,
      "lng": 29.083333
    },
    {
      "cityName": "Anarsa",
      "lat": 40.990278,
      "lng": 28.615278
    },
    {
      "cityName": "Antigone",
      "lat": 40.883333,
      "lng": 29.05
    },
    {
      "cityName": "Arnaut Kioi",
      "lat": 41.066667,
      "lng": 29.033333
    },
    {
      "cityName": "Arnavutköy",
      "lat": 41.035556,
      "lng": 28.517778
    },
    {
      "cityName": "Artane",
      "lat": 41.174722,
      "lng": 29.610833
    },
    {
      "cityName": "Asagi Kocadere",
      "lat": 40.63,
      "lng": 29.03
    },
    {
      "cityName": "Askos",
      "lat": 41.475833,
      "lng": 28.298333
    },
    {
      "cityName": "Atabey",
      "lat": 40.867778,
      "lng": 29.274167
    },
    {
      "cityName": "Avcikoru",
      "lat": 41.133333,
      "lng": 29.4
    },
    {
      "cityName": "Ayazaga",
      "lat": 41.114444,
      "lng": 28.996667
    },
    {
      "cityName": "Ayazmaköy",
      "lat": 41.199167,
      "lng": 28.714722
    },
    {
      "cityName": "Azatli",
      "lat": 41.083333,
      "lng": 28.75
    },
    {
      "cityName": "Bagcilar",
      "lat": 41.043611,
      "lng": 28.818333
    },
    {
      "cityName": "Bahçeköy",
      "lat": 41.179722,
      "lng": 28.991389
    },
    {
      "cityName": "Bahsayis",
      "lat": 41.1125,
      "lng": 28.5425
    },
    {
      "cityName": "Bakirkoy",
      "lat": 40.9875,
      "lng": 28.861667
    },
    {
      "cityName": "Baklali",
      "lat": 41.260278,
      "lng": 28.651111
    },
    {
      "cityName": "Balaban",
      "lat": 41.313611,
      "lng": 28.613056
    },
    {
      "cityName": "Ballica",
      "lat": 40.986389,
      "lng": 29.402778
    },
    {
      "cityName": "Basak",
      "lat": 41.330556,
      "lng": 28.447222
    },
    {
      "cityName": "Basibuyuk",
      "lat": 40.955833,
      "lng": 29.148056
    },
    {
      "cityName": "Bayazit",
      "lat": 41.016667,
      "lng": 28.966667
    },
    {
      "cityName": "Bayrampasa",
      "lat": 41.016667,
      "lng": 28.933333
    },
    {
      "cityName": "Beikos",
      "lat": 41.143889,
      "lng": 29.090556
    },
    {
      "cityName": "Bekirli",
      "lat": 41.226944,
      "lng": 28.303611
    },
    {
      "cityName": "Belgrat",
      "lat": 41.380556,
      "lng": 28.3875
    },
    {
      "cityName": "Beshik Tash",
      "lat": 41.05,
      "lng": 29.016667
    },
    {
      "cityName": "Beyciler",
      "lat": 41.233056,
      "lng": 28.1175
    },
    {
      "cityName": "Beylerbeyi",
      "lat": 41.05,
      "lng": 29.05
    },
    {
      "cityName": "Beyoglu",
      "lat": 41.036944,
      "lng": 28.9775
    },
    {
      "cityName": "Bigados",
      "lat": 41.055,
      "lng": 28.370833
    },
    {
      "cityName": "Binkilic",
      "lat": 41.413333,
      "lng": 28.189167
    },
    {
      "cityName": "Bogazkoy",
      "lat": 41.183056,
      "lng": 28.772222
    },
    {
      "cityName": "Bogluca",
      "lat": 41.200833,
      "lng": 28.764167
    },
    {
      "cityName": "Bojdar",
      "lat": 41.085556,
      "lng": 28.654722
    },
    {
      "cityName": "Bostanci",
      "lat": 40.95,
      "lng": 29.083333
    },
    {
      "cityName": "Boyacikoy",
      "lat": 41.1,
      "lng": 29.033333
    },
    {
      "cityName": "Boyalik",
      "lat": 41.164444,
      "lng": 28.613611
    },
    {
      "cityName": "Bozhane",
      "lat": 41.164444,
      "lng": 29.273889
    },
    {
      "cityName": "Bu Halkali",
      "lat": 41.036667,
      "lng": 28.789444
    },
    {
      "cityName": "Büyükbakkal",
      "lat": 40.983333,
      "lng": 29.183333
    },
    {
      "cityName": "Buyukcavuslu",
      "lat": 41.237222,
      "lng": 28.061944
    },
    {
      "cityName": "Büyükçekmece",
      "lat": 41.015278,
      "lng": 28.56
    },
    {
      "cityName": "Büyükdere",
      "lat": 41.15,
      "lng": 29.033333
    },
    {
      "cityName": "Buyukkilicli",
      "lat": 41.156944,
      "lng": 28.170556
    },
    {
      "cityName": "Byzantion",
      "lat": 41.018611,
      "lng": 28.964722
    },
    {
      "cityName": "Cakil",
      "lat": 41.125278,
      "lng": 28.452778
    },
    {
      "cityName": "Cakmakli",
      "lat": 41.056944,
      "lng": 28.62
    },
    {
      "cityName": "Çanakça",
      "lat": 41.246111,
      "lng": 28.496667
    },
    {
      "cityName": "Çanta",
      "lat": 41.117778,
      "lng": 28.0825
    },
    {
      "cityName": "Catakli",
      "lat": 41.075,
      "lng": 29.8
    },
    {
      "cityName": "Çatalca",
      "lat": 41.141111,
      "lng": 28.467222
    },
    {
      "cityName": "Cayagzi",
      "lat": 41.224444,
      "lng": 29.22
    },
    {
      "cityName": "Cayirdere",
      "lat": 41.281111,
      "lng": 28.147222
    },
    {
      "cityName": "Cebeci",
      "lat": 41.124167,
      "lng": 28.878611
    },
    {
      "cityName": "Cekmece",
      "lat": 40.983333,
      "lng": 28.766667
    },
    {
      "cityName": "Çekme",
      "lat": 41.036944,
      "lng": 29.178611
    },
    {
      "cityName": "Celâliye",
      "lat": 41.051667,
      "lng": 28.423611
    },
    {
      "cityName": "Celep",
      "lat": 41.369167,
      "lng": 28.5
    },
    {
      "cityName": "Çeltik",
      "lat": 41.109444,
      "lng": 28.117778
    },
    {
      "cityName": "Çengiler",
      "lat": 40.566667,
      "lng": 29.333333
    },
    {
      "cityName": "Chalcedon",
      "lat": 40.985556,
      "lng": 29.029444
    },
    {
      "cityName": "Chiftalan",
      "lat": 41.256389,
      "lng": 28.908889
    },
    {
      "cityName": "Chrysopolis",
      "lat": 41.025,
      "lng": 29.032778
    },
    {
      "cityName": "Çiftlikköy",
      "lat": 41.340833,
      "lng": 28.410556
    },
    {
      "cityName": "Çilingir",
      "lat": 41.188056,
      "lng": 28.676111
    },
    {
      "cityName": "Cilingos Ciftligi",
      "lat": 41.533333,
      "lng": 28.2
    },
    {
      "cityName": "Çöplüce",
      "lat": 41.000556,
      "lng": 28.511667
    },
    {
      "cityName": "Cücesekban",
      "lat": 41.164167,
      "lng": 28.189722
    },
    {
      "cityName": "Dagyenice",
      "lat": 41.274722,
      "lng": 28.485278
    },
    {
      "cityName": "Danamandira",
      "lat": 41.31,
      "lng": 28.245556
    },
    {
      "cityName": "Darlik",
      "lat": 41.075556,
      "lng": 29.594167
    },
    {
      "cityName": "Davud Pasa",
      "lat": 41,
      "lng": 28.933333
    },
    {
      "cityName": "Degirmencayiri",
      "lat": 40.9775,
      "lng": 29.661944
    },
    {
      "cityName": "Deliklikaya",
      "lat": 41.113611,
      "lng": 28.651944
    },
    {
      "cityName": "Deliyunus",
      "lat": 41.283333,
      "lng": 28.583333
    },
    {
      "cityName": "Demircili",
      "lat": 41.05,
      "lng": 29.65
    },
    {
      "cityName": "Dereseki",
      "lat": 41.153611,
      "lng": 29.130556
    },
    {
      "cityName": "Dil",
      "lat": 40.816667,
      "lng": 29.283333
    },
    {
      "cityName": "Dogancili",
      "lat": 41.2,
      "lng": 29.416667
    },
    {
      "cityName": "Dolayba",
      "lat": 40.889167,
      "lng": 29.248333
    },
    {
      "cityName": "Dolmabache",
      "lat": 41.033333,
      "lng": 28.983333
    },
    {
      "cityName": "Domali",
      "lat": 41.2,
      "lng": 29.4
    },
    {
      "cityName": "Dudullu",
      "lat": 41.018333,
      "lng": 29.165278
    },
    {
      "cityName": "Dursunköy",
      "lat": 41.207222,
      "lng": 28.634167
    },
    {
      "cityName": "Durusu",
      "lat": 41.305278,
      "lng": 28.676667
    },
    {
      "cityName": "Ederni Kapusi",
      "lat": 41.05,
      "lng": 28.9
    },
    {
      "cityName": "Eksinoz",
      "lat": 41.033333,
      "lng": 28.675278
    },
    {
      "cityName": "Elbasan",
      "lat": 41.139444,
      "lng": 28.418333
    },
    {
      "cityName": "Elmalik",
      "lat": 40.6,
      "lng": 29.3
    },
    {
      "cityName": "Eminönü",
      "lat": 41.006944,
      "lng": 28.926111
    },
    {
      "cityName": "Emirli",
      "lat": 40.983333,
      "lng": 29.35
    },
    {
      "cityName": "Erenköy",
      "lat": 40.966667,
      "lng": 29.116667
    },
    {
      "cityName": "Erenler",
      "lat": 41.116667,
      "lng": 29.566667
    },
    {
      "cityName": "Esadiye",
      "lat": 40.583333,
      "lng": 29.3
    },
    {
      "cityName": "Esenceli",
      "lat": 41.053333,
      "lng": 29.393056
    },
    {
      "cityName": "Esenköy",
      "lat": 40.616667,
      "lng": 28.966667
    },
    {
      "cityName": "Esenler",
      "lat": 41.05,
      "lng": 28.85
    },
    {
      "cityName": "Eskieregli Ereli",
      "lat": 41.047222,
      "lng": 28.042778
    },
    {
      "cityName": "Euzumdie",
      "lat": 41.166667,
      "lng": 29.25
    },
    {
      "cityName": "Evrenli",
      "lat": 41.1,
      "lng": 29.766667
    },
    {
      "cityName": "Eyub",
      "lat": 41.055,
      "lng": 28.908333
    },
    {
      "cityName": "Fatih",
      "lat": 41.0225,
      "lng": 28.940833
    },
    {
      "cityName": "Fener",
      "lat": 41.033333,
      "lng": 28.933333
    },
    {
      "cityName": "Fenerköy",
      "lat": 41.148889,
      "lng": 28.24
    },
    {
      "cityName": "Feteköy",
      "lat": 41.095,
      "lng": 28.341111
    },
    {
      "cityName": "Findikli",
      "lat": 41.033333,
      "lng": 29
    },
    {
      "cityName": "Firuzköy",
      "lat": 41.010556,
      "lng": 28.7075
    },
    {
      "cityName": "Gacik",
      "lat": 40.616667,
      "lng": 29.333333
    },
    {
      "cityName": "Gazitepe",
      "lat": 41.128611,
      "lng": 28.326111
    },
    {
      "cityName": "Gelevri",
      "lat": 41.131111,
      "lng": 28.131667
    },
    {
      "cityName": "Germe",
      "lat": 41.273889,
      "lng": 28.662222
    },
    {
      "cityName": "Göçe",
      "lat": 41.1,
      "lng": 29.85
    },
    {
      "cityName": "Gökçeali",
      "lat": 41.200833,
      "lng": 28.446667
    },
    {
      "cityName": "Gökçedere",
      "lat": 40.605,
      "lng": 29.173056
    },
    {
      "cityName": "Gokmasli",
      "lat": 41.1,
      "lng": 29.8
    },
    {
      "cityName": "Göksu",
      "lat": 41.078056,
      "lng": 29.775556
    },
    {
      "cityName": "Göktürk",
      "lat": 41.18,
      "lng": 28.888056
    },
    {
      "cityName": "Göllü",
      "lat": 41.183333,
      "lng": 29.266667
    },
    {
      "cityName": "Göztepe",
      "lat": 40.966667,
      "lng": 29.1
    },
    {
      "cityName": "Gumusdere",
      "lat": 41.238333,
      "lng": 28.983056
    },
    {
      "cityName": "Gumuskoy",
      "lat": 41.233333,
      "lng": 28.966667
    },
    {
      "cityName": "Gumuspinar",
      "lat": 41.314722,
      "lng": 28.288056
    },
    {
      "cityName": "Gumussu",
      "lat": 41.116667,
      "lng": 29.1
    },
    {
      "cityName": "Güngören",
      "lat": 41.035,
      "lng": 28.8575
    },
    {
      "cityName": "Guzelyali",
      "lat": 40.858056,
      "lng": 29.283333
    },
    {
      "cityName": "Habibler",
      "lat": 41.135556,
      "lng": 28.828611
    },
    {
      "cityName": "Haciilyasli",
      "lat": 41.156389,
      "lng": 28.710556
    },
    {
      "cityName": "Hacili",
      "lat": 41.05,
      "lng": 29.766667
    },
    {
      "cityName": "Haïdar-Pacha",
      "lat": 40.966667,
      "lng": 29.033333
    },
    {
      "cityName": "Halacci",
      "lat": 41.319167,
      "lng": 28.099167
    },
    {
      "cityName": "Halki",
      "lat": 40.883333,
      "lng": 29.083333
    },
    {
      "cityName": "Harbiye",
      "lat": 41.033333,
      "lng": 28.966667
    },
    {
      "cityName": "Hasanli",
      "lat": 41.016667,
      "lng": 29.65
    },
    {
      "cityName": "Hisarbeyli",
      "lat": 41.37,
      "lng": 28.476389
    },
    {
      "cityName": "Hüseyinli",
      "lat": 41.116667,
      "lng": 29.283333
    },
    {
      "cityName": "Husseinli",
      "lat": 41.0075,
      "lng": 29.213611
    },
    {
      "cityName": "Icmeler",
      "lat": 40.846389,
      "lng": 29.308889
    },
    {
      "cityName": "Ihsaniye",
      "lat": 41.242222,
      "lng": 28.808333
    },
    {
      "cityName": "Ikitelli",
      "lat": 41.079167,
      "lng": 28.7825
    },
    {
      "cityName": "Ilyas",
      "lat": 40.633333,
      "lng": 29.433333
    },
    {
      "cityName": "Imrahor",
      "lat": 41.218611,
      "lng": 28.743889
    },
    {
      "cityName": "Imranli",
      "lat": 41.15,
      "lng": 29.733333
    },
    {
      "cityName": "Imrendere",
      "lat": 41.116667,
      "lng": 29.6
    },
    {
      "cityName": "Incegiz",
      "lat": 41.1875,
      "lng": 28.4075
    },
    {
      "cityName": "Isa",
      "lat": 41.116667,
      "lng": 29.816667
    },
    {
      "cityName": "Istinye",
      "lat": 41.1,
      "lng": 29.05
    },
    {
      "cityName": "Izzettin",
      "lat": 41.180556,
      "lng": 28.5
    },
    {
      "cityName": "Kabakça",
      "lat": 41.228333,
      "lng": 28.3725
    },
    {
      "cityName": "Kabakli",
      "lat": 40.65,
      "lng": 29.4
    },
    {
      "cityName": "Kabakoz",
      "lat": 41.145,
      "lng": 29.69
    },
    {
      "cityName": "Kadikoy",
      "lat": 41.116667,
      "lng": 29.9
    },
    {
      "cityName": "Kagathane",
      "lat": 41.079444,
      "lng": 28.964722
    },
    {
      "cityName": "Kaleköy",
      "lat": 41.290278,
      "lng": 28.439722
    },
    {
      "cityName": "Kalikratya",
      "lat": 40.983333,
      "lng": 28.783333
    },
    {
      "cityName": "Kalyos",
      "lat": 41.037222,
      "lng": 28.643333
    },
    {
      "cityName": "Kâmiloba",
      "lat": 41.046667,
      "lng": 28.435556
    },
    {
      "cityName": "Kandilli",
      "lat": 41.066667,
      "lng": 29.05
    },
    {
      "cityName": "Kanlica",
      "lat": 41.1,
      "lng": 29.066667
    },
    {
      "cityName": "Kapanca",
      "lat": 40.683333,
      "lng": 29.35
    },
    {
      "cityName": "Kaplica",
      "lat": 40.616667,
      "lng": 29.183333
    },
    {
      "cityName": "Karaagac",
      "lat": 41.112778,
      "lng": 28.587222
    },
    {
      "cityName": "Karabeyli",
      "lat": 41.1,
      "lng": 29.733333
    },
    {
      "cityName": "Karaburun",
      "lat": 41.346389,
      "lng": 28.680556
    },
    {
      "cityName": "Karaca",
      "lat": 41.151944,
      "lng": 29.770556
    },
    {
      "cityName": "Karacaköy",
      "lat": 41.405833,
      "lng": 28.384722
    },
    {
      "cityName": "Karagümrük",
      "lat": 41.016667,
      "lng": 28.916667
    },
    {
      "cityName": "Karakiraz",
      "lat": 41.180833,
      "lng": 29.349167
    },
    {
      "cityName": "Karamandere",
      "lat": 41.133333,
      "lng": 29.6
    },
    {
      "cityName": "Kartal",
      "lat": 40.903333,
      "lng": 29.1725
    },
    {
      "cityName": "Kasbasi",
      "lat": 41.066667,
      "lng": 29.566667
    },
    {
      "cityName": "Kasimpasa",
      "lat": 41.033333,
      "lng": 28.95
    },
    {
      "cityName": "Kayabasi",
      "lat": 41.113333,
      "lng": 28.740278
    },
    {
      "cityName": "Kazimiye",
      "lat": 40.633333,
      "lng": 29.3
    },
    {
      "cityName": "Kemerburgaz",
      "lat": 41.159444,
      "lng": 28.912778
    },
    {
      "cityName": "Kervansaray",
      "lat": 41.083333,
      "lng": 29.466667
    },
    {
      "cityName": "Kestanelik",
      "lat": 41.237222,
      "lng": 28.497222
    },
    {
      "cityName": "Kilicli",
      "lat": 41.15,
      "lng": 29.283333
    },
    {
      "cityName": "Kilios",
      "lat": 41.246389,
      "lng": 29.037778
    },
    {
      "cityName": "Kinaliada",
      "lat": 40.916667,
      "lng": 29.05
    },
    {
      "cityName": "Kirazli",
      "lat": 40.616667,
      "lng": 29.283333
    },
    {
      "cityName": "Kisikli",
      "lat": 41.016667,
      "lng": 29.05
    },
    {
      "cityName": "Kisirkaya",
      "lat": 41.251944,
      "lng": 28.977222
    },
    {
      "cityName": "Kisirmandira",
      "lat": 41.228056,
      "lng": 28.825833
    },
    {
      "cityName": "Kizilcaali",
      "lat": 41.238889,
      "lng": 28.557222
    },
    {
      "cityName": "Kizilca",
      "lat": 41.166667,
      "lng": 29.533333
    },
    {
      "cityName": "Kiziltoprak",
      "lat": 40.990833,
      "lng": 29.046944
    },
    {
      "cityName": "Kocasinan",
      "lat": 41.023611,
      "lng": 28.810833
    },
    {
      "cityName": "Koçullu",
      "lat": 41.078056,
      "lng": 29.351389
    },
    {
      "cityName": "Komurcupinar",
      "lat": 41.25,
      "lng": 28.85
    },
    {
      "cityName": "Kömürlük",
      "lat": 41.080278,
      "lng": 29.4375
    },
    {
      "cityName": "Korna",
      "lat": 41.2,
      "lng": 29.35
    },
    {
      "cityName": "Küçükbakkal",
      "lat": 40.980556,
      "lng": 29.114444
    },
    {
      "cityName": "Kucukkilicli",
      "lat": 41.131111,
      "lng": 28.208333
    },
    {
      "cityName": "Küçükköy",
      "lat": 41.067778,
      "lng": 28.889167
    },
    {
      "cityName": "Küçükpazar",
      "lat": 41,
      "lng": 28.983333
    },
    {
      "cityName": "Küçük Sinekli",
      "lat": 41.209722,
      "lng": 28.215278
    },
    {
      "cityName": "Küçüksu",
      "lat": 41.083333,
      "lng": 29.083333
    },
    {
      "cityName": "Kucukyali",
      "lat": 40.95,
      "lng": 29.11
    },
    {
      "cityName": "Küllük",
      "lat": 40.6,
      "lng": 29.083333
    },
    {
      "cityName": "Kumburgaz",
      "lat": 41.031667,
      "lng": 28.460556
    },
    {
      "cityName": "Kumkapi",
      "lat": 41,
      "lng": 28.966667
    },
    {
      "cityName": "Kurfalli",
      "lat": 41.201667,
      "lng": 28.263056
    },
    {
      "cityName": "Kurnaköy",
      "lat": 40.953611,
      "lng": 29.337222
    },
    {
      "cityName": "Kurtdogmaz",
      "lat": 41.016667,
      "lng": 29.35
    },
    {
      "cityName": "Kurtköy",
      "lat": 40.916667,
      "lng": 29.3
    },
    {
      "cityName": "Kurucesme",
      "lat": 41.05,
      "lng": 29.033333
    },
    {
      "cityName": "Kusgunyuk",
      "lat": 41.033333,
      "lng": 29.033333
    },
    {
      "cityName": "Lâledere",
      "lat": 40.6,
      "lng": 29.35
    },
    {
      "cityName": "Mahmutbey",
      "lat": 41.053611,
      "lng": 28.825556
    },
    {
      "cityName": "Mahmutsevketpasa Koy",
      "lat": 41.154167,
      "lng": 29.189167
    },
    {
      "cityName": "Mahmutsevket Pasa",
      "lat": 41.078889,
      "lng": 29.333333
    },
    {
      "cityName": "Maltepe",
      "lat": 40.925,
      "lng": 29.151667
    },
    {
      "cityName": "Mansar",
      "lat": 41.116667,
      "lng": 29.733333
    },
    {
      "cityName": "Mashlak",
      "lat": 41.1,
      "lng": 29.016667
    },
    {
      "cityName": "Mimarsinan",
      "lat": 41.016944,
      "lng": 28.555556
    },
    {
      "cityName": "Moda",
      "lat": 40.980833,
      "lng": 29.025556
    },
    {
      "cityName": "Muratbey",
      "lat": 41.096389,
      "lng": 28.497222
    },
    {
      "cityName": "Nakkas",
      "lat": 41.190556,
      "lng": 28.553611
    },
    {
      "cityName": "Odayeri",
      "lat": 41.238333,
      "lng": 28.853056
    },
    {
      "cityName": "Oklali",
      "lat": 41.224722,
      "lng": 28.478333
    },
    {
      "cityName": "Örcünlü",
      "lat": 41.227778,
      "lng": 28.5225
    },
    {
      "cityName": "Örencik",
      "lat": 41.33,
      "lng": 28.485278
    },
    {
      "cityName": "Orhanli",
      "lat": 40.894722,
      "lng": 29.358056
    },
    {
      "cityName": "Ormanli",
      "lat": 41.395278,
      "lng": 28.456389
    },
    {
      "cityName": "Ortaburun",
      "lat": 40.616667,
      "lng": 29.15
    },
    {
      "cityName": "Ortaköy",
      "lat": 41.101944,
      "lng": 28.379444
    },
    {
      "cityName": "Orucoglu",
      "lat": 41.062778,
      "lng": 29.489167
    },
    {
      "cityName": "Osmanköy",
      "lat": 41.083333,
      "lng": 29.716667
    },
    {
      "cityName": "Ovayenice",
      "lat": 41.100556,
      "lng": 28.423889
    },
    {
      "cityName": "Övezli",
      "lat": 41.114444,
      "lng": 29.446389
    },
    {
      "cityName": "Pasakoy",
      "lat": 40.6,
      "lng": 29.183333
    },
    {
      "cityName": "Pendik",
      "lat": 40.8775,
      "lng": 29.251389
    },
    {
      "cityName": "Pinarca",
      "lat": 41.271944,
      "lng": 28.323056
    },
    {
      "cityName": "Pirinççiköy",
      "lat": 41.165,
      "lng": 28.849444
    },
    {
      "cityName": "Playa",
      "lat": 41.033056,
      "lng": 28.544167
    },
    {
      "cityName": "Polenez",
      "lat": 41.111667,
      "lng": 29.211667
    },
    {
      "cityName": "Poyraz",
      "lat": 41.207222,
      "lng": 29.135278
    },
    {
      "cityName": "Resadiye",
      "lat": 41.079722,
      "lng": 29.258056
    },
    {
      "cityName": "Rumelifeneri",
      "lat": 41.233333,
      "lng": 29.1
    },
    {
      "cityName": "Rumelihisari",
      "lat": 41.099444,
      "lng": 29.074167
    },
    {
      "cityName": "Rumelikavagi",
      "lat": 41.183333,
      "lng": 29.066667
    },
    {
      "cityName": "Safrakköyü",
      "lat": 41,
      "lng": 28.783333
    },
    {
      "cityName": "Salacak",
      "lat": 41.016667,
      "lng": 29.016667
    },
    {
      "cityName": "Samandira",
      "lat": 40.983889,
      "lng": 29.229722
    },
    {
      "cityName": "Samanli",
      "lat": 40.633333,
      "lng": 29.2
    },
    {
      "cityName": "Samlar",
      "lat": 41.126111,
      "lng": 28.7325
    },
    {
      "cityName": "San Stefano",
      "lat": 40.963611,
      "lng": 28.826667
    },
    {
      "cityName": "Saripinar",
      "lat": 41.103333,
      "lng": 29.325556
    },
    {
      "cityName": "Sari-yar",
      "lat": 41.166667,
      "lng": 29.05
    },
    {
      "cityName": "Satmazli",
      "lat": 41.133333,
      "lng": 29.55
    },
    {
      "cityName": "Sayalar",
      "lat": 41.315833,
      "lng": 28.1775
    },
    {
      "cityName": "Sazlibosna",
      "lat": 41.156944,
      "lng": 28.672222
    },
    {
      "cityName": "Selymbria",
      "lat": 41.076389,
      "lng": 28.258333
    },
    {
      "cityName": "Sertilli",
      "lat": 41.066667,
      "lng": 29.716667
    },
    {
      "cityName": "Seven Towers",
      "lat": 40.983333,
      "lng": 28.916667
    },
    {
      "cityName": "Seyhli",
      "lat": 40.916667,
      "lng": 29.283333
    },
    {
      "cityName": "Sinekli",
      "lat": 41.224722,
      "lng": 28.211667
    },
    {
      "cityName": "Sisli",
      "lat": 41.061667,
      "lng": 28.954444
    },
    {
      "cityName": "Sofular",
      "lat": 41.083333,
      "lng": 29.9
    },
    {
      "cityName": "Soganlikoy",
      "lat": 40.916667,
      "lng": 29.2
    },
    {
      "cityName": "Soguksu Ciftligi",
      "lat": 41,
      "lng": 28.766667
    },
    {
      "cityName": "Sogullu",
      "lat": 41.15,
      "lng": 29.783333
    },
    {
      "cityName": "Suadiye",
      "lat": 40.966667,
      "lng": 29.083333
    },
    {
      "cityName": "Suayipli",
      "lat": 41.15,
      "lng": 29.8
    },
    {
      "cityName": "Subasi",
      "lat": 41.226944,
      "lng": 28.46
    },
    {
      "cityName": "Sultançiflikköy",
      "lat": 41.0325,
      "lng": 29.226111
    },
    {
      "cityName": "Sultanciftligi Koyu",
      "lat": 41.106389,
      "lng": 28.859167
    },
    {
      "cityName": "Sungurlu",
      "lat": 41.079722,
      "lng": 29.867778
    },
    {
      "cityName": "Sütlüce",
      "lat": 41.05,
      "lng": 28.933333
    },
    {
      "cityName": "Tarabya",
      "lat": 41.133611,
      "lng": 29.046389
    },
    {
      "cityName": "Tarakatya",
      "lat": 40.983333,
      "lng": 28.65
    },
    {
      "cityName": "Tayakadin",
      "lat": 41.271667,
      "lng": 28.686944
    },
    {
      "cityName": "Teke",
      "lat": 41.068611,
      "lng": 29.664167
    },
    {
      "cityName": "Tesvikiye",
      "lat": 40.616667,
      "lng": 29.066667
    },
    {
      "cityName": "Topkapi",
      "lat": 41.033333,
      "lng": 28.9
    },
    {
      "cityName": "Tuzla",
      "lat": 40.816667,
      "lng": 29.300833
    },
    {
      "cityName": "Ulupelit",
      "lat": 41.0875,
      "lng": 29.5175
    },
    {
      "cityName": "Umraniye",
      "lat": 41.016667,
      "lng": 29.083333
    },
    {
      "cityName": "Umuryeri",
      "lat": 41.15,
      "lng": 29.083333
    },
    {
      "cityName": "Uskumruköy",
      "lat": 41.221944,
      "lng": 29.033333
    },
    {
      "cityName": "Uvezpinar",
      "lat": 40.6,
      "lng": 29.166667
    },
    {
      "cityName": "Vani Kioi",
      "lat": 41.066667,
      "lng": 29.066667
    },
    {
      "cityName": "Yahudiköy",
      "lat": 40.983333,
      "lng": 29.25
    },
    {
      "cityName": "Yakacik",
      "lat": 40.918056,
      "lng": 29.2275
    },
    {
      "cityName": "Yarimburgaz Ciftligi",
      "lat": 41.066667,
      "lng": 28.733333
    },
    {
      "cityName": "Yassioren",
      "lat": 41.236944,
      "lng": 28.593056
    },
    {
      "cityName": "Yayalar",
      "lat": 40.898889,
      "lng": 29.260278
    },
    {
      "cityName": "Yaylali",
      "lat": 41.1,
      "lng": 29.666667
    },
    {
      "cityName": "Yazlikkoy",
      "lat": 41.296389,
      "lng": 28.516389
    },
    {
      "cityName": "Yenibosna",
      "lat": 41.013056,
      "lng": 28.820556
    },
    {
      "cityName": "Yenikapi",
      "lat": 41,
      "lng": 28.95
    },
    {
      "cityName": "Yeni Kioi",
      "lat": 41.116667,
      "lng": 29.05
    },
    {
      "cityName": "Yeni Mahalleh",
      "lat": 41.166667,
      "lng": 29.066667
    },
    {
      "cityName": "Yesilbayir",
      "lat": 41.1325,
      "lng": 28.605833
    },
    {
      "cityName": "Yukariagacli",
      "lat": 41.259444,
      "lng": 28.856111
    },
    {
      "cityName": "Zekeriyaköy",
      "lat": 41.198056,
      "lng": 29.030278
    },
    {
      "cityName": "Zeytinburnu",
      "lat": 40.983333,
      "lng": 28.9
    },
    {
      "cityName": "Zuhtupasa",
      "lat": 40.983333,
      "lng": 29.05
    }
  ]
}