{
  "name": "Bingol",
  "cities": [
    {
      "cityName": "Abasan Merkezi",
      "lat": 38.783333,
      "lng": 40.9
    },
    {
      "cityName": "Abdalan",
      "lat": 38.633333,
      "lng": 40.2
    },
    {
      "cityName": "Abdos",
      "lat": 38.683333,
      "lng": 40.8
    },
    {
      "cityName": "Acikguney",
      "lat": 39.266667,
      "lng": 40.216667
    },
    {
      "cityName": "Adakli",
      "lat": 39.230833,
      "lng": 40.480833
    },
    {
      "cityName": "Agaceli",
      "lat": 38.983333,
      "lng": 40.7
    },
    {
      "cityName": "Agdat",
      "lat": 39.183333,
      "lng": 40.1
    },
    {
      "cityName": "Akbidak",
      "lat": 39.066667,
      "lng": 40.383333
    },
    {
      "cityName": "Akdurmus",
      "lat": 38.8425,
      "lng": 40.475833
    },
    {
      "cityName": "Akimli",
      "lat": 39.433333,
      "lng": 40.333333
    },
    {
      "cityName": "Aktoprak",
      "lat": 38.583333,
      "lng": 40.366667
    },
    {
      "cityName": "Alaaddin",
      "lat": 38.583056,
      "lng": 40.211111
    },
    {
      "cityName": "Alakilise",
      "lat": 39.25,
      "lng": 40.583333
    },
    {
      "cityName": "Alamiran",
      "lat": 38.616667,
      "lng": 40.75
    },
    {
      "cityName": "Alatepe",
      "lat": 39.0575,
      "lng": 40.757778
    },
    {
      "cityName": "Alibir",
      "lat": 38.95,
      "lng": 40.416667
    },
    {
      "cityName": "Alikarak",
      "lat": 39.033333,
      "lng": 40.683333
    },
    {
      "cityName": "Alincik",
      "lat": 38.876111,
      "lng": 40.436389
    },
    {
      "cityName": "Alipinarkoy",
      "lat": 39.266667,
      "lng": 41.05
    },
    {
      "cityName": "Almali",
      "lat": 39.033333,
      "lng": 40.766667
    },
    {
      "cityName": "Alpekmez",
      "lat": 39.3,
      "lng": 40.05
    },
    {
      "cityName": "Altinyazi",
      "lat": 39.266667,
      "lng": 40.15
    },
    {
      "cityName": "Alyan",
      "lat": 38.683333,
      "lng": 40.65
    },
    {
      "cityName": "Amariç",
      "lat": 39.483333,
      "lng": 40.433333
    },
    {
      "cityName": "Amasya",
      "lat": 39.064167,
      "lng": 41.175833
    },
    {
      "cityName": "Angig",
      "lat": 39.466667,
      "lng": 40.55
    },
    {
      "cityName": "Araba",
      "lat": 39.116389,
      "lng": 41.12
    },
    {
      "cityName": "Arakonak",
      "lat": 38.983333,
      "lng": 41.133333
    },
    {
      "cityName": "Ardicdibi",
      "lat": 38.764444,
      "lng": 40.621111
    },
    {
      "cityName": "Ardictepe",
      "lat": 38.816667,
      "lng": 40.5
    },
    {
      "cityName": "Ardusin",
      "lat": 38.813056,
      "lng": 41
    },
    {
      "cityName": "Arica",
      "lat": 39.25,
      "lng": 40.533333
    },
    {
      "cityName": "Aricilar",
      "lat": 39.057778,
      "lng": 40.311111
    },
    {
      "cityName": "Arik",
      "lat": 39.283333,
      "lng": 40.4
    },
    {
      "cityName": "Asagiakpinar",
      "lat": 38.883333,
      "lng": 40.5
    },
    {
      "cityName": "Asagi Baskoy",
      "lat": 39.1,
      "lng": 40.466667
    },
    {
      "cityName": "Asagikarmurun",
      "lat": 39.2,
      "lng": 40.366667
    },
    {
      "cityName": "Asagikoy",
      "lat": 38.856944,
      "lng": 40.376389
    },
    {
      "cityName": "Asagimendelli",
      "lat": 39.2,
      "lng": 40.616667
    },
    {
      "cityName": "Asagimoz",
      "lat": 39.416667,
      "lng": 40.6
    },
    {
      "cityName": "Asagi Saruk",
      "lat": 39.366667,
      "lng": 41.033333
    },
    {
      "cityName": "Asagiserinyer",
      "lat": 39.216667,
      "lng": 40.25
    },
    {
      "cityName": "Asagi Sivik",
      "lat": 39.183333,
      "lng": 40.75
    },
    {
      "cityName": "Asagi Zehri",
      "lat": 39.233333,
      "lng": 41.1
    },
    {
      "cityName": "Asmakaya",
      "lat": 38.783333,
      "lng": 41.1
    },
    {
      "cityName": "Atbinek",
      "lat": 39.25,
      "lng": 40.45
    },
    {
      "cityName": "Avlik",
      "lat": 39.45,
      "lng": 40.8
    },
    {
      "cityName": "Avnik",
      "lat": 38.65,
      "lng": 40.333333
    },
    {
      "cityName": "Ayanoglu",
      "lat": 39.483333,
      "lng": 40.416667
    },
    {
      "cityName": "Aydinlar",
      "lat": 39.183333,
      "lng": 40.05
    },
    {
      "cityName": "Aysakli",
      "lat": 39.316667,
      "lng": 40.45
    },
    {
      "cityName": "Ayvadüzü",
      "lat": 39.25,
      "lng": 40.6
    },
    {
      "cityName": "Azat",
      "lat": 38.983333,
      "lng": 40.983333
    },
    {
      "cityName": "Azizan",
      "lat": 39.133333,
      "lng": 40.833333
    },
    {
      "cityName": "Aznafer",
      "lat": 39.2,
      "lng": 40.583333
    },
    {
      "cityName": "Badlis",
      "lat": 38.884722,
      "lng": 40.493889
    },
    {
      "cityName": "Baglarpinari",
      "lat": 39.2475,
      "lng": 40.396389
    },
    {
      "cityName": "Bagliisa",
      "lat": 39.128889,
      "lng": 41.186111
    },
    {
      "cityName": "Bahçe",
      "lat": 39.216667,
      "lng": 40.916667
    },
    {
      "cityName": "Bahcebasi",
      "lat": 38.55,
      "lng": 40.333333
    },
    {
      "cityName": "Bahçeli",
      "lat": 38.743056,
      "lng": 40.3925
    },
    {
      "cityName": "Baklali",
      "lat": 39.233333,
      "lng": 40.316667
    },
    {
      "cityName": "Balikcay",
      "lat": 39.033333,
      "lng": 40.383333
    },
    {
      "cityName": "Balpinar",
      "lat": 38.826389,
      "lng": 40.386944
    },
    {
      "cityName": "Baskoy",
      "lat": 39.483333,
      "lng": 40.783333
    },
    {
      "cityName": "Batiayaz",
      "lat": 39.2,
      "lng": 40.116667
    },
    {
      "cityName": "Bayirli",
      "lat": 38.781389,
      "lng": 40.864722
    },
    {
      "cityName": "Bazan",
      "lat": 38.75,
      "lng": 40.7
    },
    {
      "cityName": "Baziyan",
      "lat": 38.633333,
      "lng": 40.25
    },
    {
      "cityName": "Bellüzer",
      "lat": 39.016667,
      "lng": 40.65
    },
    {
      "cityName": "Bilaloglu",
      "lat": 38.923056,
      "lng": 40.392778
    },
    {
      "cityName": "Bileci",
      "lat": 39.3,
      "lng": 40.152778
    },
    {
      "cityName": "Bilekkaya",
      "lat": 39.183333,
      "lng": 40.2
    },
    {
      "cityName": "Binekli",
      "lat": 38.760833,
      "lng": 40.868611
    },
    {
      "cityName": "Boglan",
      "lat": 38.968056,
      "lng": 41.055833
    },
    {
      "cityName": "Boncukgöze",
      "lat": 39.233333,
      "lng": 40.983333
    },
    {
      "cityName": "Boyan",
      "lat": 39.05,
      "lng": 40.483333
    },
    {
      "cityName": "Bozkanat",
      "lat": 38.865278,
      "lng": 40.883611
    },
    {
      "cityName": "Bulgurluk",
      "lat": 38.643333,
      "lng": 40.601389
    },
    {
      "cityName": "Bünyan",
      "lat": 38.95,
      "lng": 40.683333
    },
    {
      "cityName": "Buyukbaskoy",
      "lat": 39.1,
      "lng": 40.45
    },
    {
      "cityName": "Buyukcag",
      "lat": 38.6,
      "lng": 40.639722
    },
    {
      "cityName": "Büyükköy",
      "lat": 38.65,
      "lng": 40.4
    },
    {
      "cityName": "Büyüksözlü",
      "lat": 38.616667,
      "lng": 40.633333
    },
    {
      "cityName": "Büyük Tekören",
      "lat": 38.835278,
      "lng": 40.574167
    },
    {
      "cityName": "Çabir",
      "lat": 39.316667,
      "lng": 40.9
    },
    {
      "cityName": "Camlica",
      "lat": 39.133333,
      "lng": 40.6
    },
    {
      "cityName": "Camliyurt",
      "lat": 38.705278,
      "lng": 40.395833
    },
    {
      "cityName": "Çanak",
      "lat": 39.183333,
      "lng": 41.166667
    },
    {
      "cityName": "Canakci",
      "lat": 38.765556,
      "lng": 40.740278
    },
    {
      "cityName": "Çan",
      "lat": 38.966667,
      "lng": 40.6
    },
    {
      "cityName": "Canut",
      "lat": 38.766667,
      "lng": 40.883333
    },
    {
      "cityName": "Çatak",
      "lat": 39.166667,
      "lng": 41.15
    },
    {
      "cityName": "Çatalkaya",
      "lat": 39.3,
      "lng": 40.083333
    },
    {
      "cityName": "Çatma",
      "lat": 39.233333,
      "lng": 40.6
    },
    {
      "cityName": "Çatmaoluk",
      "lat": 39.266667,
      "lng": 40.583333
    },
    {
      "cityName": "Cavuslar",
      "lat": 38.933889,
      "lng": 40.756389
    },
    {
      "cityName": "Cayagzi",
      "lat": 38.790556,
      "lng": 40.546389
    },
    {
      "cityName": "Caybasi",
      "lat": 38.512778,
      "lng": 40.275833
    },
    {
      "cityName": "Çay",
      "lat": 39.133333,
      "lng": 40.066667
    },
    {
      "cityName": "Çaytepe",
      "lat": 38.8,
      "lng": 40.683333
    },
    {
      "cityName": "Ceban",
      "lat": 39.25,
      "lng": 40.916667
    },
    {
      "cityName": "Çeltiksuyu",
      "lat": 38.857222,
      "lng": 40.575
    },
    {
      "cityName": "Çerme",
      "lat": 39.383333,
      "lng": 40.95
    },
    {
      "cityName": "Çermeiendirid",
      "lat": 39.45,
      "lng": 40.55
    },
    {
      "cityName": "Çermük",
      "lat": 39,
      "lng": 40.833333
    },
    {
      "cityName": "Çevirme",
      "lat": 38.695,
      "lng": 40.645556
    },
    {
      "cityName": "Cevripinar",
      "lat": 38.933889,
      "lng": 40.3825
    },
    {
      "cityName": "Çiçekli",
      "lat": 39.5,
      "lng": 40.383333
    },
    {
      "cityName": "Çiçektepe",
      "lat": 39.3,
      "lng": 40.283333
    },
    {
      "cityName": "Çiçekyayla",
      "lat": 38.822222,
      "lng": 40.473056
    },
    {
      "cityName": "Çiftlik",
      "lat": 39.4,
      "lng": 41.05
    },
    {
      "cityName": "Ciligöl",
      "lat": 39.166667,
      "lng": 40.95
    },
    {
      "cityName": "Ciris",
      "lat": 38.883333,
      "lng": 40.383333
    },
    {
      "cityName": "Citak",
      "lat": 39.366667,
      "lng": 40.983333
    },
    {
      "cityName": "Cobancesmesi",
      "lat": 38.540833,
      "lng": 40.278889
    },
    {
      "cityName": "Çomah",
      "lat": 39.366667,
      "lng": 40.25
    },
    {
      "cityName": "Cönek",
      "lat": 39.216667,
      "lng": 40.1
    },
    {
      "cityName": "Çukurca",
      "lat": 38.951111,
      "lng": 40.507778
    },
    {
      "cityName": "Çukurtepe",
      "lat": 39.416667,
      "lng": 41.033333
    },
    {
      "cityName": "Curi",
      "lat": 38.666667,
      "lng": 40.716667
    },
    {
      "cityName": "Dalbasan",
      "lat": 39.166667,
      "lng": 39.966667
    },
    {
      "cityName": "Dâlek",
      "lat": 38.7,
      "lng": 40.583333
    },
    {
      "cityName": "Dallica",
      "lat": 39.25,
      "lng": 40.3
    },
    {
      "cityName": "Dallitepe",
      "lat": 39.033333,
      "lng": 40.6
    },
    {
      "cityName": "Danatepe",
      "lat": 39.216667,
      "lng": 40.466667
    },
    {
      "cityName": "Darabi",
      "lat": 39.133333,
      "lng": 40.666667
    },
    {
      "cityName": "Darahini",
      "lat": 38.766667,
      "lng": 40.583333
    },
    {
      "cityName": "Darbasan",
      "lat": 38.9,
      "lng": 40.6
    },
    {
      "cityName": "Darköprü",
      "lat": 39.2,
      "lng": 40.3
    },
    {
      "cityName": "Dedebagi",
      "lat": 38.6825,
      "lng": 40.325556
    },
    {
      "cityName": "Demirkapi",
      "lat": 38.749444,
      "lng": 40.897222
    },
    {
      "cityName": "Demirtas",
      "lat": 39.45,
      "lng": 40.766667
    },
    {
      "cityName": "Derecik",
      "lat": 39.162222,
      "lng": 40.855
    },
    {
      "cityName": "Dereigazan",
      "lat": 38.966667,
      "lng": 40.5
    },
    {
      "cityName": "Dereköy",
      "lat": 38.754167,
      "lng": 40.674444
    },
    {
      "cityName": "Deriköy",
      "lat": 38.533333,
      "lng": 40.266667
    },
    {
      "cityName": "Dik",
      "lat": 38.833333,
      "lng": 40.65
    },
    {
      "cityName": "Dikköy",
      "lat": 38.821389,
      "lng": 40.661111
    },
    {
      "cityName": "Dikme",
      "lat": 38.912222,
      "lng": 40.308889
    },
    {
      "cityName": "Dilektepe",
      "lat": 38.934444,
      "lng": 40.978611
    },
    {
      "cityName": "Dimlek",
      "lat": 39.2,
      "lng": 40.466667
    },
    {
      "cityName": "Dinarbey",
      "lat": 39.366667,
      "lng": 40.666667
    },
    {
      "cityName": "Dinasor",
      "lat": 38.783333,
      "lng": 40.833333
    },
    {
      "cityName": "Direkli",
      "lat": 38.595,
      "lng": 40.375556
    },
    {
      "cityName": "Dirvan",
      "lat": 39.366667,
      "lng": 40.35
    },
    {
      "cityName": "Disbudak",
      "lat": 38.766667,
      "lng": 40.416667
    },
    {
      "cityName": "Diyarbük",
      "lat": 38.766667,
      "lng": 40.616667
    },
    {
      "cityName": "Dodan",
      "lat": 38.916667,
      "lng": 40.666667
    },
    {
      "cityName": "Doganca",
      "lat": 38.702778,
      "lng": 40.554444
    },
    {
      "cityName": "Dogancilar",
      "lat": 38.766667,
      "lng": 40.866667
    },
    {
      "cityName": "Doganli",
      "lat": 38.711111,
      "lng": 40.281944
    },
    {
      "cityName": "Dogernan",
      "lat": 38.866667,
      "lng": 40.45
    },
    {
      "cityName": "Doguyeli",
      "lat": 38.733333,
      "lng": 41.033333
    },
    {
      "cityName": "Doluçay",
      "lat": 39.166667,
      "lng": 40.633333
    },
    {
      "cityName": "Doludere",
      "lat": 38.566667,
      "lng": 40.266667
    },
    {
      "cityName": "Dosekkaya",
      "lat": 38.636944,
      "lng": 40.383333
    },
    {
      "cityName": "Dosengi",
      "lat": 39.466667,
      "lng": 40.516667
    },
    {
      "cityName": "Dosluce",
      "lat": 39.233333,
      "lng": 40.466667
    },
    {
      "cityName": "Egnik",
      "lat": 39.116667,
      "lng": 40.766667
    },
    {
      "cityName": "Ekinyolu",
      "lat": 38.909722,
      "lng": 40.573611
    },
    {
      "cityName": "Ekrek",
      "lat": 39.183333,
      "lng": 40.066667
    },
    {
      "cityName": "Elbeyi",
      "lat": 39.366667,
      "lng": 40.433333
    },
    {
      "cityName": "Eldirek",
      "lat": 38.633333,
      "lng": 40.616667
    },
    {
      "cityName": "Elmaagac",
      "lat": 39.173889,
      "lng": 40.623056
    },
    {
      "cityName": "Elmagünü",
      "lat": 38.746111,
      "lng": 40.931389
    },
    {
      "cityName": "Elmasirti",
      "lat": 38.85,
      "lng": 41.05
    },
    {
      "cityName": "Erentepe",
      "lat": 38.966667,
      "lng": 40.566667
    },
    {
      "cityName": "Ericek",
      "lat": 38.584722,
      "lng": 40.263611
    },
    {
      "cityName": "Erler",
      "lat": 39.166667,
      "lng": 40.55
    },
    {
      "cityName": "Erzani",
      "lat": 39.533333,
      "lng": 40.8
    },
    {
      "cityName": "Eskibag",
      "lat": 38.584167,
      "lng": 40.228333
    },
    {
      "cityName": "Eskibalta",
      "lat": 39.45,
      "lng": 40.466667
    },
    {
      "cityName": "Eskiköy",
      "lat": 38.85,
      "lng": 40.95
    },
    {
      "cityName": "Eskikoymezraasi",
      "lat": 38.983333,
      "lng": 40.916667
    },
    {
      "cityName": "Esmetas",
      "lat": 38.916667,
      "lng": 41.083333
    },
    {
      "cityName": "Fahran",
      "lat": 38.979444,
      "lng": 40.629722
    },
    {
      "cityName": "Fars",
      "lat": 39.233333,
      "lng": 40.733333
    },
    {
      "cityName": "Fatrakum",
      "lat": 38.617778,
      "lng": 40.231667
    },
    {
      "cityName": "Gamisan",
      "lat": 39.216667,
      "lng": 40.85
    },
    {
      "cityName": "Garip",
      "lat": 38.782778,
      "lng": 40.561667
    },
    {
      "cityName": "Gasiriz",
      "lat": 38.633333,
      "lng": 40.483333
    },
    {
      "cityName": "Gayt",
      "lat": 38.666667,
      "lng": 40.433333
    },
    {
      "cityName": "Gazik",
      "lat": 38.95,
      "lng": 40.266667
    },
    {
      "cityName": "Gelinpertek",
      "lat": 39.466667,
      "lng": 40.416667
    },
    {
      "cityName": "Gelintepe",
      "lat": 38.848611,
      "lng": 40.921667
    },
    {
      "cityName": "Gemalan",
      "lat": 38.700556,
      "lng": 40.667778
    },
    {
      "cityName": "Genç",
      "lat": 38.750556,
      "lng": 40.554167
    },
    {
      "cityName": "Genç Köy",
      "lat": 38.8,
      "lng": 41.05
    },
    {
      "cityName": "Gerçekli",
      "lat": 38.657778,
      "lng": 40.263333
    },
    {
      "cityName": "Geyikdere",
      "lat": 38.649444,
      "lng": 40.889722
    },
    {
      "cityName": "Girnos",
      "lat": 38.833333,
      "lng": 40.816667
    },
    {
      "cityName": "Godis",
      "lat": 38.7,
      "lng": 40.816667
    },
    {
      "cityName": "Gökçekanat",
      "lat": 38.954444,
      "lng": 40.341111
    },
    {
      "cityName": "Gökçeli",
      "lat": 38.885833,
      "lng": 40.751667
    },
    {
      "cityName": "Gökdere",
      "lat": 38.766667,
      "lng": 40.383333
    },
    {
      "cityName": "Göltepesi",
      "lat": 38.96,
      "lng": 40.592222
    },
    {
      "cityName": "Gönük",
      "lat": 39.133333,
      "lng": 40.883333
    },
    {
      "cityName": "Gönülaçan",
      "lat": 38.621389,
      "lng": 40.275556
    },
    {
      "cityName": "Görnin",
      "lat": 38.666667,
      "lng": 40.5
    },
    {
      "cityName": "Görtak",
      "lat": 38.7,
      "lng": 40.433333
    },
    {
      "cityName": "Gözeler",
      "lat": 38.847222,
      "lng": 40.689444
    },
    {
      "cityName": "Gözer",
      "lat": 38.947778,
      "lng": 40.560833
    },
    {
      "cityName": "Gözertepe",
      "lat": 38.65,
      "lng": 40.316667
    },
    {
      "cityName": "Güldar",
      "lat": 39.033333,
      "lng": 40.816667
    },
    {
      "cityName": "Güleyan",
      "lat": 38.75,
      "lng": 40.9
    },
    {
      "cityName": "Gülikân",
      "lat": 38.583333,
      "lng": 40.416667
    },
    {
      "cityName": "Gumuslu",
      "lat": 38.783333,
      "lng": 40.483333
    },
    {
      "cityName": "Gundogdu",
      "lat": 38.993611,
      "lng": 40.995278
    },
    {
      "cityName": "Guneslik",
      "lat": 39.216667,
      "lng": 40.166667
    },
    {
      "cityName": "Guneyagil",
      "lat": 39.283333,
      "lng": 40.333333
    },
    {
      "cityName": "Güngören",
      "lat": 39.083333,
      "lng": 40.3
    },
    {
      "cityName": "Güngörsün",
      "lat": 39.283333,
      "lng": 40.466667
    },
    {
      "cityName": "Gün Köy",
      "lat": 38.866667,
      "lng": 40.866667
    },
    {
      "cityName": "Gurpinar",
      "lat": 38.779444,
      "lng": 40.448889
    },
    {
      "cityName": "Güveçli",
      "lat": 38.85,
      "lng": 40.533333
    },
    {
      "cityName": "Güzeldere",
      "lat": 38.681389,
      "lng": 40.41
    },
    {
      "cityName": "Güzi",
      "lat": 38.766667,
      "lng": 41.133333
    },
    {
      "cityName": "Haçan",
      "lat": 38.733333,
      "lng": 40.683333
    },
    {
      "cityName": "Haçatur",
      "lat": 39.216667,
      "lng": 40.3
    },
    {
      "cityName": "Hacilar",
      "lat": 39.1,
      "lng": 40.8
    },
    {
      "cityName": "Haciyan",
      "lat": 38.683333,
      "lng": 40.283333
    },
    {
      "cityName": "Hakistan",
      "lat": 39.383333,
      "lng": 40.333333
    },
    {
      "cityName": "Haktanir",
      "lat": 39.2,
      "lng": 40.05
    },
    {
      "cityName": "Halulyan",
      "lat": 38.616667,
      "lng": 40.333333
    },
    {
      "cityName": "Harabe",
      "lat": 38.85,
      "lng": 40.683333
    },
    {
      "cityName": "Harabe Köy",
      "lat": 38.95,
      "lng": 41.033333
    },
    {
      "cityName": "Haror",
      "lat": 39.283333,
      "lng": 40.183333
    },
    {
      "cityName": "Hasanova",
      "lat": 39.178333,
      "lng": 41.021944
    },
    {
      "cityName": "Hasbaglar",
      "lat": 39.2,
      "lng": 40.383333
    },
    {
      "cityName": "Has",
      "lat": 39.466667,
      "lng": 40.7
    },
    {
      "cityName": "Hasköy",
      "lat": 39.233333,
      "lng": 40.066667
    },
    {
      "cityName": "Havlan",
      "lat": 38.65,
      "lng": 40.25
    },
    {
      "cityName": "Hazarsah",
      "lat": 39.016667,
      "lng": 40.883333
    },
    {
      "cityName": "Haziran",
      "lat": 38.831944,
      "lng": 40.446111
    },
    {
      "cityName": "Hemek",
      "lat": 38.666667,
      "lng": 40.383333
    },
    {
      "cityName": "Hepsor",
      "lat": 38.566667,
      "lng": 40.25
    },
    {
      "cityName": "Hepsur",
      "lat": 38.933333,
      "lng": 40.366667
    },
    {
      "cityName": "Herdif",
      "lat": 39.316667,
      "lng": 40.05
    },
    {
      "cityName": "Hesan",
      "lat": 38.833333,
      "lng": 40.533333
    },
    {
      "cityName": "Hidan",
      "lat": 39.033333,
      "lng": 40.583333
    },
    {
      "cityName": "Hiryo",
      "lat": 39.133333,
      "lng": 41.116667
    },
    {
      "cityName": "Hoh",
      "lat": 39.166667,
      "lng": 40.05
    },
    {
      "cityName": "Holhol",
      "lat": 39.230278,
      "lng": 40.07
    },
    {
      "cityName": "Hollan",
      "lat": 39.166667,
      "lng": 40.533333
    },
    {
      "cityName": "Hop",
      "lat": 39.2,
      "lng": 40.033333
    },
    {
      "cityName": "Horhor",
      "lat": 39.216667,
      "lng": 40.416667
    },
    {
      "cityName": "Horhorik",
      "lat": 39.033333,
      "lng": 40.416667
    },
    {
      "cityName": "Hoskar",
      "lat": 39.096667,
      "lng": 40.388611
    },
    {
      "cityName": "Hot",
      "lat": 38.766667,
      "lng": 40.716667
    },
    {
      "cityName": "Hupus",
      "lat": 39.266667,
      "lng": 40.25
    },
    {
      "cityName": "Ibrahiman",
      "lat": 38.633333,
      "lng": 40.416667
    },
    {
      "cityName": "Idmur",
      "lat": 38.733333,
      "lng": 40.666667
    },
    {
      "cityName": "Ikiz",
      "lat": 39.25,
      "lng": 40.666667
    },
    {
      "cityName": "Ilica",
      "lat": 39,
      "lng": 40.65
    },
    {
      "cityName": "Incesu",
      "lat": 38.874444,
      "lng": 40.643333
    },
    {
      "cityName": "Ismailan",
      "lat": 38.833333,
      "lng": 40.933333
    },
    {
      "cityName": "Kabacali",
      "lat": 39.116667,
      "lng": 40.633333
    },
    {
      "cityName": "Kadikoy",
      "lat": 39.3,
      "lng": 40.333333
    },
    {
      "cityName": "Kâfik",
      "lat": 38.816667,
      "lng": 41.066667
    },
    {
      "cityName": "Kalecik",
      "lat": 39.15,
      "lng": 40.916667
    },
    {
      "cityName": "Kaledibi",
      "lat": 38.5275,
      "lng": 40.3625
    },
    {
      "cityName": "Kale",
      "lat": 39.266667,
      "lng": 41.033333
    },
    {
      "cityName": "Kalkanli",
      "lat": 39.15,
      "lng": 40.016667
    },
    {
      "cityName": "Kaman",
      "lat": 39.266667,
      "lng": 40.2
    },
    {
      "cityName": "Kameran",
      "lat": 38.733333,
      "lng": 41.133333
    },
    {
      "cityName": "Kânibaht",
      "lat": 39.316667,
      "lng": 41.033333
    },
    {
      "cityName": "Kanires",
      "lat": 39.298333,
      "lng": 41.014167
    },
    {
      "cityName": "Kanitaht",
      "lat": 39.316667,
      "lng": 41.05
    },
    {
      "cityName": "Kantarkaya",
      "lat": 39.360833,
      "lng": 41.0225
    },
    {
      "cityName": "Karabalcik",
      "lat": 39.183333,
      "lng": 40.9
    },
    {
      "cityName": "Karabey",
      "lat": 39.45,
      "lng": 40.7
    },
    {
      "cityName": "Karaca",
      "lat": 39.466667,
      "lng": 40.616667
    },
    {
      "cityName": "Karadere",
      "lat": 39.15,
      "lng": 40.1
    },
    {
      "cityName": "Karahamza",
      "lat": 39.2,
      "lng": 41.116667
    },
    {
      "cityName": "Karakoç",
      "lat": 38.75,
      "lng": 40.333333
    },
    {
      "cityName": "Karapinar",
      "lat": 39.066667,
      "lng": 40.466667
    },
    {
      "cityName": "Karapolat",
      "lat": 39.45,
      "lng": 40.483333
    },
    {
      "cityName": "Karaveliyan",
      "lat": 38.95,
      "lng": 40.333333
    },
    {
      "cityName": "Karci",
      "lat": 38.663889,
      "lng": 40.448056
    },
    {
      "cityName": "Kargapazari",
      "lat": 39.316667,
      "lng": 41.1
    },
    {
      "cityName": "Kâriköm",
      "lat": 39.466667,
      "lng": 40.85
    },
    {
      "cityName": "Karlica",
      "lat": 39.216667,
      "lng": 40.75
    },
    {
      "cityName": "Karmoçek",
      "lat": 39.233333,
      "lng": 40.766667
    },
    {
      "cityName": "Kârmuruniulya",
      "lat": 39.183333,
      "lng": 40.383333
    },
    {
      "cityName": "Kârot",
      "lat": 38.833333,
      "lng": 41
    },
    {
      "cityName": "Kartal",
      "lat": 38.970278,
      "lng": 40.422222
    },
    {
      "cityName": "Kasaba",
      "lat": 39.313611,
      "lng": 40.350278
    },
    {
      "cityName": "Kâsan",
      "lat": 38.616667,
      "lng": 40.166667
    },
    {
      "cityName": "Kasikli",
      "lat": 39.483333,
      "lng": 40.566667
    },
    {
      "cityName": "Kavak",
      "lat": 39.35,
      "lng": 40.716667
    },
    {
      "cityName": "Kavakli",
      "lat": 38.645556,
      "lng": 40.341667
    },
    {
      "cityName": "Kayik",
      "lat": 39.35,
      "lng": 40.816667
    },
    {
      "cityName": "Kaymaz",
      "lat": 38.585556,
      "lng": 40.796667
    },
    {
      "cityName": "Kaynakdüzü",
      "lat": 39.2,
      "lng": 40.7
    },
    {
      "cityName": "Kaynarpinar",
      "lat": 39.384167,
      "lng": 40.778611
    },
    {
      "cityName": "Kazanli",
      "lat": 39.366667,
      "lng": 40.9
    },
    {
      "cityName": "Keklikdere",
      "lat": 38.734722,
      "lng": 40.646667
    },
    {
      "cityName": "Kemah",
      "lat": 39.033333,
      "lng": 40.316667
    },
    {
      "cityName": "Kemdir",
      "lat": 38.616667,
      "lng": 40.533333
    },
    {
      "cityName": "Kepçeli",
      "lat": 38.828333,
      "lng": 40.825833
    },
    {
      "cityName": "Kilcadir",
      "lat": 38.779722,
      "lng": 40.486389
    },
    {
      "cityName": "Kildar",
      "lat": 39.05,
      "lng": 40.8
    },
    {
      "cityName": "Kiliseli",
      "lat": 39.15,
      "lng": 41
    },
    {
      "cityName": "Kiltepe",
      "lat": 38.760556,
      "lng": 40.445
    },
    {
      "cityName": "Kiractepe",
      "lat": 39.2,
      "lng": 40.966667
    },
    {
      "cityName": "Kiramon",
      "lat": 38.866667,
      "lng": 40.333333
    },
    {
      "cityName": "Kiran",
      "lat": 38.733333,
      "lng": 40.416667
    },
    {
      "cityName": "Kirkagil",
      "lat": 38.916667,
      "lng": 40.35
    },
    {
      "cityName": "Kirkoy",
      "lat": 39.3,
      "lng": 40.133333
    },
    {
      "cityName": "Kirkpinar",
      "lat": 39.183333,
      "lng": 40.733333
    },
    {
      "cityName": "Kizilagac",
      "lat": 39.133333,
      "lng": 40.8
    },
    {
      "cityName": "Kizilagac Koyu",
      "lat": 39.15,
      "lng": 40.766667
    },
    {
      "cityName": "Kizilcabik",
      "lat": 39.383333,
      "lng": 40.866667
    },
    {
      "cityName": "Kobik",
      "lat": 39.4,
      "lng": 41.1
    },
    {
      "cityName": "Koç",
      "lat": 38.733333,
      "lng": 40.916667
    },
    {
      "cityName": "Kocsirti",
      "lat": 38.780278,
      "lng": 40.825833
    },
    {
      "cityName": "Köklü",
      "lat": 38.951389,
      "lng": 40.629444
    },
    {
      "cityName": "Kolanli",
      "lat": 39.5,
      "lng": 40.766667
    },
    {
      "cityName": "Komseydan",
      "lat": 38.933333,
      "lng": 40.883333
    },
    {
      "cityName": "Kopar",
      "lat": 38.75,
      "lng": 40.516667
    },
    {
      "cityName": "Kop",
      "lat": 38.666667,
      "lng": 40.766667
    },
    {
      "cityName": "Körik",
      "lat": 39.166667,
      "lng": 40.85
    },
    {
      "cityName": "Kosan",
      "lat": 39.483333,
      "lng": 40.516667
    },
    {
      "cityName": "Kosmur",
      "lat": 39.4,
      "lng": 40.4
    },
    {
      "cityName": "Kozlu",
      "lat": 39.183333,
      "lng": 40.533333
    },
    {
      "cityName": "Küçük Tekören",
      "lat": 38.864167,
      "lng": 40.484167
    },
    {
      "cityName": "Kulay",
      "lat": 38.75,
      "lng": 40.95
    },
    {
      "cityName": "Kümbet",
      "lat": 39.4,
      "lng": 41
    },
    {
      "cityName": "Kumgeçit",
      "lat": 38.797222,
      "lng": 40.618611
    },
    {
      "cityName": "Kurbanli",
      "lat": 39.516667,
      "lng": 40.8
    },
    {
      "cityName": "Kür Köyü",
      "lat": 38.916667,
      "lng": 40.3
    },
    {
      "cityName": "Kuruca",
      "lat": 38.945833,
      "lng": 40.263889
    },
    {
      "cityName": "Kurudere",
      "lat": 38.902778,
      "lng": 40.469167
    },
    {
      "cityName": "Kusluca",
      "lat": 39.316667,
      "lng": 40.216667
    },
    {
      "cityName": "Kutludugun",
      "lat": 38.491389,
      "lng": 40.285833
    },
    {
      "cityName": "Laver",
      "lat": 38.733333,
      "lng": 40.583333
    },
    {
      "cityName": "Leabasan",
      "lat": 38.733333,
      "lng": 40.616667
    },
    {
      "cityName": "Liçik",
      "lat": 39.383333,
      "lng": 40.766667
    },
    {
      "cityName": "Madragi Lotan",
      "lat": 38.85,
      "lng": 40.583333
    },
    {
      "cityName": "Mahsan",
      "lat": 38.666667,
      "lng": 40.533333
    },
    {
      "cityName": "Mamadaniülya",
      "lat": 38.75,
      "lng": 40.933333
    },
    {
      "cityName": "Masgan",
      "lat": 39.183333,
      "lng": 40.616667
    },
    {
      "cityName": "Melekân",
      "lat": 38.533333,
      "lng": 40.316667
    },
    {
      "cityName": "Melekhan Köyü",
      "lat": 39.05,
      "lng": 40.883333
    },
    {
      "cityName": "Mercan",
      "lat": 39.216667,
      "lng": 40.633333
    },
    {
      "cityName": "Mesedali",
      "lat": 38.785556,
      "lng": 40.631389
    },
    {
      "cityName": "Mezraaalyan",
      "lat": 38.666667,
      "lng": 40.6
    },
    {
      "cityName": "Mezraasadan",
      "lat": 39,
      "lng": 41.083333
    },
    {
      "cityName": "Mezrayikebir",
      "lat": 38.7,
      "lng": 40.6
    },
    {
      "cityName": "Mezredeli",
      "lat": 38.733333,
      "lng": 41.016667
    },
    {
      "cityName": "Mihigencu",
      "lat": 38.65,
      "lng": 40.916667
    },
    {
      "cityName": "Mirarsah",
      "lat": 39,
      "lng": 40.866667
    },
    {
      "cityName": "Modan",
      "lat": 38.783333,
      "lng": 40.633333
    },
    {
      "cityName": "Mollaibrahim",
      "lat": 38.633333,
      "lng": 40.233333
    },
    {
      "cityName": "Mollaömer",
      "lat": 39.45,
      "lng": 40.75
    },
    {
      "cityName": "Mosek",
      "lat": 38.75,
      "lng": 40.483333
    },
    {
      "cityName": "Mosyan",
      "lat": 38.783333,
      "lng": 40.45
    },
    {
      "cityName": "Muradan",
      "lat": 38.766667,
      "lng": 40.783333
    },
    {
      "cityName": "Muratköy",
      "lat": 38.893611,
      "lng": 40.961111
    },
    {
      "cityName": "Murtazan",
      "lat": 38.6,
      "lng": 40.65
    },
    {
      "cityName": "Mutluca",
      "lat": 39.034722,
      "lng": 40.877222
    },
    {
      "cityName": "Nacakli",
      "lat": 39.183333,
      "lng": 40.333333
    },
    {
      "cityName": "Norik",
      "lat": 38.883333,
      "lng": 40.966667
    },
    {
      "cityName": "Nursin",
      "lat": 38.65,
      "lng": 40.783333
    },
    {
      "cityName": "Oguldere",
      "lat": 39.05,
      "lng": 40.466667
    },
    {
      "cityName": "Ölmez",
      "lat": 39.316667,
      "lng": 40.3
    },
    {
      "cityName": "Onbirevler",
      "lat": 38.914167,
      "lng": 40.643611
    },
    {
      "cityName": "Orik",
      "lat": 39.3,
      "lng": 40.216667
    },
    {
      "cityName": "Ortaçanak",
      "lat": 39.020556,
      "lng": 40.5975
    },
    {
      "cityName": "Ortaköy",
      "lat": 38.85,
      "lng": 40.383333
    },
    {
      "cityName": "Osmanusagi",
      "lat": 39.266667,
      "lng": 40.45
    },
    {
      "cityName": "Oymapinar",
      "lat": 38.866667,
      "lng": 40.966667
    },
    {
      "cityName": "Pargesur",
      "lat": 39.166667,
      "lng": 40.016667
    },
    {
      "cityName": "Paymerh",
      "lat": 38.733333,
      "lng": 40.45
    },
    {
      "cityName": "Pertek",
      "lat": 39.316667,
      "lng": 40.466667
    },
    {
      "cityName": "Pest",
      "lat": 38.65,
      "lng": 41.6
    },
    {
      "cityName": "Pul Köy",
      "lat": 38.75,
      "lng": 40.35
    },
    {
      "cityName": "Riz Köy",
      "lat": 38.616667,
      "lng": 40.816667
    },
    {
      "cityName": "Rizvan",
      "lat": 38.55,
      "lng": 40.266667
    },
    {
      "cityName": "Rotcan",
      "lat": 38.716667,
      "lng": 40.45
    },
    {
      "cityName": "Saban",
      "lat": 38.883333,
      "lng": 40.333333
    },
    {
      "cityName": "Sabik",
      "lat": 39.281944,
      "lng": 40.713333
    },
    {
      "cityName": "Saggoze",
      "lat": 38.614167,
      "lng": 40.805
    },
    {
      "cityName": "Sagnis",
      "lat": 39.182778,
      "lng": 40.7925
    },
    {
      "cityName": "Sakaören",
      "lat": 39.283333,
      "lng": 41.083333
    },
    {
      "cityName": "Saklica",
      "lat": 38.533333,
      "lng": 40.3
    },
    {
      "cityName": "Sakolyan",
      "lat": 38.716667,
      "lng": 40.666667
    },
    {
      "cityName": "Salekan",
      "lat": 39.116667,
      "lng": 41.216667
    },
    {
      "cityName": "Sancakli",
      "lat": 38.933333,
      "lng": 40.483333
    },
    {
      "cityName": "Sarge",
      "lat": 38.95,
      "lng": 40.3
    },
    {
      "cityName": "Saribudak",
      "lat": 38.521944,
      "lng": 40.318611
    },
    {
      "cityName": "Sarikasik",
      "lat": 39.483333,
      "lng": 40.833333
    },
    {
      "cityName": "Sarikoc",
      "lat": 38.7,
      "lng": 40.45
    },
    {
      "cityName": "Sarikusak",
      "lat": 39.4,
      "lng": 40.816667
    },
    {
      "cityName": "Sarmakaya",
      "lat": 38.727222,
      "lng": 40.943056
    },
    {
      "cityName": "Saruk",
      "lat": 39.4,
      "lng": 39.816667
    },
    {
      "cityName": "Savcak",
      "lat": 39.5,
      "lng": 40.716667
    },
    {
      "cityName": "Sayer",
      "lat": 38.533333,
      "lng": 40.35
    },
    {
      "cityName": "Sefkar",
      "lat": 39.283333,
      "lng": 40.583333
    },
    {
      "cityName": "Sehitkoy",
      "lat": 38.663889,
      "lng": 40.490833
    },
    {
      "cityName": "Selekan",
      "lat": 39.116667,
      "lng": 41.2
    },
    {
      "cityName": "Selheydan",
      "lat": 38.5,
      "lng": 40.35
    },
    {
      "cityName": "Semsan",
      "lat": 38.82,
      "lng": 40.772222
    },
    {
      "cityName": "Sen Koy",
      "lat": 39.416667,
      "lng": 40.55
    },
    {
      "cityName": "Sen",
      "lat": 39.233333,
      "lng": 40.133333
    },
    {
      "cityName": "Serban",
      "lat": 38.933333,
      "lng": 40.983333
    },
    {
      "cityName": "Serkevir",
      "lat": 38.766667,
      "lng": 41
    },
    {
      "cityName": "Servi",
      "lat": 38.573056,
      "lng": 40.315
    },
    {
      "cityName": "Silikan",
      "lat": 39.45,
      "lng": 40.716667
    },
    {
      "cityName": "Simhaç",
      "lat": 39.216667,
      "lng": 40.716667
    },
    {
      "cityName": "Simsorgarbi",
      "lat": 39.1,
      "lng": 40.366667
    },
    {
      "cityName": "Sinek",
      "lat": 38.8,
      "lng": 40.45
    },
    {
      "cityName": "Sirinan",
      "lat": 39.133333,
      "lng": 40.583333
    },
    {
      "cityName": "Sirin",
      "lat": 38.966667,
      "lng": 40.416667
    },
    {
      "cityName": "Sirmacek",
      "lat": 39.166667,
      "lng": 40.333333
    },
    {
      "cityName": "Sirmaliova",
      "lat": 38.65,
      "lng": 40.216667
    },
    {
      "cityName": "Sobecayiri",
      "lat": 39.433333,
      "lng": 40.733333
    },
    {
      "cityName": "Sogukpinar",
      "lat": 38.710833,
      "lng": 40.451944
    },
    {
      "cityName": "Soguksumezrasi",
      "lat": 38.882778,
      "lng": 40.845
    },
    {
      "cityName": "Sogutlu",
      "lat": 38.801389,
      "lng": 40.681944
    },
    {
      "cityName": "Sudugunu",
      "lat": 39.05,
      "lng": 40.433333
    },
    {
      "cityName": "Suduragi",
      "lat": 39.120278,
      "lng": 40.841667
    },
    {
      "cityName": "Sukyan",
      "lat": 38.825,
      "lng": 40.967222
    },
    {
      "cityName": "Süleymanbey",
      "lat": 39.3,
      "lng": 40.533333
    },
    {
      "cityName": "Sultandu",
      "lat": 38.766667,
      "lng": 40.683333
    },
    {
      "cityName": "Sürmelikoç",
      "lat": 39.1,
      "lng": 40.016667
    },
    {
      "cityName": "Sütgölü",
      "lat": 39.1,
      "lng": 40.333333
    },
    {
      "cityName": "Talvara",
      "lat": 38.883333,
      "lng": 40.75
    },
    {
      "cityName": "Tanriverdi",
      "lat": 38.653333,
      "lng": 40.815278
    },
    {
      "cityName": "Tap",
      "lat": 39.2,
      "lng": 40.533333
    },
    {
      "cityName": "Tari",
      "lat": 39.216667,
      "lng": 40.016667
    },
    {
      "cityName": "Taslicay",
      "lat": 39.283333,
      "lng": 40.95
    },
    {
      "cityName": "Tavsalahuseyman",
      "lat": 38.633333,
      "lng": 40.533333
    },
    {
      "cityName": "Tekbas",
      "lat": 39.366667,
      "lng": 40.333333
    },
    {
      "cityName": "Tilki",
      "lat": 39.35,
      "lng": 40.233333
    },
    {
      "cityName": "Tiraret",
      "lat": 38.65,
      "lng": 40.866667
    },
    {
      "cityName": "Tirso",
      "lat": 39.3,
      "lng": 40.666667
    },
    {
      "cityName": "Tokluyan",
      "lat": 39.266667,
      "lng": 40.983333
    },
    {
      "cityName": "Topalan",
      "lat": 38.916667,
      "lng": 40.433333
    },
    {
      "cityName": "Üçgül",
      "lat": 38.648056,
      "lng": 40.409167
    },
    {
      "cityName": "Üçyaka",
      "lat": 38.85,
      "lng": 40.433333
    },
    {
      "cityName": "Ugurova",
      "lat": 39.016667,
      "lng": 40.266667
    },
    {
      "cityName": "Uman",
      "lat": 38.7,
      "lng": 40.466667
    },
    {
      "cityName": "Umurlu",
      "lat": 38.703333,
      "lng": 40.821944
    },
    {
      "cityName": "Uzunpazar",
      "lat": 39.266667,
      "lng": 40.633333
    },
    {
      "cityName": "Uzunsavat",
      "lat": 39.033333,
      "lng": 40.333333
    },
    {
      "cityName": "Vahkin",
      "lat": 38.8,
      "lng": 40.766667
    },
    {
      "cityName": "Vaslil",
      "lat": 38.633333,
      "lng": 40.716667
    },
    {
      "cityName": "Velvare",
      "lat": 38.816667,
      "lng": 40.466667
    },
    {
      "cityName": "Veysemerik",
      "lat": 38.9,
      "lng": 41.066667
    },
    {
      "cityName": "Vezenan",
      "lat": 38.755556,
      "lng": 40.765556
    },
    {
      "cityName": "Viransehir",
      "lat": 39.393889,
      "lng": 40.965833
    },
    {
      "cityName": "Yalavuzan",
      "lat": 39.25,
      "lng": 41.033333
    },
    {
      "cityName": "Yalkizan",
      "lat": 39.233333,
      "lng": 41.033333
    },
    {
      "cityName": "Yamaç",
      "lat": 38.77,
      "lng": 40.44
    },
    {
      "cityName": "Yavuztas",
      "lat": 39.233333,
      "lng": 40.016667
    },
    {
      "cityName": "Yaydere",
      "lat": 38.494444,
      "lng": 40.348333
    },
    {
      "cityName": "Yazgülü",
      "lat": 39.016667,
      "lng": 40.3
    },
    {
      "cityName": "Yazili",
      "lat": 38.619444,
      "lng": 40.202222
    },
    {
      "cityName": "Yazkonagi",
      "lat": 38.655,
      "lng": 40.726944
    },
    {
      "cityName": "Yedisu",
      "lat": 39.433056,
      "lng": 40.544167
    },
    {
      "cityName": "Yekmal",
      "lat": 39.016667,
      "lng": 40.933333
    },
    {
      "cityName": "Yeldegirmeni",
      "lat": 39.283333,
      "lng": 40.433333
    },
    {
      "cityName": "Yelesen",
      "lat": 38.868611,
      "lng": 40.322778
    },
    {
      "cityName": "Yelkaya",
      "lat": 38.594722,
      "lng": 40.424167
    },
    {
      "cityName": "Yenibaslar",
      "lat": 38.999722,
      "lng": 40.691389
    },
    {
      "cityName": "Yeniçevre",
      "lat": 38.610556,
      "lng": 40.320278
    },
    {
      "cityName": "Yenidal",
      "lat": 38.92,
      "lng": 40.923056
    },
    {
      "cityName": "Yeniköy",
      "lat": 38.758611,
      "lng": 40.351944
    },
    {
      "cityName": "Yeniyazi",
      "lat": 38.670278,
      "lng": 40.562778
    },
    {
      "cityName": "Yesilgol",
      "lat": 39.416667,
      "lng": 40.616667
    },
    {
      "cityName": "Yesilova",
      "lat": 39.116667,
      "lng": 40.416667
    },
    {
      "cityName": "Yigitharman",
      "lat": 38.97,
      "lng": 40.967778
    },
    {
      "cityName": "Yolcati",
      "lat": 38.616667,
      "lng": 40.695278
    },
    {
      "cityName": "Yoncalik Koyu",
      "lat": 39.333333,
      "lng": 41.066667
    },
    {
      "cityName": "Yoncali",
      "lat": 39.3,
      "lng": 40.633333
    },
    {
      "cityName": "Yukaricer",
      "lat": 39.2,
      "lng": 41.083333
    },
    {
      "cityName": "Yukarikayik",
      "lat": 39.35,
      "lng": 40.783333
    },
    {
      "cityName": "Yukariperhangok",
      "lat": 38.966667,
      "lng": 40.8
    },
    {
      "cityName": "Yukari Saruk",
      "lat": 39.366667,
      "lng": 41.05
    },
    {
      "cityName": "Yukarisevik",
      "lat": 39.2,
      "lng": 40.766667
    },
    {
      "cityName": "Yukari Zehri",
      "lat": 39.25,
      "lng": 41.133333
    },
    {
      "cityName": "Yumakli",
      "lat": 38.732222,
      "lng": 40.361111
    },
    {
      "cityName": "Zag",
      "lat": 39.083333,
      "lng": 40.333333
    },
    {
      "cityName": "Zakuni",
      "lat": 38.666667,
      "lng": 40.566667
    },
    {
      "cityName": "Zeynalli",
      "lat": 39.216667,
      "lng": 40.183333
    },
    {
      "cityName": "Zeynep",
      "lat": 38.866667,
      "lng": 40.5
    },
    {
      "cityName": "Zirnanos",
      "lat": 39.433333,
      "lng": 40.516667
    }
  ]
}