{
  "name": "Kigali",
  "cities": [
    {
      "cityName": "Agatwi",
      "lat": -1.8847222,
      "lng": 30.0686111
    },
    {
      "cityName": "Bandazi",
      "lat": -1.9333333,
      "lng": 30.2333333
    },
    {
      "cityName": "Bicumbi",
      "lat": -1.9966667,
      "lng": 30.3497222
    },
    {
      "cityName": "Bihembe",
      "lat": -2.0666667,
      "lng": 30.2833333
    },
    {
      "cityName": "Bugaragara",
      "lat": -1.9166667,
      "lng": 29.9666667
    },
    {
      "cityName": "Bugarura",
      "lat": -1.7502778,
      "lng": 30.3327778
    },
    {
      "cityName": "Bugesera",
      "lat": -2.1455556,
      "lng": 30.0913889
    },
    {
      "cityName": "Bulega",
      "lat": -1.7333333,
      "lng": 30.0333333
    },
    {
      "cityName": "Bulimba",
      "lat": -1.7333333,
      "lng": 29.85
    },
    {
      "cityName": "Bumbogo",
      "lat": -1.7130556,
      "lng": 29.8530556
    },
    {
      "cityName": "Bushenyi",
      "lat": -1.9508333,
      "lng": 30.3952778
    },
    {
      "cityName": "Butale",
      "lat": -1.8666667,
      "lng": 30.1
    },
    {
      "cityName": "Butamwa",
      "lat": -2.0266667,
      "lng": 30.0258333
    },
    {
      "cityName": "Colline Gasabo",
      "lat": -1.8,
      "lng": 30.1333333
    },
    {
      "cityName": "Colline Gasagara",
      "lat": -1.85,
      "lng": 30.2
    },
    {
      "cityName": "Colline Gashinia",
      "lat": -1.7166667,
      "lng": 30.1833333
    },
    {
      "cityName": "Colline Gashoba",
      "lat": -2.2075,
      "lng": 30.2436111
    },
    {
      "cityName": "Colline Gasura",
      "lat": -1.85,
      "lng": 30.1
    },
    {
      "cityName": "Colline Gatete",
      "lat": -1.6666667,
      "lng": 29.8833333
    },
    {
      "cityName": "Colline Gikondo",
      "lat": -1.9833333,
      "lng": 30.0666667
    },
    {
      "cityName": "Colline Gishute",
      "lat": -1.9,
      "lng": 30.2
    },
    {
      "cityName": "Colline Gisodzi",
      "lat": -1.7833333,
      "lng": 29.8833333
    },
    {
      "cityName": "Colline Gitambi",
      "lat": -1.7833333,
      "lng": 30.1166667
    },
    {
      "cityName": "Colline Gitovu",
      "lat": -1.75,
      "lng": 29.8833333
    },
    {
      "cityName": "Colline Gitshatsha",
      "lat": -1.8966667,
      "lng": 30.2386111
    },
    {
      "cityName": "Colline Gitsimba",
      "lat": -1.6833333,
      "lng": 30.3833333
    },
    {
      "cityName": "Colline Gitsuba",
      "lat": -1.8666667,
      "lng": 29.9333333
    },
    {
      "cityName": "Colline Isenga",
      "lat": -2.4166667,
      "lng": 30.1166667
    },
    {
      "cityName": "Colline Janjagiro",
      "lat": -1.8666667,
      "lng": 30.3
    },
    {
      "cityName": "Colline Kabuga",
      "lat": -1.9666667,
      "lng": 30.2166667
    },
    {
      "cityName": "Colline Kagasa",
      "lat": -2.2666667,
      "lng": 30.2
    },
    {
      "cityName": "Colline Kalembule",
      "lat": -2.0166667,
      "lng": 30.0833333
    },
    {
      "cityName": "Colline Kanombe",
      "lat": -1.9747222,
      "lng": 30.1613889
    },
    {
      "cityName": "Colline Kanyoni",
      "lat": -1.7833333,
      "lng": 30.0333333
    },
    {
      "cityName": "Colline Kanzenze",
      "lat": -2.1511111,
      "lng": 30.0952778
    },
    {
      "cityName": "Colline Karambo",
      "lat": -1.7666667,
      "lng": 30.0333333
    },
    {
      "cityName": "Colline Karizinge",
      "lat": -2.2333333,
      "lng": 30.25
    },
    {
      "cityName": "Colline Karotshyo",
      "lat": -2.35,
      "lng": 30.25
    },
    {
      "cityName": "Colline Katshuriro",
      "lat": -1.9333333,
      "lng": 30.0833333
    },
    {
      "cityName": "Colline Kayanga",
      "lat": -1.8333333,
      "lng": 30.1833333
    },
    {
      "cityName": "Colline Kayenzi",
      "lat": -2.1333333,
      "lng": 30.0666667
    },
    {
      "cityName": "Colline Kayovu",
      "lat": -2.2666667,
      "lng": 30.2666667
    },
    {
      "cityName": "Colline Kibagabaga",
      "lat": -1.9333333,
      "lng": 30.1166667
    },
    {
      "cityName": "Colline Kibungu",
      "lat": -2.1,
      "lng": 30.0333333
    },
    {
      "cityName": "Colline Kigarama",
      "lat": -1.95,
      "lng": 30.15
    },
    {
      "cityName": "Colline Kimironko",
      "lat": -1.75,
      "lng": 30.3333333
    },
    {
      "cityName": "Colline Kindonye",
      "lat": -2.2,
      "lng": 30.1166667
    },
    {
      "cityName": "Colline Kinzuzi",
      "lat": -1.75,
      "lng": 30.0166667
    },
    {
      "cityName": "Colline Kirambo",
      "lat": -1.7,
      "lng": 29.8833333
    },
    {
      "cityName": "Colline Kisigiro",
      "lat": -1.75,
      "lng": 30.0333333
    },
    {
      "cityName": "Colline Kivuba",
      "lat": -1.7,
      "lng": 30.3
    },
    {
      "cityName": "Colline Kiyanza",
      "lat": -1.75,
      "lng": 30.0666667
    },
    {
      "cityName": "Colline Kukabira",
      "lat": -1.7333333,
      "lng": 30.1833333
    },
    {
      "cityName": "Colline Kukana",
      "lat": -2.4,
      "lng": 30.1333333
    },
    {
      "cityName": "Colline Kulisha",
      "lat": -1.8333333,
      "lng": 30.0833333
    },
    {
      "cityName": "Colline Mabuye",
      "lat": -2.3833333,
      "lng": 30.15
    },
    {
      "cityName": "Colline Magina",
      "lat": -2.2666667,
      "lng": 30.2166667
    },
    {
      "cityName": "Colline Mamfu",
      "lat": -1.7333333,
      "lng": 30.3
    },
    {
      "cityName": "Colline Masoro",
      "lat": -1.8333333,
      "lng": 30.05
    },
    {
      "cityName": "Colline Mayange",
      "lat": -2.2113889,
      "lng": 30.1172222
    },
    {
      "cityName": "Colline Mibuba",
      "lat": -2.3666667,
      "lng": 30.15
    },
    {
      "cityName": "Colline Mpanga",
      "lat": -2,
      "lng": 30.0333333
    },
    {
      "cityName": "Colline Mpira",
      "lat": -2.2666667,
      "lng": 30.1833333
    },
    {
      "cityName": "Colline Mukuyu",
      "lat": -1.8833333,
      "lng": 30.1833333
    },
    {
      "cityName": "Colline Mulinja",
      "lat": -2.05,
      "lng": 30.1166667
    },
    {
      "cityName": "Colline Murambi",
      "lat": -1.9833333,
      "lng": 30.0833333
    },
    {
      "cityName": "Colline Murara",
      "lat": -2.35,
      "lng": 30.1666667
    },
    {
      "cityName": "Colline Musumule",
      "lat": -2.25,
      "lng": 30.1833333
    },
    {
      "cityName": "Colline Mutambiko",
      "lat": -1.75,
      "lng": 30.1833333
    },
    {
      "cityName": "Colline Muvumu",
      "lat": -1.85,
      "lng": 29.9166667
    },
    {
      "cityName": "Colline Mwendo",
      "lat": -1.7166667,
      "lng": 30.2
    },
    {
      "cityName": "Colline Mwishe",
      "lat": -1.8,
      "lng": 30
    },
    {
      "cityName": "Colline Mwite",
      "lat": -1.7333333,
      "lng": 30
    },
    {
      "cityName": "Colline Mwiviro",
      "lat": -1.7333333,
      "lng": 30.2666667
    },
    {
      "cityName": "Colline Myariro",
      "lat": -2.3,
      "lng": 30.1666667
    },
    {
      "cityName": "Colline Ndera",
      "lat": -1.9666667,
      "lng": 30.1666667
    },
    {
      "cityName": "Colline Ngange",
      "lat": -1.7166667,
      "lng": 30.2333333
    },
    {
      "cityName": "Colline Ngeruka",
      "lat": -2.3,
      "lng": 30.15
    },
    {
      "cityName": "Colline Ngiryi",
      "lat": -1.85,
      "lng": 30.0833333
    },
    {
      "cityName": "Colline Nkunzuzu",
      "lat": -1.8666667,
      "lng": 30.1666667
    },
    {
      "cityName": "Colline Ntarabana",
      "lat": -1.7833333,
      "lng": 29.9166667
    },
    {
      "cityName": "Colline Ntebe",
      "lat": -2.0833333,
      "lng": 30.3
    },
    {
      "cityName": "Colline Ntonde",
      "lat": -1.7666667,
      "lng": 29.9333333
    },
    {
      "cityName": "Colline Nyakabongo",
      "lat": -1.8,
      "lng": 30.25
    },
    {
      "cityName": "Colline Nyamweru",
      "lat": -1.95,
      "lng": 30.0166667
    },
    {
      "cityName": "Colline Nyanza",
      "lat": -1.7833333,
      "lng": 30.15
    },
    {
      "cityName": "Colline Nyarugenge",
      "lat": -1.9402778,
      "lng": 30.0652778
    },
    {
      "cityName": "Colline Nyarurama",
      "lat": -2.4333333,
      "lng": 30.1666667
    },
    {
      "cityName": "Colline Nzangwa",
      "lat": -2.3666667,
      "lng": 30.25
    },
    {
      "cityName": "Colline Remera",
      "lat": -1.8,
      "lng": 29.9833333
    },
    {
      "cityName": "Colline Rimwe",
      "lat": -1.8833333,
      "lng": 29.95
    },
    {
      "cityName": "Colline Rubona",
      "lat": -1.7833333,
      "lng": 29.8666667
    },
    {
      "cityName": "Colline Rubungo",
      "lat": -1.9458333,
      "lng": 30.1261111
    },
    {
      "cityName": "Colline Rugaragara",
      "lat": -1.7,
      "lng": 30.2166667
    },
    {
      "cityName": "Colline Rugenge",
      "lat": -2.2833333,
      "lng": 30.2166667
    },
    {
      "cityName": "Colline Ruhanga",
      "lat": -1.9333333,
      "lng": 30.25
    },
    {
      "cityName": "Colline Ruhanya",
      "lat": -1.7333333,
      "lng": 29.9333333
    },
    {
      "cityName": "Colline Rukura",
      "lat": -1.6833333,
      "lng": 29.8333333
    },
    {
      "cityName": "Colline Runyinya",
      "lat": -1.8833333,
      "lng": 30.3333333
    },
    {
      "cityName": "Colline Rushashi",
      "lat": -1.7330556,
      "lng": 29.8591667
    },
    {
      "cityName": "Colline Rusiga",
      "lat": -1.8166667,
      "lng": 29.9166667
    },
    {
      "cityName": "Colline Rutonde",
      "lat": -1.9,
      "lng": 29.9666667
    },
    {
      "cityName": "Colline Rutondwe",
      "lat": -1.8666667,
      "lng": 29.95
    },
    {
      "cityName": "Colline Rwamiko",
      "lat": -1.7666667,
      "lng": 30.2
    },
    {
      "cityName": "Colline Rwani",
      "lat": -1.85,
      "lng": 29.9333333
    },
    {
      "cityName": "Colline Rwankuba",
      "lat": -1.75,
      "lng": 29.8666667
    },
    {
      "cityName": "Colline Shenga",
      "lat": -1.85,
      "lng": 30.2666667
    },
    {
      "cityName": "Colline Shyorongi",
      "lat": -1.8544444,
      "lng": 29.9625
    },
    {
      "cityName": "Colline Tanda",
      "lat": -1.7833333,
      "lng": 30.25
    },
    {
      "cityName": "Colline Tshyugaro",
      "lat": -2.1166667,
      "lng": 30.05
    },
    {
      "cityName": "Cyamuhinda",
      "lat": -1.7077778,
      "lng": 30.1955556
    },
    {
      "cityName": "Cyimbazi",
      "lat": -1.9511111,
      "lng": 30.3641667
    },
    {
      "cityName": "Gahengele",
      "lat": -1.9666667,
      "lng": 30.3333333
    },
    {
      "cityName": "Gasave",
      "lat": -1.9136111,
      "lng": 30.0663889
    },
    {
      "cityName": "Gikomero",
      "lat": -1.8552778,
      "lng": 30.1494444
    },
    {
      "cityName": "Gikoro",
      "lat": -1.9305556,
      "lng": 30.3313889
    },
    {
      "cityName": "Hubingo",
      "lat": -1.8566667,
      "lng": 30.0080556
    },
    {
      "cityName": "Jari",
      "lat": -1.8666667,
      "lng": 30.0166667
    },
    {
      "cityName": "Kabuye",
      "lat": -1.8744444,
      "lng": 30.0475
    },
    {
      "cityName": "Kacyiru",
      "lat": -1.9625,
      "lng": 30.1055556
    },
    {
      "cityName": "Karama",
      "lat": -1.9,
      "lng": 30.1666667
    },
    {
      "cityName": "Karundi",
      "lat": -1.6980556,
      "lng": 30.2288889
    },
    {
      "cityName": "Karushya",
      "lat": -1.8155556,
      "lng": 30.2311111
    },
    {
      "cityName": "Kicukiro",
      "lat": -1.9769444,
      "lng": 30.1058333
    },
    {
      "cityName": "Kigale",
      "lat": -1.9536111,
      "lng": 30.0605556
    },
    {
      "cityName": "Kimisange",
      "lat": -1.9952778,
      "lng": 30.0486111
    },
    {
      "cityName": "Kwibanda",
      "lat": -1.7688889,
      "lng": 30.2336111
    },
    {
      "cityName": "Leberu",
      "lat": -2.2,
      "lng": 30.1
    },
    {
      "cityName": "Masaka",
      "lat": -1.9955556,
      "lng": 30.1916667
    },
    {
      "cityName": "Mbogo",
      "lat": -1.7644444,
      "lng": 29.97
    },
    {
      "cityName": "Mont Kigali",
      "lat": -1.9638889,
      "lng": 30.0383333
    },
    {
      "cityName": "Mont Ruhanga",
      "lat": -1.75,
      "lng": 29.9166667
    },
    {
      "cityName": "Mugambazi",
      "lat": -1.7863889,
      "lng": 30.0480556
    },
    {
      "cityName": "Mukuyu",
      "lat": -1.7825,
      "lng": 30.2180556
    },
    {
      "cityName": "Murambi",
      "lat": -1.8133333,
      "lng": 30.0444444
    },
    {
      "cityName": "Musasa",
      "lat": -1.8002778,
      "lng": 29.8394444
    },
    {
      "cityName": "Musave",
      "lat": -1.9133333,
      "lng": 30.1725
    },
    {
      "cityName": "Musezero",
      "lat": -1.9236111,
      "lng": 30.0691667
    },
    {
      "cityName": "Muyumbu",
      "lat": -1.9738889,
      "lng": 30.255
    },
    {
      "cityName": "Ngenda",
      "lat": -2.305,
      "lng": 30.0494444
    },
    {
      "cityName": "Nguba",
      "lat": -1.8561111,
      "lng": 30.1122222
    },
    {
      "cityName": "Nyacyonga",
      "lat": -1.8641667,
      "lng": 30.0866667
    },
    {
      "cityName": "Nyakabungo",
      "lat": -1.8980556,
      "lng": 30.2325
    },
    {
      "cityName": "Nyakibande",
      "lat": -1.8011111,
      "lng": 30.0355556
    },
    {
      "cityName": "Nyamabuye",
      "lat": -1.9372222,
      "lng": 30.0361111
    },
    {
      "cityName": "Nyamugali",
      "lat": -1.9252778,
      "lng": 30.0444444
    },
    {
      "cityName": "Rugarama",
      "lat": -1.7983333,
      "lng": 30.29
    },
    {
      "cityName": "Rugende",
      "lat": -1.9511111,
      "lng": 30.2422222
    },
    {
      "cityName": "Ruharabuge",
      "lat": -1.9641667,
      "lng": 30.0175
    },
    {
      "cityName": "Rusororo",
      "lat": -1.9738889,
      "lng": 30.2230556
    },
    {
      "cityName": "Rutongo",
      "lat": -1.8616667,
      "lng": 30.0383333
    },
    {
      "cityName": "Rwarenga",
      "lat": -1.7333333,
      "lng": 30.3369444
    },
    {
      "cityName": "Rwasama",
      "lat": -1.7397222,
      "lng": 30.3033333
    },
    {
      "cityName": "Shango",
      "lat": -1.8505556,
      "lng": 30.1338889
    },
    {
      "cityName": "Sha",
      "lat": -1.8305556,
      "lng": 30.105
    },
    {
      "cityName": "Tare",
      "lat": -1.7155556,
      "lng": 29.9144444
    }
  ]
}