{
  "name": "Butare",
  "cities": [
    {
      "cityName": "Astrida",
      "lat": -2.5972222,
      "lng": 29.7388889
    },
    {
      "cityName": "Bitare",
      "lat": -2.6833333,
      "lng": 29.65
    },
    {
      "cityName": "Bugali",
      "lat": -2.4333333,
      "lng": 29.8833333
    },
    {
      "cityName": "Buhimba",
      "lat": -2.4333333,
      "lng": 29.7666667
    },
    {
      "cityName": "Bunga",
      "lat": -2.7,
      "lng": 29.65
    },
    {
      "cityName": "Burama",
      "lat": -2.3166667,
      "lng": 29.8166667
    },
    {
      "cityName": "Butare",
      "lat": -2.5966667,
      "lng": 29.7394444
    },
    {
      "cityName": "Buvumu",
      "lat": -2.6833333,
      "lng": 29.7333333
    },
    {
      "cityName": "Churusi",
      "lat": -2.4666667,
      "lng": 29.85
    },
    {
      "cityName": "Chyuna",
      "lat": -2.7,
      "lng": 29.6
    },
    {
      "cityName": "Colline Cyarwa",
      "lat": -2.6280556,
      "lng": 29.7519444
    },
    {
      "cityName": "Colline Cyibumba",
      "lat": -2.4,
      "lng": 29.9666667
    },
    {
      "cityName": "Colline Cyotomakara",
      "lat": -2.4,
      "lng": 29.85
    },
    {
      "cityName": "Colline Gahondo",
      "lat": -2.3666667,
      "lng": 29.7666667
    },
    {
      "cityName": "Colline Gatete",
      "lat": -2.75,
      "lng": 29.7666667
    },
    {
      "cityName": "Colline Gatonde",
      "lat": -2.3833333,
      "lng": 29.85
    },
    {
      "cityName": "Colline Gisanze",
      "lat": -2.6,
      "lng": 29.8
    },
    {
      "cityName": "Colline Gisayura",
      "lat": -2.4166667,
      "lng": 29.9
    },
    {
      "cityName": "Colline Gishike",
      "lat": -2.3833333,
      "lng": 29.75
    },
    {
      "cityName": "Colline Gitovu",
      "lat": -2.4,
      "lng": 29.8
    },
    {
      "cityName": "Colline Kagunga",
      "lat": -2.4333333,
      "lng": 29.8666667
    },
    {
      "cityName": "Colline Karama",
      "lat": -2.6130556,
      "lng": 29.6377778
    },
    {
      "cityName": "Colline Kibangu",
      "lat": -2.7141667,
      "lng": 29.65
    },
    {
      "cityName": "Colline Kibinja",
      "lat": -2.3666667,
      "lng": 29.7833333
    },
    {
      "cityName": "Colline Kigali",
      "lat": -2.3,
      "lng": 29.95
    },
    {
      "cityName": "Colline Kigembe",
      "lat": -2.735,
      "lng": 29.695
    },
    {
      "cityName": "Colline Kilarambogo",
      "lat": -2.6166667,
      "lng": 29.9
    },
    {
      "cityName": "Colline Kinyoni",
      "lat": -2.3166667,
      "lng": 29.8333333
    },
    {
      "cityName": "Colline Kiyonza",
      "lat": -2.7333333,
      "lng": 29.7
    },
    {
      "cityName": "Colline Kuwingugu",
      "lat": -2.6,
      "lng": 29.4333333
    },
    {
      "cityName": "Colline Linganwe",
      "lat": -2.6833333,
      "lng": 29.7833333
    },
    {
      "cityName": "Colline Magi",
      "lat": -2.7333333,
      "lng": 29.8333333
    },
    {
      "cityName": "Colline Maliba",
      "lat": -2.6666667,
      "lng": 29.6333333
    },
    {
      "cityName": "Colline Matara",
      "lat": -2.3333333,
      "lng": 29.9166667
    },
    {
      "cityName": "Colline Mbazi",
      "lat": -2.5258333,
      "lng": 29.7316667
    },
    {
      "cityName": "Colline Mubumbano",
      "lat": -2.6666667,
      "lng": 29.7333333
    },
    {
      "cityName": "Colline Muhero",
      "lat": -2.4,
      "lng": 29.9333333
    },
    {
      "cityName": "Colline Murama",
      "lat": -2.7166667,
      "lng": 29.7
    },
    {
      "cityName": "Colline Mushirarungu",
      "lat": -2.35,
      "lng": 29.7166667
    },
    {
      "cityName": "Colline Mutende",
      "lat": -2.3166667,
      "lng": 29.8
    },
    {
      "cityName": "Colline Mutima",
      "lat": -2.3833333,
      "lng": 29.8833333
    },
    {
      "cityName": "Colline Muyira",
      "lat": -2.3447222,
      "lng": 29.8777778
    },
    {
      "cityName": "Colline Muzenga",
      "lat": -2.6333333,
      "lng": 29.7666667
    },
    {
      "cityName": "Colline Mwijanda",
      "lat": -2.4833333,
      "lng": 29.6666667
    },
    {
      "cityName": "Colline Ndago",
      "lat": -2.4166667,
      "lng": 29.8833333
    },
    {
      "cityName": "Colline Ngoma",
      "lat": -2.5852778,
      "lng": 29.7416667
    },
    {
      "cityName": "Colline Nkanda",
      "lat": -2.7833333,
      "lng": 29.4833333
    },
    {
      "cityName": "Colline Nyabisindu",
      "lat": -2.35,
      "lng": 29.6666667
    },
    {
      "cityName": "Colline Nyagisozi",
      "lat": -2.7666667,
      "lng": 29.6166667
    },
    {
      "cityName": "Colline Nyakabanda",
      "lat": -2.7666667,
      "lng": 29.6833333
    },
    {
      "cityName": "Colline Nyakibanda",
      "lat": -2.6333333,
      "lng": 29.6833333
    },
    {
      "cityName": "Colline Nyanza",
      "lat": -2.5833333,
      "lng": 29.7166667
    },
    {
      "cityName": "Colline Nyaruhengeri",
      "lat": -2.6827778,
      "lng": 29.7741667
    },
    {
      "cityName": "Colline Rubona",
      "lat": -2.3166667,
      "lng": 29.9333333
    },
    {
      "cityName": "Colline Rukira",
      "lat": -2.5833333,
      "lng": 29.7
    },
    {
      "cityName": "Colline Ruyenzi",
      "lat": -2.4333333,
      "lng": 29.8333333
    },
    {
      "cityName": "Colline Rwabicuma",
      "lat": -2.35,
      "lng": 29.7
    },
    {
      "cityName": "Colline Saga",
      "lat": -2.7,
      "lng": 29.8666667
    },
    {
      "cityName": "Colline Sanga",
      "lat": -2.5333333,
      "lng": 29.6333333
    },
    {
      "cityName": "Colline Shahara",
      "lat": -2.6666667,
      "lng": 29.7666667
    },
    {
      "cityName": "Colline Sheke",
      "lat": -2.4833333,
      "lng": 29.7166667
    },
    {
      "cityName": "Colline Shyanda",
      "lat": -2.5419444,
      "lng": 29.7927778
    },
    {
      "cityName": "Colline Zivu",
      "lat": -2.5555556,
      "lng": 29.8008333
    },
    {
      "cityName": "Gishamvu",
      "lat": -2.6605556,
      "lng": 29.6902778
    },
    {
      "cityName": "Huye",
      "lat": -2.5808333,
      "lng": 29.7116667
    },
    {
      "cityName": "Kibayi",
      "lat": -2.7322222,
      "lng": 29.8555556
    },
    {
      "cityName": "Kurukara",
      "lat": -2.6419444,
      "lng": 29.6538889
    },
    {
      "cityName": "Lusitare",
      "lat": -2.4236111,
      "lng": 29.7752778
    },
    {
      "cityName": "Maraba",
      "lat": -2.515,
      "lng": 29.6797222
    },
    {
      "cityName": "Mont Mugusa",
      "lat": -2.5002778,
      "lng": 29.8491667
    },
    {
      "cityName": "Mont Mwulire",
      "lat": -2.5333333,
      "lng": 29.75
    },
    {
      "cityName": "Mont Nyakisu",
      "lat": -2.7344444,
      "lng": 29.6402778
    },
    {
      "cityName": "Mont Shori",
      "lat": -2.65,
      "lng": 29.7166667
    },
    {
      "cityName": "Muganza",
      "lat": -2.6694444,
      "lng": 29.8472222
    },
    {
      "cityName": "Muyaga",
      "lat": -2.4647222,
      "lng": 29.9233333
    },
    {
      "cityName": "Ndora",
      "lat": -2.6033333,
      "lng": 29.8336111
    },
    {
      "cityName": "Ntyazo",
      "lat": -2.4294444,
      "lng": 29.8830556
    },
    {
      "cityName": "Ruhashya",
      "lat": -2.4725,
      "lng": 29.7311111
    },
    {
      "cityName": "Runyinya",
      "lat": -2.6422222,
      "lng": 29.6075
    }
  ]
}