{
  "name": "Makira",
  "cities": [
    {
      "cityName": "Aakae",
      "lat": -9.05,
      "lng": 161.2
    },
    {
      "cityName": "A'ama",
      "lat": -9.0833333,
      "lng": 160.15
    },
    {
      "cityName": "Aanosusura",
      "lat": -8.6666667,
      "lng": 160.8666667
    },
    {
      "cityName": "A'arai",
      "lat": -8.7833333,
      "lng": 160.9333333
    },
    {
      "cityName": "Aarite",
      "lat": -9.8333333,
      "lng": 160.8333333
    },
    {
      "cityName": "Abalolo",
      "lat": -8.9,
      "lng": 160.7666667
    },
    {
      "cityName": "Abe",
      "lat": -8.6833333,
      "lng": 160.9666667
    },
    {
      "cityName": "Abira'adoa",
      "lat": -8.6666667,
      "lng": 160.8833333
    },
    {
      "cityName": "Abu",
      "lat": -8.7666667,
      "lng": 160.7
    },
    {
      "cityName": "Abungari",
      "lat": -9.1833333,
      "lng": 160.9333333
    },
    {
      "cityName": "Adou",
      "lat": -8.5666667,
      "lng": 160.9666667
    },
    {
      "cityName": "Aena'aiwasi",
      "lat": -9.25,
      "lng": 161.0166667
    },
    {
      "cityName": "Aenakaro",
      "lat": -9.0833333,
      "lng": 161.15
    },
    {
      "cityName": "Aenariki",
      "lat": -9.2,
      "lng": 161.1166667
    },
    {
      "cityName": "Aerotoro",
      "lat": -9.3,
      "lng": 161.2
    },
    {
      "cityName": "Afudodo",
      "lat": -8.5833333,
      "lng": 160.75
    },
    {
      "cityName": "Afutala",
      "lat": -9.1833333,
      "lng": 160.95
    },
    {
      "cityName": "Age",
      "lat": -8.8,
      "lng": 160.95
    },
    {
      "cityName": "Ageraba",
      "lat": -8.6,
      "lng": 160.8166667
    },
    {
      "cityName": "Ahanga",
      "lat": -11.2666667,
      "lng": 159.7833333
    },
    {
      "cityName": "Ahboga",
      "lat": -9.8,
      "lng": 160.3333333
    },
    {
      "cityName": "Ahenawai",
      "lat": -9.6,
      "lng": 161.4166667
    },
    {
      "cityName": "Ahe'ohia",
      "lat": -9.2166667,
      "lng": 161.2
    },
    {
      "cityName": "Ahesia",
      "lat": -9.0666667,
      "lng": 161.1833333
    },
    {
      "cityName": "Ahi'a",
      "lat": -10.2,
      "lng": 161.3
    },
    {
      "cityName": "Ahia",
      "lat": -9.4166667,
      "lng": 161.25
    },
    {
      "cityName": "Ahu'amu",
      "lat": -9.15,
      "lng": 161.2333333
    },
    {
      "cityName": "Ahuu",
      "lat": -9.4666667,
      "lng": 161.25
    },
    {
      "cityName": "Ai",
      "lat": -10.3333333,
      "lng": 161.3333333
    },
    {
      "cityName": "Aiasi",
      "lat": -8.55,
      "lng": 160.7333333
    },
    {
      "cityName": "'Aifaafasu",
      "lat": -8.9166667,
      "lng": 161.0666667
    },
    {
      "cityName": "Aifiri",
      "lat": -8.9333333,
      "lng": 161.0166667
    },
    {
      "cityName": "Ailau",
      "lat": -8.9166667,
      "lng": 160.7666667
    },
    {
      "cityName": "'Aimburu",
      "lat": -8.9,
      "lng": 161.0333333
    },
    {
      "cityName": "'Aimela",
      "lat": -8.7333333,
      "lng": 160.7
    },
    {
      "cityName": "Aimera",
      "lat": -9.2833333,
      "lng": 161.1333333
    },
    {
      "cityName": "Ainiasi",
      "lat": -9.1833333,
      "lng": 161.1166667
    },
    {
      "cityName": "'Ai Ni Mae",
      "lat": -8.9,
      "lng": 161.0166667
    },
    {
      "cityName": "'Ainimae",
      "lat": -8.9,
      "lng": 161.05
    },
    {
      "cityName": "'Aio",
      "lat": -9.0333333,
      "lng": 161.2166667
    },
    {
      "cityName": "Airaea",
      "lat": -9.2333333,
      "lng": 161.15
    },
    {
      "cityName": "'Airumu",
      "lat": -8.95,
      "lng": 161.0333333
    },
    {
      "cityName": "Aisato",
      "lat": -8.6833333,
      "lng": 160.95
    },
    {
      "cityName": "'Aisi'ina",
      "lat": -8.9166667,
      "lng": 161.0166667
    },
    {
      "cityName": "Aisiko",
      "lat": -8.8,
      "lng": 160.7833333
    },
    {
      "cityName": "Aisina",
      "lat": -8.7166667,
      "lng": 160.95
    },
    {
      "cityName": "Alafe",
      "lat": -8.6666667,
      "lng": 160.9833333
    },
    {
      "cityName": "Alahasiai",
      "lat": -9.1333333,
      "lng": 161.1
    },
    {
      "cityName": "Alangakaula",
      "lat": -10.25,
      "lng": 161.7333333
    },
    {
      "cityName": "Alavugu",
      "lat": -9.8833333,
      "lng": 160.7666667
    },
    {
      "cityName": "Alialia",
      "lat": -9.1,
      "lng": 159.8166667
    },
    {
      "cityName": "Aliali",
      "lat": -9.6,
      "lng": 160.2333333
    },
    {
      "cityName": "Aligegeo",
      "lat": -8.75,
      "lng": 160.6833333
    },
    {
      "cityName": "Alikata",
      "lat": -8.7666667,
      "lng": 160.7666667
    },
    {
      "cityName": "Alligator Creek",
      "lat": -9.4166667,
      "lng": 160.0666667
    },
    {
      "cityName": "Alogha",
      "lat": -9.4,
      "lng": 159.6
    },
    {
      "cityName": "Alosolo",
      "lat": -9.7833333,
      "lng": 160.1666667
    },
    {
      "cityName": "Alotatahoma",
      "lat": -9.6833333,
      "lng": 160.1333333
    },
    {
      "cityName": "Alundava",
      "lat": -9.8,
      "lng": 160.2666667
    },
    {
      "cityName": "Ama'ama",
      "lat": -9.1,
      "lng": 161.2333333
    },
    {
      "cityName": "Ambuambili",
      "lat": -9.4333333,
      "lng": 160.15
    },
    {
      "cityName": "Ambuavao",
      "lat": -9.4333333,
      "lng": 160.2166667
    },
    {
      "cityName": "'Ambungali",
      "lat": -8.9666667,
      "lng": 160.75
    },
    {
      "cityName": "Ambuporondavi",
      "lat": -9.55,
      "lng": 160.3666667
    },
    {
      "cityName": "Anakelo",
      "lat": -8.5666667,
      "lng": 160.7333333
    },
    {
      "cityName": "Anata",
      "lat": -10.3333333,
      "lng": 161.35
    },
    {
      "cityName": "Andeande",
      "lat": -9.4666667,
      "lng": 160.45
    },
    {
      "cityName": "Ane'efafako",
      "lat": -8.9166667,
      "lng": 161.05
    },
    {
      "cityName": "Angali",
      "lat": -9.5333333,
      "lng": 161.4833333
    },
    {
      "cityName": "Anggia",
      "lat": -9,
      "lng": 161.15
    },
    {
      "cityName": "Anoano",
      "lat": -8.9833333,
      "lng": 160.7666667
    },
    {
      "cityName": "Anofai",
      "lat": -8.55,
      "lng": 160.8833333
    },
    {
      "cityName": "Anofalake",
      "lat": -8.6333333,
      "lng": 160.7166667
    },
    {
      "cityName": "Anokwakwale",
      "lat": -8.6333333,
      "lng": 161
    },
    {
      "cityName": "Anoni'usu",
      "lat": -9.6333333,
      "lng": 161.5333333
    },
    {
      "cityName": "Anotole",
      "lat": -9.6833333,
      "lng": 161.4333333
    },
    {
      "cityName": "Anutaiasi",
      "lat": -9.35,
      "lng": 161.1333333
    },
    {
      "cityName": "Aoani'iru",
      "lat": -9.1,
      "lng": 161.15
    },
    {
      "cityName": "Aola",
      "lat": -9.5333333,
      "lng": 160.4833333
    },
    {
      "cityName": "Aona",
      "lat": -9.3333333,
      "lng": 161.15
    },
    {
      "cityName": "A'opasi",
      "lat": -9.35,
      "lng": 161.2166667
    },
    {
      "cityName": "Aopasi",
      "lat": -9.5,
      "lng": 161.4833333
    },
    {
      "cityName": "Apaone",
      "lat": -10.2666667,
      "lng": 161.7333333
    },
    {
      "cityName": "Apaora",
      "lat": -10.55,
      "lng": 161.5
    },
    {
      "cityName": "Apio",
      "lat": -9.6166667,
      "lng": 161.4
    },
    {
      "cityName": "Apuara",
      "lat": -9.4,
      "lng": 161.4166667
    },
    {
      "cityName": "Apuiraramua",
      "lat": -9.2833333,
      "lng": 161.1833333
    },
    {
      "cityName": "Apunahunu",
      "lat": -9.1833333,
      "lng": 161.1833333
    },
    {
      "cityName": "Apurahe",
      "lat": -10.7,
      "lng": 161.7166667
    },
    {
      "cityName": "Ara'arauna",
      "lat": -9.0166667,
      "lng": 161.05
    },
    {
      "cityName": "Arabala",
      "lat": -8.8833333,
      "lng": 160.75
    },
    {
      "cityName": "Arairou",
      "lat": -9.2833333,
      "lng": 161.0333333
    },
    {
      "cityName": "Araki",
      "lat": -8.5166667,
      "lng": 160.9166667
    },
    {
      "cityName": "Aranimamu",
      "lat": -9.4666667,
      "lng": 161.2333333
    },
    {
      "cityName": "Ara'ou",
      "lat": -9.0833333,
      "lng": 161.1833333
    },
    {
      "cityName": "Araro Puti",
      "lat": -9.45,
      "lng": 159.9333333
    },
    {
      "cityName": "Araumana",
      "lat": -9.3166667,
      "lng": 161.1
    },
    {
      "cityName": "Araveu",
      "lat": -9.3666667,
      "lng": 159.8666667
    },
    {
      "cityName": "Arinapa'ewa",
      "lat": -9.1833333,
      "lng": 161.25
    },
    {
      "cityName": "Aroaha",
      "lat": -9.7333333,
      "lng": 161.95
    },
    {
      "cityName": "Aro",
      "lat": -9.4,
      "lng": 159.6166667
    },
    {
      "cityName": "Aroaro",
      "lat": -9.4166667,
      "lng": 160.3333333
    },
    {
      "cityName": "Arohane",
      "lat": -10.4666667,
      "lng": 161.95
    },
    {
      "cityName": "Arona",
      "lat": -9.2333333,
      "lng": 161.2166667
    },
    {
      "cityName": "Arovachivi",
      "lat": -9.9,
      "lng": 160.65
    },
    {
      "cityName": "Arovia",
      "lat": -9.7166667,
      "lng": 160.2166667
    },
    {
      "cityName": "Aruligo",
      "lat": -9.2833333,
      "lng": 159.7666667
    },
    {
      "cityName": "Asaibala",
      "lat": -8.6,
      "lng": 160.85
    },
    {
      "cityName": "Asibonga",
      "lat": -8.7833333,
      "lng": 160.8833333
    },
    {
      "cityName": "Asimaenioha",
      "lat": -10.2333333,
      "lng": 161.4833333
    },
    {
      "cityName": "Asimana",
      "lat": -9.15,
      "lng": 160.8666667
    },
    {
      "cityName": "Ato'ifi",
      "lat": -8.85,
      "lng": 161.0166667
    },
    {
      "cityName": "Atonihare",
      "lat": -9.2333333,
      "lng": 161.1666667
    },
    {
      "cityName": "Atori",
      "lat": -8.7333333,
      "lng": 160.95
    },
    {
      "cityName": "A'ulupeine",
      "lat": -9.6833333,
      "lng": 161.5666667
    },
    {
      "cityName": "Aupono",
      "lat": -9.05,
      "lng": 161.1833333
    },
    {
      "cityName": "Ausi",
      "lat": -9.1,
      "lng": 161.1
    },
    {
      "cityName": "Avisi",
      "lat": -9.7166667,
      "lng": 159.7333333
    },
    {
      "cityName": "Avuavu",
      "lat": -9.8333333,
      "lng": 160.3666667
    },
    {
      "cityName": "Avu Avu",
      "lat": -9.8333333,
      "lng": 160.3833333
    },
    {
      "cityName": "Awale",
      "lat": -9.6166667,
      "lng": 159.6666667
    },
    {
      "cityName": "Awanararu",
      "lat": -9.8333333,
      "lng": 160.8666667
    },
    {
      "cityName": "Bacalwallo",
      "lat": -9.4,
      "lng": 160.3333333
    },
    {
      "cityName": "Bagarai",
      "lat": -10.8166667,
      "lng": 162.05
    },
    {
      "cityName": "Bagarice",
      "lat": -9.5666667,
      "lng": 160.1666667
    },
    {
      "cityName": "Bahi",
      "lat": -9.3,
      "lng": 159.6
    },
    {
      "cityName": "Bakofu",
      "lat": -8.5166667,
      "lng": 160.7166667
    },
    {
      "cityName": "Balasu'u",
      "lat": -9.5666667,
      "lng": 161.55
    },
    {
      "cityName": "Balegoma",
      "lat": -9.6666667,
      "lng": 159.7
    },
    {
      "cityName": "Bambala",
      "lat": -9.4166667,
      "lng": 160.3
    },
    {
      "cityName": "Baroni",
      "lat": -8.95,
      "lng": 160.0833333
    },
    {
      "cityName": "Baunani",
      "lat": -9.1333333,
      "lng": 160.85
    },
    {
      "cityName": "Behelula",
      "lat": -9.9,
      "lng": 160.6833333
    },
    {
      "cityName": "Belaga",
      "lat": -9.0666667,
      "lng": 160.3333333
    },
    {
      "cityName": "Belana",
      "lat": -9.5833333,
      "lng": 160.0833333
    },
    {
      "cityName": "Belatasi",
      "lat": -9.9,
      "lng": 160.5166667
    },
    {
      "cityName": "Belati",
      "lat": -9.5833333,
      "lng": 160.3333333
    },
    {
      "cityName": "Beluga",
      "lat": -9.5666667,
      "lng": 160.35
    },
    {
      "cityName": "Bengena",
      "lat": -9.7166667,
      "lng": 159.75
    },
    {
      "cityName": "Bia",
      "lat": -10.3666667,
      "lng": 161.4833333
    },
    {
      "cityName": "Bifonu",
      "lat": -8.55,
      "lng": 160.7
    },
    {
      "cityName": "Bilikovu",
      "lat": -9.6833333,
      "lng": 159.7166667
    },
    {
      "cityName": "Bio",
      "lat": -8.65,
      "lng": 160.6666667
    },
    {
      "cityName": "Birasu",
      "lat": -9.1333333,
      "lng": 159.8333333
    },
    {
      "cityName": "Biti",
      "lat": -9.7833333,
      "lng": 159.9
    },
    {
      "cityName": "Boitsatsu",
      "lat": -9.3666667,
      "lng": 159.8166667
    },
    {
      "cityName": "Bokoagau",
      "lat": -9.4166667,
      "lng": 160.3833333
    },
    {
      "cityName": "Bokola",
      "lat": -9.6666667,
      "lng": 160.65
    },
    {
      "cityName": "Bola",
      "lat": -9.6166667,
      "lng": 160.65
    },
    {
      "cityName": "Bolonda",
      "lat": -9.7833333,
      "lng": 159.9166667
    },
    {
      "cityName": "Bonala",
      "lat": -9.1166667,
      "lng": 159.8333333
    },
    {
      "cityName": "Borohinaba",
      "lat": -9.0166667,
      "lng": 160.25
    },
    {
      "cityName": "Boromoli",
      "lat": -9.05,
      "lng": 160.3
    },
    {
      "cityName": "Bugawahu",
      "lat": -10.6,
      "lng": 161.6166667
    },
    {
      "cityName": "Bula'abu",
      "lat": -8.9,
      "lng": 160.7333333
    },
    {
      "cityName": "Bula",
      "lat": -8.85,
      "lng": 160.7333333
    },
    {
      "cityName": "Buma",
      "lat": -8.6666667,
      "lng": 160.6833333
    },
    {
      "cityName": "Burianiasi",
      "lat": -8.65,
      "lng": 160.9833333
    },
    {
      "cityName": "Busu",
      "lat": -8.8833333,
      "lng": 160.7333333
    },
    {
      "cityName": "Busukwa'e",
      "lat": -8.7166667,
      "lng": 160.9
    },
    {
      "cityName": "Busuone",
      "lat": -8.7666667,
      "lng": 160.8333333
    },
    {
      "cityName": "Bwaomarau",
      "lat": -10.5333333,
      "lng": 162.1166667
    },
    {
      "cityName": "Bwaroo",
      "lat": -10.5,
      "lng": 162
    },
    {
      "cityName": "Bwaunasughu",
      "lat": -10.45,
      "lng": 161.9
    },
    {
      "cityName": "Bweinaniawarikiapu",
      "lat": -10.5666667,
      "lng": 161.8666667
    },
    {
      "cityName": "Caledonia",
      "lat": -9.4,
      "lng": 160.1666667
    },
    {
      "cityName": "Canaan",
      "lat": -8.8333333,
      "lng": 161
    },
    {
      "cityName": "Chaghoe",
      "lat": -9.6,
      "lng": 159.6666667
    },
    {
      "cityName": "Chahoga",
      "lat": -9.25,
      "lng": 159.7
    },
    {
      "cityName": "Chakundale",
      "lat": -9.75,
      "lng": 159.8833333
    },
    {
      "cityName": "Chaliaru",
      "lat": -9.7,
      "lng": 159.95
    },
    {
      "cityName": "Chalimpale",
      "lat": -9.8,
      "lng": 160.0666667
    },
    {
      "cityName": "Chamburu",
      "lat": -9.25,
      "lng": 159.6833333
    },
    {
      "cityName": "Chapunamo",
      "lat": -9.7333333,
      "lng": 159.7666667
    },
    {
      "cityName": "Chapuru",
      "lat": -9.25,
      "lng": 159.7166667
    },
    {
      "cityName": "Charanggao",
      "lat": -9.8,
      "lng": 160.2333333
    },
    {
      "cityName": "Charanimate",
      "lat": -9.7333333,
      "lng": 159.85
    },
    {
      "cityName": "Charavutu",
      "lat": -9.8,
      "lng": 160.2833333
    },
    {
      "cityName": "Charihaivati",
      "lat": -9.5666667,
      "lng": 160.15
    },
    {
      "cityName": "Chariko",
      "lat": -9.5833333,
      "lng": 160.25
    },
    {
      "cityName": "Chari Ndoke",
      "lat": -9.5333333,
      "lng": 160.1166667
    },
    {
      "cityName": "Chaukandora",
      "lat": -9.7,
      "lng": 159.8833333
    },
    {
      "cityName": "Chaunaroga",
      "lat": -9.7833333,
      "lng": 159.95
    },
    {
      "cityName": "Chautivi",
      "lat": -9.65,
      "lng": 160.3666667
    },
    {
      "cityName": "Chavunggao",
      "lat": -9.35,
      "lng": 159.5833333
    },
    {
      "cityName": "Checheche",
      "lat": -9.8166667,
      "lng": 160.3833333
    },
    {
      "cityName": "Cheli",
      "lat": -9.4833333,
      "lng": 159.5833333
    },
    {
      "cityName": "Chili",
      "lat": -9.5666667,
      "lng": 160.4166667
    },
    {
      "cityName": "Chimbakoghe",
      "lat": -9.7666667,
      "lng": 159.8833333
    },
    {
      "cityName": "Chimbori",
      "lat": -9.8166667,
      "lng": 160.4166667
    },
    {
      "cityName": "Chinatown",
      "lat": -9.1,
      "lng": 160.15
    },
    {
      "cityName": "Chiri",
      "lat": -9.45,
      "lng": 159.8166667
    },
    {
      "cityName": "Chochokiki",
      "lat": -9.5166667,
      "lng": 159.6
    },
    {
      "cityName": "Choghiri",
      "lat": -9.8,
      "lng": 160.1833333
    },
    {
      "cityName": "Choha",
      "lat": -9.6166667,
      "lng": 160.2333333
    },
    {
      "cityName": "Chokare",
      "lat": -9.5833333,
      "lng": 160.4166667
    },
    {
      "cityName": "Chombonavaka",
      "lat": -9.5833333,
      "lng": 159.65
    },
    {
      "cityName": "Chouna",
      "lat": -9.6666667,
      "lng": 160.2333333
    },
    {
      "cityName": "Chukakonia",
      "lat": -9.8166667,
      "lng": 160.6333333
    },
    {
      "cityName": "Chuma",
      "lat": -9.7666667,
      "lng": 160.2833333
    },
    {
      "cityName": "Chupuchupu",
      "lat": -9.8166667,
      "lng": 160.4
    },
    {
      "cityName": "Chuva",
      "lat": -9.5,
      "lng": 160.1833333
    },
    {
      "cityName": "Daboko",
      "lat": -9.3333333,
      "lng": 159.8333333
    },
    {
      "cityName": "Dada'isalu",
      "lat": -8.7,
      "lng": 160.7
    },
    {
      "cityName": "Dala",
      "lat": -8.5833333,
      "lng": 160.6666667
    },
    {
      "cityName": "Daringali",
      "lat": -8.5333333,
      "lng": 160.9166667
    },
    {
      "cityName": "Darione",
      "lat": -8.7,
      "lng": 160.8833333
    },
    {
      "cityName": "Dau",
      "lat": -8.6333333,
      "lng": 160.75
    },
    {
      "cityName": "Dauta'e",
      "lat": -8.9333333,
      "lng": 161.0666667
    },
    {
      "cityName": "Dende",
      "lat": -9.15,
      "lng": 160.2833333
    },
    {
      "cityName": "Dhadhaje",
      "lat": -8.5166667,
      "lng": 159.8
    },
    {
      "cityName": "Dhavoa",
      "lat": -9.4666667,
      "lng": 160.3666667
    },
    {
      "cityName": "Dinare",
      "lat": -9.1666667,
      "lng": 160.9166667
    },
    {
      "cityName": "Dingodingo",
      "lat": -8.75,
      "lng": 160.9
    },
    {
      "cityName": "Di'una",
      "lat": -10.35,
      "lng": 161.3
    },
    {
      "cityName": "Doma",
      "lat": -9.3166667,
      "lng": 159.8
    },
    {
      "cityName": "Dubona",
      "lat": -9.4833333,
      "lng": 159.6
    },
    {
      "cityName": "Duindui",
      "lat": -9.8,
      "lng": 159.9666667
    },
    {
      "cityName": "Dukwasi",
      "lat": -8.75,
      "lng": 160.85
    },
    {
      "cityName": "Eke",
      "lat": -9.3833333,
      "lng": 161.1833333
    },
    {
      "cityName": "Eliote",
      "lat": -9.5333333,
      "lng": 161.4
    },
    {
      "cityName": "Etamarorai",
      "lat": -10.2666667,
      "lng": 161.5333333
    },
    {
      "cityName": "'Eteala",
      "lat": -8.95,
      "lng": 161.0166667
    },
    {
      "cityName": "Etehonu",
      "lat": -9.2666667,
      "lng": 161.2166667
    },
    {
      "cityName": "Etei'a",
      "lat": -9.0666667,
      "lng": 161.2
    },
    {
      "cityName": "Euro",
      "lat": -9.7833333,
      "lng": 159.8166667
    },
    {
      "cityName": "Fa'asileta",
      "lat": -8.6666667,
      "lng": 160.9333333
    },
    {
      "cityName": "Fafa'idodo",
      "lat": -8.75,
      "lng": 160.8833333
    },
    {
      "cityName": "Fafa'ikafo",
      "lat": -8.6,
      "lng": 160.8
    },
    {
      "cityName": "Fagani",
      "lat": -10.3333333,
      "lng": 161.6166667
    },
    {
      "cityName": "Fageifa",
      "lat": -10.85,
      "lng": 162.35
    },
    {
      "cityName": "Falabulu",
      "lat": -8.8333333,
      "lng": 160.7333333
    },
    {
      "cityName": "Falufa'alu",
      "lat": -8.8666667,
      "lng": 160.7333333
    },
    {
      "cityName": "Fanuafalai",
      "lat": -8.9333333,
      "lng": 161.05
    },
    {
      "cityName": "Farisi",
      "lat": -8.9,
      "lng": 161.0666667
    },
    {
      "cityName": "Farumalaula",
      "lat": -8.8333333,
      "lng": 161.0333333
    },
    {
      "cityName": "Faua'ala",
      "lat": -8.8166667,
      "lng": 160.8166667
    },
    {
      "cityName": "Fauabu",
      "lat": -8.5666667,
      "lng": 160.7166667
    },
    {
      "cityName": "Faubala",
      "lat": -8.7666667,
      "lng": 160.8666667
    },
    {
      "cityName": "Faufalu",
      "lat": -8.8333333,
      "lng": 161.0166667
    },
    {
      "cityName": "Fauiolo",
      "lat": -8.75,
      "lng": 160.7166667
    },
    {
      "cityName": "Fauketa",
      "lat": -8.7333333,
      "lng": 160.85
    },
    {
      "cityName": "Faulaloia",
      "lat": -8.5333333,
      "lng": 160.75
    },
    {
      "cityName": "Faumamanu",
      "lat": -8.7666667,
      "lng": 160.9333333
    },
    {
      "cityName": "Faunikari",
      "lat": -8.6166667,
      "lng": 161
    },
    {
      "cityName": "Fausadio",
      "lat": -8.8666667,
      "lng": 160.7833333
    },
    {
      "cityName": "Ferafalu",
      "lat": -8.6666667,
      "lng": 160.95
    },
    {
      "cityName": "Feranaso",
      "lat": -8.55,
      "lng": 160.95
    },
    {
      "cityName": "Ferasi",
      "lat": -8.75,
      "lng": 160.9333333
    },
    {
      "cityName": "Fiu",
      "lat": -8.7166667,
      "lng": 160.6833333
    },
    {
      "cityName": "Fote",
      "lat": -8.6333333,
      "lng": 160.6666667
    },
    {
      "cityName": "Foulofo",
      "lat": -8.9833333,
      "lng": 161.15
    },
    {
      "cityName": "Fugu",
      "lat": -8.6166667,
      "lng": 160.8
    },
    {
      "cityName": "Fula",
      "lat": -8.9666667,
      "lng": 161.1666667
    },
    {
      "cityName": "Fuliabote",
      "lat": -8.6333333,
      "lng": 160.9666667
    },
    {
      "cityName": "Fulifata'a",
      "lat": -8.8,
      "lng": 160.8833333
    },
    {
      "cityName": "Fuligura",
      "lat": -8.7,
      "lng": 160.8333333
    },
    {
      "cityName": "Fulisango",
      "lat": -8.75,
      "lng": 160.7833333
    },
    {
      "cityName": "Fulo",
      "lat": -9.0833333,
      "lng": 160.8333333
    },
    {
      "cityName": "Funakuma",
      "lat": -10.8333333,
      "lng": 162.25
    },
    {
      "cityName": "Funiau",
      "lat": -8.8666667,
      "lng": 161.0333333
    },
    {
      "cityName": "Gagalu",
      "lat": -8.5833333,
      "lng": 160.9833333
    },
    {
      "cityName": "Gaimali",
      "lat": -9.4,
      "lng": 160.15
    },
    {
      "cityName": "Gaini Viti",
      "lat": -9.4833333,
      "lng": 160.45
    },
    {
      "cityName": "Galiatu",
      "lat": -9.8166667,
      "lng": 160.0833333
    },
    {
      "cityName": "Gareka",
      "lat": -9.15,
      "lng": 159.8333333
    },
    {
      "cityName": "Gavuhoho",
      "lat": -9.15,
      "lng": 160.2166667
    },
    {
      "cityName": "Gegenda",
      "lat": -9.5,
      "lng": 160.4166667
    },
    {
      "cityName": "Geigei",
      "lat": -10.7333333,
      "lng": 161.7666667
    },
    {
      "cityName": "Gembua",
      "lat": -9.5166667,
      "lng": 160.4333333
    },
    {
      "cityName": "Geta",
      "lat": -10.85,
      "lng": 162.3
    },
    {
      "cityName": "Ghaimanggere",
      "lat": -9.7833333,
      "lng": 160.2
    },
    {
      "cityName": "Ghairavu",
      "lat": -9.1166667,
      "lng": 160.2833333
    },
    {
      "cityName": "Ghalimbere",
      "lat": -9.7833333,
      "lng": 159.8333333
    },
    {
      "cityName": "Ghaningangao",
      "lat": -9.4333333,
      "lng": 159.6
    },
    {
      "cityName": "Gharina",
      "lat": -8.5333333,
      "lng": 159.6833333
    },
    {
      "cityName": "Ghauvalisi",
      "lat": -9.7333333,
      "lng": 159.8333333
    },
    {
      "cityName": "Ghavighanimumu",
      "lat": -9.5333333,
      "lng": 160.55
    },
    {
      "cityName": "Ghole",
      "lat": -9.1166667,
      "lng": 160.3833333
    },
    {
      "cityName": "Ghombaghoghoro",
      "lat": -9.7666667,
      "lng": 159.8333333
    },
    {
      "cityName": "Ghorambau",
      "lat": -9.4166667,
      "lng": 160.2333333
    },
    {
      "cityName": "Ghoroveitughu",
      "lat": -9.7833333,
      "lng": 160.1833333
    },
    {
      "cityName": "Ghoverighi",
      "lat": -9.55,
      "lng": 159.6333333
    },
    {
      "cityName": "Ghulavu",
      "lat": -9.3833333,
      "lng": 159.6
    },
    {
      "cityName": "Ghumba",
      "lat": -9.1833333,
      "lng": 160.2666667
    },
    {
      "cityName": "Ghumu",
      "lat": -9.5333333,
      "lng": 159.6166667
    },
    {
      "cityName": "Ghupuna",
      "lat": -10.8333333,
      "lng": 162.45
    },
    {
      "cityName": "Gilbert 1",
      "lat": -9.45,
      "lng": 159.9833333
    },
    {
      "cityName": "Gilumeuna",
      "lat": -9.8166667,
      "lng": 160.1
    },
    {
      "cityName": "Gold Ridge",
      "lat": -9.6,
      "lng": 160.1333333
    },
    {
      "cityName": "Guranja",
      "lat": -9.3833333,
      "lng": 159.8166667
    },
    {
      "cityName": "Gwai'akama",
      "lat": -8.7833333,
      "lng": 160.7666667
    },
    {
      "cityName": "Gwaiako",
      "lat": -8.7,
      "lng": 160.75
    },
    {
      "cityName": "Gwai'asai",
      "lat": -8.6833333,
      "lng": 160.7
    },
    {
      "cityName": "Gwa'idae",
      "lat": -8.65,
      "lng": 160.7666667
    },
    {
      "cityName": "Gwaigeo",
      "lat": -8.7,
      "lng": 160.6833333
    },
    {
      "cityName": "Gwa'ininiu",
      "lat": -8.6333333,
      "lng": 160.8166667
    },
    {
      "cityName": "Gwa'irade",
      "lat": -8.65,
      "lng": 160.8
    },
    {
      "cityName": "Gwa'irakwana",
      "lat": -8.7166667,
      "lng": 160.8333333
    },
    {
      "cityName": "Gwaunatafu",
      "lat": -8.5333333,
      "lng": 160.7166667
    },
    {
      "cityName": "Gwaunatala",
      "lat": -8.8,
      "lng": 160.8166667
    },
    {
      "cityName": "Haa",
      "lat": -9.0666667,
      "lng": 160.1833333
    },
    {
      "cityName": "Haarumou",
      "lat": -9.5166667,
      "lng": 161.3
    },
    {
      "cityName": "Hachogha",
      "lat": -9.8,
      "lng": 160.1666667
    },
    {
      "cityName": "Hada",
      "lat": -10.25,
      "lng": 161.2666667
    },
    {
      "cityName": "Hadja",
      "lat": -9.7833333,
      "lng": 161.9333333
    },
    {
      "cityName": "Haghalu",
      "lat": -9.0833333,
      "lng": 160.1666667
    },
    {
      "cityName": "Hagharuhe",
      "lat": -10.8,
      "lng": 161.9333333
    },
    {
      "cityName": "Haghela",
      "lat": -9.0166667,
      "lng": 160.1666667
    },
    {
      "cityName": "Hahietau",
      "lat": -9.45,
      "lng": 161.4166667
    },
    {
      "cityName": "Hahorarumu",
      "lat": -9.3,
      "lng": 161.1333333
    },
    {
      "cityName": "Hailalua",
      "lat": -9.5166667,
      "lng": 160
    },
    {
      "cityName": "Hailovo",
      "lat": -9.7333333,
      "lng": 160.3
    },
    {
      "cityName": "Hailupa",
      "lat": -9.4666667,
      "lng": 160.0666667
    },
    {
      "cityName": "Haimarao",
      "lat": -9.8666667,
      "lng": 160.4166667
    },
    {
      "cityName": "Haimatua",
      "lat": -9.85,
      "lng": 160.4166667
    },
    {
      "cityName": "Haimbau",
      "lat": -9.7,
      "lng": 160.3333333
    },
    {
      "cityName": "Haimela",
      "lat": -9.6833333,
      "lng": 160.25
    },
    {
      "cityName": "Haimolumolu",
      "lat": -9.8,
      "lng": 160.4166667
    },
    {
      "cityName": "Hainatogha",
      "lat": -9.7,
      "lng": 160.5833333
    },
    {
      "cityName": "Haiparia",
      "lat": -9.7,
      "lng": 160.2166667
    },
    {
      "cityName": "Hairi",
      "lat": -8.5166667,
      "lng": 159.6833333
    },
    {
      "cityName": "Haisighinia",
      "lat": -9.65,
      "lng": 160.35
    },
    {
      "cityName": "Haitete",
      "lat": -9.7166667,
      "lng": 160.3666667
    },
    {
      "cityName": "Haivoha",
      "lat": -9.7833333,
      "lng": 160.4
    },
    {
      "cityName": "Hakama",
      "lat": -9.1166667,
      "lng": 160.3
    },
    {
      "cityName": "Halahala",
      "lat": -9.8833333,
      "lng": 160.7833333
    },
    {
      "cityName": "Halavo",
      "lat": -9.1,
      "lng": 160.2
    },
    {
      "cityName": "Haleta",
      "lat": -9.0833333,
      "lng": 160.1166667
    },
    {
      "cityName": "Haliupai",
      "lat": -9.4166667,
      "lng": 159.6
    },
    {
      "cityName": "Hambunameka",
      "lat": -9.65,
      "lng": 160.3833333
    },
    {
      "cityName": "Hana'anaroho",
      "lat": -9.2833333,
      "lng": 161.0166667
    },
    {
      "cityName": "Hangataru",
      "lat": -10.1833333,
      "lng": 161.3166667
    },
    {
      "cityName": "Hanianawa",
      "lat": -9.2333333,
      "lng": 161.2333333
    },
    {
      "cityName": "Hanivaivine",
      "lat": -9.0833333,
      "lng": 160.3
    },
    {
      "cityName": "Hanjohapeule",
      "lat": -9.7666667,
      "lng": 160.35
    },
    {
      "cityName": "Hanua'apa",
      "lat": -9.3333333,
      "lng": 161.1833333
    },
    {
      "cityName": "Hanuasuu",
      "lat": -9.2,
      "lng": 161.25
    },
    {
      "cityName": "Hapai",
      "lat": -9.2666667,
      "lng": 161.0166667
    },
    {
      "cityName": "Harai",
      "lat": -9.45,
      "lng": 161.2333333
    },
    {
      "cityName": "Hara'ina",
      "lat": -9.7,
      "lng": 161.9333333
    },
    {
      "cityName": "Harea",
      "lat": -9.4333333,
      "lng": 161.3166667
    },
    {
      "cityName": "Harisiharihari",
      "lat": -9.2,
      "lng": 161.2
    },
    {
      "cityName": "Harisi",
      "lat": -9.15,
      "lng": 161.1666667
    },
    {
      "cityName": "Harisiu",
      "lat": -9.25,
      "lng": 161.0333333
    },
    {
      "cityName": "Haroro",
      "lat": -9.0166667,
      "lng": 160.1166667
    },
    {
      "cityName": "Hasupari",
      "lat": -9.4166667,
      "lng": 161.2166667
    },
    {
      "cityName": "Hatakau",
      "lat": -9.2333333,
      "lng": 161.1833333
    },
    {
      "cityName": "Hauharii",
      "lat": -9.25,
      "lng": 161.2
    },
    {
      "cityName": "Hauhato",
      "lat": -9.3,
      "lng": 161.1666667
    },
    {
      "cityName": "Hauhui",
      "lat": -9.2166667,
      "lng": 160.9666667
    },
    {
      "cityName": "Haukoukou",
      "lat": -9.2,
      "lng": 161.1666667
    },
    {
      "cityName": "Haumera",
      "lat": -9.85,
      "lng": 160.8
    },
    {
      "cityName": "Haupara",
      "lat": -9.2166667,
      "lng": 161.0166667
    },
    {
      "cityName": "Hauporomaea",
      "lat": -9.2833333,
      "lng": 161.0833333
    },
    {
      "cityName": "Hauraha",
      "lat": -10.7833333,
      "lng": 161.9666667
    },
    {
      "cityName": "Hautahe",
      "lat": -9.85,
      "lng": 160.8333333
    },
    {
      "cityName": "Havaruvu",
      "lat": -9.0333333,
      "lng": 160.2666667
    },
    {
      "cityName": "Herani'asuhe",
      "lat": -9.2666667,
      "lng": 161.0833333
    },
    {
      "cityName": "Heranihio",
      "lat": -9.35,
      "lng": 161.1666667
    },
    {
      "cityName": "Herepa'a",
      "lat": -9.45,
      "lng": 161.4
    },
    {
      "cityName": "Heuhonu",
      "lat": -9.55,
      "lng": 161.4666667
    },
    {
      "cityName": "Heupeine",
      "lat": -9.65,
      "lng": 161.4833333
    },
    {
      "cityName": "Heuru",
      "lat": -10.2,
      "lng": 161.4166667
    },
    {
      "cityName": "Hirihiriasi",
      "lat": -9.5166667,
      "lng": 161.2666667
    },
    {
      "cityName": "Hiuasi",
      "lat": -9.1,
      "lng": 161.2
    },
    {
      "cityName": "Hoilona",
      "lat": -9.65,
      "lng": 159.7
    },
    {
      "cityName": "Honiara",
      "lat": -9.4333333,
      "lng": 159.95
    },
    {
      "cityName": "Horanari",
      "lat": -9.3666667,
      "lng": 161.2333333
    },
    {
      "cityName": "Horokao",
      "lat": -9.3333333,
      "lng": 161.1166667
    },
    {
      "cityName": "Hote",
      "lat": -9.5333333,
      "lng": 161.4666667
    },
    {
      "cityName": "Houaha",
      "lat": -9.4,
      "lng": 161.2333333
    },
    {
      "cityName": "Houa",
      "lat": -9.7333333,
      "lng": 160.7666667
    },
    {
      "cityName": "Hou'ao",
      "lat": -9.0833333,
      "lng": 161.2
    },
    {
      "cityName": "Houhepa",
      "lat": -9.1,
      "lng": 161.1833333
    },
    {
      "cityName": "Houhou",
      "lat": -9.3333333,
      "lng": 161.1
    },
    {
      "cityName": "Houhouna",
      "lat": -9.8,
      "lng": 160.6333333
    },
    {
      "cityName": "Houkokore",
      "lat": -9.1666667,
      "lng": 161.2333333
    },
    {
      "cityName": "Houkona",
      "lat": -9.3166667,
      "lng": 161.0833333
    },
    {
      "cityName": "Houparoparo",
      "lat": -9.2166667,
      "lng": 161.2333333
    },
    {
      "cityName": "Houripipisu",
      "lat": -9.2,
      "lng": 161.2666667
    },
    {
      "cityName": "Houripou",
      "lat": -9.1666667,
      "lng": 161.2666667
    },
    {
      "cityName": "Houro'a",
      "lat": -9.2833333,
      "lng": 161.2
    },
    {
      "cityName": "Housuru",
      "lat": -9.3833333,
      "lng": 161.2
    },
    {
      "cityName": "Hu",
      "lat": -9.3,
      "lng": 161.1
    },
    {
      "cityName": "Huhuru",
      "lat": -9.4333333,
      "lng": 159.9333333
    },
    {
      "cityName": "Hulihale",
      "lat": -10.25,
      "lng": 161.7666667
    },
    {
      "cityName": "Hunahao",
      "lat": -9.4,
      "lng": 161.2
    },
    {
      "cityName": "Hunahau",
      "lat": -9.4,
      "lng": 161.1833333
    },
    {
      "cityName": "Hunanaawa",
      "lat": -9.4833333,
      "lng": 161.3666667
    },
    {
      "cityName": "Hunanahara",
      "lat": -9.3,
      "lng": 161.0833333
    },
    {
      "cityName": "Hunanapuru",
      "lat": -9.2666667,
      "lng": 161.0666667
    },
    {
      "cityName": "Hunihara",
      "lat": -9.3833333,
      "lng": 161.2166667
    },
    {
      "cityName": "Hunihu",
      "lat": -10.4666667,
      "lng": 161.5166667
    },
    {
      "cityName": "Hunimasi",
      "lat": -9.3,
      "lng": 161.1833333
    },
    {
      "cityName": "Huno Ramu",
      "lat": -10.5333333,
      "lng": 161.5333333
    },
    {
      "cityName": "Hunughu",
      "lat": -8.95,
      "lng": 160.0666667
    },
    {
      "cityName": "Hunuta",
      "lat": -10.2333333,
      "lng": 161.75
    },
    {
      "cityName": "Hurakaia",
      "lat": -9.2833333,
      "lng": 161.15
    },
    {
      "cityName": "Hure",
      "lat": -9.4666667,
      "lng": 161.4
    },
    {
      "cityName": "Hurihasu",
      "lat": -9.8666667,
      "lng": 160.8
    },
    {
      "cityName": "Huri'i",
      "lat": -9.4833333,
      "lng": 161.3333333
    },
    {
      "cityName": "Huro",
      "lat": -10.25,
      "lng": 161.35
    },
    {
      "cityName": "Huu",
      "lat": -9.4333333,
      "lng": 161.2166667
    },
    {
      "cityName": "Hu'umarere",
      "lat": -9.7833333,
      "lng": 160.8333333
    },
    {
      "cityName": "Iaru",
      "lat": -10.8,
      "lng": 162.05
    },
    {
      "cityName": "Igwa",
      "lat": -9.1666667,
      "lng": 160.8833333
    },
    {
      "cityName": "Ikupaara",
      "lat": -9.1,
      "lng": 161.1666667
    },
    {
      "cityName": "Inagau",
      "lat": -9.8,
      "lng": 160.0166667
    },
    {
      "cityName": "Ina Ghavigha",
      "lat": -9.8,
      "lng": 160.0333333
    },
    {
      "cityName": "Inahombe",
      "lat": -9.7833333,
      "lng": 160.2666667
    },
    {
      "cityName": "Ina Kala",
      "lat": -9.7833333,
      "lng": 160
    },
    {
      "cityName": "Inakona",
      "lat": -9.8166667,
      "lng": 160.0333333
    },
    {
      "cityName": "Ina Kongga",
      "lat": -9.7666667,
      "lng": 160.15
    },
    {
      "cityName": "Ina Maole",
      "lat": -9.8,
      "lng": 160
    },
    {
      "cityName": "Ina Mati",
      "lat": -9.7666667,
      "lng": 160.1666667
    },
    {
      "cityName": "Ina Mbombo",
      "lat": -9.7833333,
      "lng": 160.2166667
    },
    {
      "cityName": "Ione",
      "lat": -9.8666667,
      "lng": 160.8166667
    },
    {
      "cityName": "Iramarore",
      "lat": -9.2166667,
      "lng": 161.2166667
    },
    {
      "cityName": "Iremaea",
      "lat": -9.2,
      "lng": 161.2833333
    },
    {
      "cityName": "Iripaina",
      "lat": -9.3166667,
      "lng": 161.2333333
    },
    {
      "cityName": "Irowai",
      "lat": -9.2333333,
      "lng": 161.2
    },
    {
      "cityName": "Iruiru",
      "lat": -9.8,
      "lng": 159.8333333
    },
    {
      "cityName": "Isiisu",
      "lat": -9.5666667,
      "lng": 160.2666667
    },
    {
      "cityName": "Isipeni",
      "lat": -9.65,
      "lng": 160.5
    },
    {
      "cityName": "Isuisu",
      "lat": -9.8,
      "lng": 159.9333333
    },
    {
      "cityName": "Isunavara",
      "lat": -9.65,
      "lng": 159.6833333
    },
    {
      "cityName": "Kaanggua",
      "lat": -11.4666667,
      "lng": 160.0333333
    },
    {
      "cityName": "Kafo'elia",
      "lat": -8.6166667,
      "lng": 160.8833333
    },
    {
      "cityName": "Kafulafiu",
      "lat": -8.85,
      "lng": 160.9
    },
    {
      "cityName": "Kakake",
      "lat": -9.8166667,
      "lng": 160.0666667
    },
    {
      "cityName": "Kakalaa'ano",
      "lat": -8.5333333,
      "lng": 160.7666667
    },
    {
      "cityName": "Kakalambao",
      "lat": -9.6666667,
      "lng": 160.2166667
    },
    {
      "cityName": "Kakalao",
      "lat": -9.5,
      "lng": 160.2833333
    },
    {
      "cityName": "Kakambona",
      "lat": -9.4166667,
      "lng": 159.9166667
    },
    {
      "cityName": "Kakara",
      "lat": -8.5666667,
      "lng": 160.6833333
    },
    {
      "cityName": "Kakaro",
      "lat": -9.5666667,
      "lng": 160.5833333
    },
    {
      "cityName": "Kakendakena",
      "lat": -9.7333333,
      "lng": 160.5333333
    },
    {
      "cityName": "Kalaka",
      "lat": -9.15,
      "lng": 159.8
    },
    {
      "cityName": "Kalambisi",
      "lat": -9.7666667,
      "lng": 160.7166667
    },
    {
      "cityName": "Kalanggwata",
      "lat": -8.8666667,
      "lng": 160.75
    },
    {
      "cityName": "Kalenga",
      "lat": -8.55,
      "lng": 159.8333333
    },
    {
      "cityName": "Kaliala",
      "lat": -9.0166667,
      "lng": 160.2666667
    },
    {
      "cityName": "Kalibato",
      "lat": -9.8166667,
      "lng": 160.1666667
    },
    {
      "cityName": "Kalimai",
      "lat": -9.7,
      "lng": 161.95
    },
    {
      "cityName": "Kalima",
      "lat": -9.65,
      "lng": 160.4166667
    },
    {
      "cityName": "Kalona",
      "lat": -9.5666667,
      "lng": 161.5333333
    },
    {
      "cityName": "Kamanjikoko",
      "lat": -9.7833333,
      "lng": 160.5833333
    },
    {
      "cityName": "Kamoniboko",
      "lat": -9.7333333,
      "lng": 160.7166667
    },
    {
      "cityName": "Kaoka",
      "lat": -9.7,
      "lng": 160.6833333
    },
    {
      "cityName": "Kaokaona",
      "lat": -10.3833333,
      "lng": 161.7
    },
    {
      "cityName": "Kaonasughu",
      "lat": -10.4,
      "lng": 161.7666667
    },
    {
      "cityName": "Kaotave",
      "lat": -9.4333333,
      "lng": 160.2333333
    },
    {
      "cityName": "Kapeu",
      "lat": -9.8166667,
      "lng": 160.8333333
    },
    {
      "cityName": "Karinara",
      "lat": -9.3166667,
      "lng": 161.0666667
    },
    {
      "cityName": "Karokaro",
      "lat": -9.15,
      "lng": 161.15
    },
    {
      "cityName": "Karona",
      "lat": -9.15,
      "lng": 161.1833333
    },
    {
      "cityName": "Karukaru",
      "lat": -9.8833333,
      "lng": 160.55
    },
    {
      "cityName": "Karu'uu",
      "lat": -9.4833333,
      "lng": 161.4166667
    },
    {
      "cityName": "Kasaranga",
      "lat": -9.6333333,
      "lng": 159.65
    },
    {
      "cityName": "Kauchupuchupu",
      "lat": -9.7166667,
      "lng": 159.7833333
    },
    {
      "cityName": "Kau",
      "lat": -9.5,
      "lng": 159.5833333
    },
    {
      "cityName": "Kausa",
      "lat": -9.7833333,
      "lng": 160.35
    },
    {
      "cityName": "Kavahambe",
      "lat": -9.5333333,
      "lng": 160.1833333
    },
    {
      "cityName": "Kavoa",
      "lat": -9.8333333,
      "lng": 160.55
    },
    {
      "cityName": "Kavo",
      "lat": -9.7,
      "lng": 159.9833333
    },
    {
      "cityName": "Ke'ana",
      "lat": -8.9833333,
      "lng": 161.1666667
    },
    {
      "cityName": "Kekena",
      "lat": -9.4833333,
      "lng": 160.3
    },
    {
      "cityName": "Kelakwai",
      "lat": -8.7333333,
      "lng": 160.6666667
    },
    {
      "cityName": "Kelomari'i",
      "lat": -8.7,
      "lng": 160.7333333
    },
    {
      "cityName": "Kemane",
      "lat": -9.5833333,
      "lng": 159.7
    },
    {
      "cityName": "Kemba",
      "lat": -9.4,
      "lng": 159.8
    },
    {
      "cityName": "Keravuru",
      "lat": -9.4166667,
      "lng": 160.15
    },
    {
      "cityName": "Kerekoka",
      "lat": -9.4166667,
      "lng": 160.3666667
    },
    {
      "cityName": "Kerenapisi",
      "lat": -9.2166667,
      "lng": 161.1333333
    },
    {
      "cityName": "Kerepukavala",
      "lat": -9.7833333,
      "lng": 160.15
    },
    {
      "cityName": "Kesao",
      "lat": -9.25,
      "lng": 159.6666667
    },
    {
      "cityName": "Kesatamba",
      "lat": -9.85,
      "lng": 160.3833333
    },
    {
      "cityName": "Kicho",
      "lat": -9.45,
      "lng": 159.95
    },
    {
      "cityName": "Kikinocho",
      "lat": -9.8166667,
      "lng": 160
    },
    {
      "cityName": "Kilufi",
      "lat": -8.7333333,
      "lng": 160.6833333
    },
    {
      "cityName": "Kilusakwalo",
      "lat": -8.7166667,
      "lng": 160.7
    },
    {
      "cityName": "Kimbito",
      "lat": -9.5333333,
      "lng": 160.5166667
    },
    {
      "cityName": "Kioramo",
      "lat": -9.65,
      "lng": 160.6666667
    },
    {
      "cityName": "Kira",
      "lat": -9.3333333,
      "lng": 161.25
    },
    {
      "cityName": "Kirakira",
      "lat": -10.45,
      "lng": 161.9166667
    },
    {
      "cityName": "Kirighi",
      "lat": -9.1166667,
      "lng": 160.2666667
    },
    {
      "cityName": "Kiripaasu",
      "lat": -9.2,
      "lng": 161.2333333
    },
    {
      "cityName": "Koa",
      "lat": -8.6833333,
      "lng": 160.6833333
    },
    {
      "cityName": "Kochitoa",
      "lat": -9.75,
      "lng": 159.85
    },
    {
      "cityName": "Kochokocho",
      "lat": -9.7833333,
      "lng": 160.05
    },
    {
      "cityName": "Koela",
      "lat": -9.1166667,
      "lng": 159.7833333
    },
    {
      "cityName": "Koetungi",
      "lat": -9.7166667,
      "lng": 160.7
    },
    {
      "cityName": "Koghambugha",
      "lat": -9.75,
      "lng": 159.8
    },
    {
      "cityName": "Koilambu",
      "lat": -9.5833333,
      "lng": 160.6
    },
    {
      "cityName": "Koilosuimomoru",
      "lat": -9.6666667,
      "lng": 159.7166667
    },
    {
      "cityName": "Koilotumaria",
      "lat": -9.4666667,
      "lng": 160.4333333
    },
    {
      "cityName": "Koilovala",
      "lat": -9.1833333,
      "lng": 160.25
    },
    {
      "cityName": "Kokamau",
      "lat": -9.2666667,
      "lng": 159.65
    },
    {
      "cityName": "Kokepaku",
      "lat": -9.5333333,
      "lng": 160.5333333
    },
    {
      "cityName": "Kokoerata",
      "lat": -9.0166667,
      "lng": 161.2
    },
    {
      "cityName": "Kokoilo",
      "lat": -9.4166667,
      "lng": 159.85
    },
    {
      "cityName": "Kokolapa",
      "lat": -9.65,
      "lng": 160.15
    },
    {
      "cityName": "Kokomu",
      "lat": -9.4333333,
      "lng": 159.9833333
    },
    {
      "cityName": "Kokosuliseu",
      "lat": -9.6666667,
      "lng": 161.4333333
    },
    {
      "cityName": "Kolika",
      "lat": -9.15,
      "lng": 159.8166667
    },
    {
      "cityName": "Koli",
      "lat": -9.4,
      "lng": 160.1833333
    },
    {
      "cityName": "Kolina",
      "lat": -9.8,
      "lng": 159.9833333
    },
    {
      "cityName": "Kolochemba",
      "lat": -9.6333333,
      "lng": 160.5666667
    },
    {
      "cityName": "Kolochulu",
      "lat": -9.6166667,
      "lng": 160.3
    },
    {
      "cityName": "Kologhalivei",
      "lat": -9.8166667,
      "lng": 160.15
    },
    {
      "cityName": "Kologhona",
      "lat": -9.7166667,
      "lng": 159.8166667
    },
    {
      "cityName": "Kolohambusi",
      "lat": -9.6,
      "lng": 160.5166667
    },
    {
      "cityName": "Kolohaumbi",
      "lat": -9.8833333,
      "lng": 160.5166667
    },
    {
      "cityName": "Kolokapalu",
      "lat": -9.7166667,
      "lng": 160.3333333
    },
    {
      "cityName": "Kolokarako",
      "lat": -9.6333333,
      "lng": 160.3833333
    },
    {
      "cityName": "Kolokiki",
      "lat": -9.8166667,
      "lng": 160.1166667
    },
    {
      "cityName": "Kolokoko",
      "lat": -9.8166667,
      "lng": 160.35
    },
    {
      "cityName": "Kolombaleho",
      "lat": -9.7166667,
      "lng": 160.3
    },
    {
      "cityName": "Kolombora",
      "lat": -9.7,
      "lng": 160.3833333
    },
    {
      "cityName": "Kolonjiri",
      "lat": -9.75,
      "lng": 160.7333333
    },
    {
      "cityName": "Kolotita",
      "lat": -9.7666667,
      "lng": 160.6333333
    },
    {
      "cityName": "Kolovaolu",
      "lat": -9.9166667,
      "lng": 160.65
    },
    {
      "cityName": "Kolovatuniura",
      "lat": -9.6666667,
      "lng": 160.6
    },
    {
      "cityName": "Kolovelo",
      "lat": -9.8166667,
      "lng": 160.7666667
    },
    {
      "cityName": "Kolovuluvulu",
      "lat": -9.7333333,
      "lng": 160.5833333
    },
    {
      "cityName": "Kolutoha",
      "lat": -9.4166667,
      "lng": 159.9
    },
    {
      "cityName": "Komambulu",
      "lat": -9.3333333,
      "lng": 159.6
    },
    {
      "cityName": "Komate",
      "lat": -9.7833333,
      "lng": 159.8833333
    },
    {
      "cityName": "Kombe",
      "lat": -9.1,
      "lng": 160.35
    },
    {
      "cityName": "Kombi",
      "lat": -9.7,
      "lng": 159.7666667
    },
    {
      "cityName": "Komindi",
      "lat": -9.4333333,
      "lng": 160.1833333
    },
    {
      "cityName": "Komoto",
      "lat": -9.7,
      "lng": 160.65
    },
    {
      "cityName": "Komovaolo",
      "lat": -9.9166667,
      "lng": 160.5833333
    },
    {
      "cityName": "Komughavea",
      "lat": -9.45,
      "lng": 160.25
    },
    {
      "cityName": "Komu'isia",
      "lat": -9.8166667,
      "lng": 160.8833333
    },
    {
      "cityName": "Komukama",
      "lat": -9.5166667,
      "lng": 160.3
    },
    {
      "cityName": "Komukea",
      "lat": -9.4166667,
      "lng": 160.25
    },
    {
      "cityName": "Komukomu",
      "lat": -9.6666667,
      "lng": 159.7333333
    },
    {
      "cityName": "Komukusua",
      "lat": -9.7333333,
      "lng": 160.6
    },
    {
      "cityName": "Komumarara",
      "lat": -8.9666667,
      "lng": 160.0833333
    },
    {
      "cityName": "Komuna",
      "lat": -9.7166667,
      "lng": 160.5833333
    },
    {
      "cityName": "Komuniao",
      "lat": -9.6,
      "lng": 160.2833333
    },
    {
      "cityName": "Komunighogha",
      "lat": -9.5333333,
      "lng": 160.3166667
    },
    {
      "cityName": "Komunihaka",
      "lat": -9.5,
      "lng": 161.25
    },
    {
      "cityName": "Komunihara",
      "lat": -9.8,
      "lng": 160.7833333
    },
    {
      "cityName": "Komunikoa",
      "lat": -9.8166667,
      "lng": 160.8166667
    },
    {
      "cityName": "Komunima'angga",
      "lat": -9.65,
      "lng": 160.65
    },
    {
      "cityName": "Komunimala",
      "lat": -9.4333333,
      "lng": 160.3833333
    },
    {
      "cityName": "Komunimbambasa",
      "lat": -9.65,
      "lng": 160.55
    },
    {
      "cityName": "Komunimboko",
      "lat": -9.5333333,
      "lng": 160.5
    },
    {
      "cityName": "Komunimbolo",
      "lat": -9.6333333,
      "lng": 160.5333333
    },
    {
      "cityName": "Komunisambaha",
      "lat": -9.65,
      "lng": 160.5333333
    },
    {
      "cityName": "Komunivele",
      "lat": -9.4166667,
      "lng": 160.1666667
    },
    {
      "cityName": "Komurarata",
      "lat": -9.4333333,
      "lng": 160.2833333
    },
    {
      "cityName": "Komureo",
      "lat": -9.5166667,
      "lng": 160.1
    },
    {
      "cityName": "Komusondu",
      "lat": -9.6166667,
      "lng": 160.6333333
    },
    {
      "cityName": "Komuvadha",
      "lat": -9.4666667,
      "lng": 160.2333333
    },
    {
      "cityName": "Kondodhau",
      "lat": -9.55,
      "lng": 160.5833333
    },
    {
      "cityName": "Kondovele",
      "lat": -9.2666667,
      "lng": 159.7333333
    },
    {
      "cityName": "Kongga",
      "lat": -9.4833333,
      "lng": 160.1166667
    },
    {
      "cityName": "Konggau",
      "lat": -9.6333333,
      "lng": 159.6666667
    },
    {
      "cityName": "Konggulai",
      "lat": -9.4333333,
      "lng": 159.9166667
    },
    {
      "cityName": "Koo",
      "lat": -9.7833333,
      "lng": 160.0166667
    },
    {
      "cityName": "Kopau",
      "lat": -9.5166667,
      "lng": 159.5833333
    },
    {
      "cityName": "Koraga",
      "lat": -9.7166667,
      "lng": 159.7166667
    },
    {
      "cityName": "Korambu",
      "lat": -9.4,
      "lng": 160.35
    },
    {
      "cityName": "Korasa",
      "lat": -9.55,
      "lng": 160.3166667
    },
    {
      "cityName": "Korikasike",
      "lat": -9.5,
      "lng": 160.0666667
    },
    {
      "cityName": "Korombusu",
      "lat": -9.4833333,
      "lng": 160.4666667
    },
    {
      "cityName": "Korove",
      "lat": -9.4166667,
      "lng": 160.35
    },
    {
      "cityName": "Kosarara",
      "lat": -9.5166667,
      "lng": 159.6166667
    },
    {
      "cityName": "Kosikosi",
      "lat": -9.7666667,
      "lng": 160.2333333
    },
    {
      "cityName": "Kosipo",
      "lat": -9.6833333,
      "lng": 159.7666667
    },
    {
      "cityName": "Koso",
      "lat": -9.5333333,
      "lng": 160
    },
    {
      "cityName": "Kotaoa",
      "lat": -9.35,
      "lng": 159.6
    },
    {
      "cityName": "Kotatave",
      "lat": -9.4833333,
      "lng": 159.6166667
    },
    {
      "cityName": "Kuekue",
      "lat": -9.7166667,
      "lng": 159.8
    },
    {
      "cityName": "Kuikuilu",
      "lat": -9.1333333,
      "lng": 159.7833333
    },
    {
      "cityName": "Kulu",
      "lat": -9.4166667,
      "lng": 160.3166667
    },
    {
      "cityName": "Kumanakati",
      "lat": -9.7166667,
      "lng": 160.4
    },
    {
      "cityName": "Kumotu",
      "lat": -9.6833333,
      "lng": 159.7
    },
    {
      "cityName": "Kumundi",
      "lat": -9.5,
      "lng": 160.45
    },
    {
      "cityName": "Kundale",
      "lat": -9.7,
      "lng": 160.2333333
    },
    {
      "cityName": "Kunokuno",
      "lat": -9.05,
      "lng": 161.0833333
    },
    {
      "cityName": "Kunura",
      "lat": -8.85,
      "lng": 160.7833333
    },
    {
      "cityName": "Kuraisau",
      "lat": -9.8333333,
      "lng": 160.85
    },
    {
      "cityName": "Kuru",
      "lat": -9.45,
      "lng": 160.3666667
    },
    {
      "cityName": "Kusumba",
      "lat": -9.5833333,
      "lng": 159.7166667
    },
    {
      "cityName": "Kuva Kei",
      "lat": -9.75,
      "lng": 160.3833333
    },
    {
      "cityName": "Kuvamiti",
      "lat": -9.7,
      "lng": 160.6166667
    },
    {
      "cityName": "Kwa'a",
      "lat": -9.0166667,
      "lng": 160.8
    },
    {
      "cityName": "Kwaiaroaro",
      "lat": -8.8333333,
      "lng": 160.9166667
    },
    {
      "cityName": "Kwai",
      "lat": -8.75,
      "lng": 160.95
    },
    {
      "cityName": "Kwailaua",
      "lat": -8.7666667,
      "lng": 160.85
    },
    {
      "cityName": "Kwaimae",
      "lat": -8.75,
      "lng": 160.7
    },
    {
      "cityName": "Kwaimbaambaala",
      "lat": -8.8833333,
      "lng": 161.0333333
    },
    {
      "cityName": "Kwainaketo",
      "lat": -8.7833333,
      "lng": 160.7
    },
    {
      "cityName": "Kwalakwala",
      "lat": -8.85,
      "lng": 160.9833333
    },
    {
      "cityName": "Kwao",
      "lat": -8.8833333,
      "lng": 161.1
    },
    {
      "cityName": "Lache",
      "lat": -9.6666667,
      "lng": 161.45
    },
    {
      "cityName": "Laghira",
      "lat": -9.45,
      "lng": 160.2
    },
    {
      "cityName": "Lalalo",
      "lat": -8.9,
      "lng": 161.0833333
    },
    {
      "cityName": "Lalao",
      "lat": -9.5833333,
      "lng": 160.2666667
    },
    {
      "cityName": "Lali",
      "lat": -9.55,
      "lng": 160.1666667
    },
    {
      "cityName": "Laloato",
      "lat": -9.8,
      "lng": 160.25
    },
    {
      "cityName": "Laloe'efou",
      "lat": -8.9333333,
      "lng": 161.0333333
    },
    {
      "cityName": "Lamaa",
      "lat": -8.6833333,
      "lng": 160.85
    },
    {
      "cityName": "Lambungasi",
      "lat": -9.6,
      "lng": 159.6833333
    },
    {
      "cityName": "Lame",
      "lat": -9.6166667,
      "lng": 160.2833333
    },
    {
      "cityName": "Langgo",
      "lat": -9.15,
      "lng": 160.35
    },
    {
      "cityName": "Larimbaolo",
      "lat": -8.8333333,
      "lng": 160.9
    },
    {
      "cityName": "Latina",
      "lat": -9.7833333,
      "lng": 160.7166667
    },
    {
      "cityName": "Lauhavigha",
      "lat": -9.65,
      "lng": 160.3
    },
    {
      "cityName": "Laulambeti",
      "lat": -9.7333333,
      "lng": 160.3166667
    },
    {
      "cityName": "Lauvi",
      "lat": -9.8833333,
      "lng": 160.4333333
    },
    {
      "cityName": "Lavuro",
      "lat": -9.3166667,
      "lng": 159.6
    },
    {
      "cityName": "Lea'angeange",
      "lat": -8.6833333,
      "lng": 160.9
    },
    {
      "cityName": "Leche",
      "lat": -9.6166667,
      "lng": 161.5666667
    },
    {
      "cityName": "Leitango",
      "lat": -9,
      "lng": 160.0666667
    },
    {
      "cityName": "Leleola",
      "lat": -9.7833333,
      "lng": 159.9333333
    },
    {
      "cityName": "Lenggalei",
      "lat": -9.4166667,
      "lng": 160.1333333
    },
    {
      "cityName": "Leovatu",
      "lat": -9.6666667,
      "lng": 160.5666667
    },
    {
      "cityName": "Levuka",
      "lat": -9.8,
      "lng": 160.2166667
    },
    {
      "cityName": "Lilisiana",
      "lat": -8.7666667,
      "lng": 160.6833333
    },
    {
      "cityName": "Liwe",
      "lat": -9.65,
      "lng": 161.4666667
    },
    {
      "cityName": "Lochatana",
      "lat": -9.8166667,
      "lng": 160.05
    },
    {
      "cityName": "Loghasia",
      "lat": -9.75,
      "lng": 160.1333333
    },
    {
      "cityName": "Loimboro",
      "lat": -9.4666667,
      "lng": 160.3333333
    },
    {
      "cityName": "Lololo",
      "lat": -8.5833333,
      "lng": 160.9666667
    },
    {
      "cityName": "Longapolo",
      "lat": -9.1833333,
      "lng": 160.35
    },
    {
      "cityName": "Lo'ombola",
      "lat": -8.9166667,
      "lng": 161.0333333
    },
    {
      "cityName": "Lughuvasa",
      "lat": -9.7833333,
      "lng": 160.6333333
    },
    {
      "cityName": "Lugunabuli",
      "lat": -9.5166667,
      "lng": 160.4833333
    },
    {
      "cityName": "Lumu",
      "lat": -9.6333333,
      "lng": 160.65
    },
    {
      "cityName": "Lunga",
      "lat": -9.4166667,
      "lng": 160.0333333
    },
    {
      "cityName": "Lungua",
      "lat": -8.8833333,
      "lng": 160.0166667
    },
    {
      "cityName": "Luvuna",
      "lat": -9.65,
      "lng": 160.25
    },
    {
      "cityName": "Ma'ara'ara",
      "lat": -9.2833333,
      "lng": 161.0666667
    },
    {
      "cityName": "Maariki",
      "lat": -9.5,
      "lng": 161.3833333
    },
    {
      "cityName": "Maariwai",
      "lat": -9.3833333,
      "lng": 161.1666667
    },
    {
      "cityName": "Maasupa",
      "lat": -9.2833333,
      "lng": 161.25
    },
    {
      "cityName": "Madoa",
      "lat": -9.7666667,
      "lng": 161.9166667
    },
    {
      "cityName": "Maghati",
      "lat": -9.8,
      "lng": 160.2
    },
    {
      "cityName": "Mahuto",
      "lat": -9.4,
      "lng": 161.3666667
    },
    {
      "cityName": "Maisinirae",
      "lat": -9.3666667,
      "lng": 161.1666667
    },
    {
      "cityName": "Maka",
      "lat": -9.6,
      "lng": 161.4
    },
    {
      "cityName": "Makana",
      "lat": -9.6166667,
      "lng": 160.3166667
    },
    {
      "cityName": "Makanapeo",
      "lat": -9.7333333,
      "lng": 160.2833333
    },
    {
      "cityName": "Makaruka",
      "lat": -9.75,
      "lng": 160.6
    },
    {
      "cityName": "Makarukar",
      "lat": -9.9166667,
      "lng": 160.55
    },
    {
      "cityName": "Makina",
      "lat": -9.8333333,
      "lng": 160.8166667
    },
    {
      "cityName": "Makorukoru",
      "lat": -10.8166667,
      "lng": 162.2333333
    },
    {
      "cityName": "Malagwasu",
      "lat": -8.7166667,
      "lng": 160.85
    },
    {
      "cityName": "Malanjoru",
      "lat": -9.8166667,
      "lng": 160.6666667
    },
    {
      "cityName": "Malatoha",
      "lat": -9.4833333,
      "lng": 160.0666667
    },
    {
      "cityName": "Maliali",
      "lat": -9.0666667,
      "lng": 160.1333333
    },
    {
      "cityName": "Malitawaniuhu",
      "lat": -10.35,
      "lng": 161.6333333
    },
    {
      "cityName": "Malohu",
      "lat": -9.6666667,
      "lng": 160.3
    },
    {
      "cityName": "Malosu",
      "lat": -9.5166667,
      "lng": 160.0166667
    },
    {
      "cityName": "Malou",
      "lat": -8.9666667,
      "lng": 161.15
    },
    {
      "cityName": "Maluka",
      "lat": -9.4166667,
      "lng": 160.1166667
    },
    {
      "cityName": "Malukuna",
      "lat": -9.6166667,
      "lng": 160.0333333
    },
    {
      "cityName": "Mamako",
      "lat": -10.8833333,
      "lng": 162.45
    },
    {
      "cityName": "Mamalade",
      "lat": -8.8,
      "lng": 160.7666667
    },
    {
      "cityName": "Mamara",
      "lat": -9.4,
      "lng": 159.8833333
    },
    {
      "cityName": "Mamatoa",
      "lat": -9.15,
      "lng": 161.1166667
    },
    {
      "cityName": "Mami",
      "lat": -10.8333333,
      "lng": 162.35
    },
    {
      "cityName": "Mamui",
      "lat": -9.2666667,
      "lng": 161.25
    },
    {
      "cityName": "Mamulele",
      "lat": -8.7833333,
      "lng": 160.9166667
    },
    {
      "cityName": "Manaba",
      "lat": -9.0666667,
      "lng": 160.8166667
    },
    {
      "cityName": "Manakia",
      "lat": -10.5166667,
      "lng": 162.0666667
    },
    {
      "cityName": "Manchuki",
      "lat": -10.45,
      "lng": 161.8666667
    },
    {
      "cityName": "Maneade",
      "lat": -10.55,
      "lng": 162.1333333
    },
    {
      "cityName": "Manegohere",
      "lat": -10.6166667,
      "lng": 162.0666667
    },
    {
      "cityName": "Maneoura",
      "lat": -10.3,
      "lng": 161.3666667
    },
    {
      "cityName": "Manevovo",
      "lat": -10.8166667,
      "lng": 162.1833333
    },
    {
      "cityName": "Manewaro",
      "lat": -10.3166667,
      "lng": 161.5833333
    },
    {
      "cityName": "Manewiriwiri",
      "lat": -10.4833333,
      "lng": 161.9833333
    },
    {
      "cityName": "Manganakao",
      "lat": -9.5666667,
      "lng": 159.65
    },
    {
      "cityName": "Mangapahu",
      "lat": -9.5666667,
      "lng": 159.9666667
    },
    {
      "cityName": "Manggautu",
      "lat": -11.4166667,
      "lng": 159.9666667
    },
    {
      "cityName": "Maniate",
      "lat": -10.4833333,
      "lng": 162.0333333
    },
    {
      "cityName": "Manibokosi",
      "lat": -10.6833333,
      "lng": 162.2666667
    },
    {
      "cityName": "Manigai",
      "lat": -10.5666667,
      "lng": 161.85
    },
    {
      "cityName": "Manihauhau",
      "lat": -9.25,
      "lng": 161.2333333
    },
    {
      "cityName": "Manihauni",
      "lat": -9.2666667,
      "lng": 161.2
    },
    {
      "cityName": "Manihinua",
      "lat": -10.4833333,
      "lng": 161.85
    },
    {
      "cityName": "Manihusi",
      "lat": -9.3166667,
      "lng": 161.1833333
    },
    {
      "cityName": "Mani'iira",
      "lat": -9.1833333,
      "lng": 161.2
    },
    {
      "cityName": "Manikiriu",
      "lat": -9.0666667,
      "lng": 161.1666667
    },
    {
      "cityName": "Maniota",
      "lat": -9.1333333,
      "lng": 161.1833333
    },
    {
      "cityName": "Mannu",
      "lat": -8.6,
      "lng": 160.9833333
    },
    {
      "cityName": "Manoroti",
      "lat": -9.1333333,
      "lng": 160.8666667
    },
    {
      "cityName": "Manuagere",
      "lat": -10.3,
      "lng": 161.25
    },
    {
      "cityName": "Maoro",
      "lat": -8.8333333,
      "lng": 160.7666667
    },
    {
      "cityName": "Maosiri",
      "lat": -9.25,
      "lng": 161.2166667
    },
    {
      "cityName": "Maoto",
      "lat": -9.1666667,
      "lng": 161.1833333
    },
    {
      "cityName": "Mapahisi",
      "lat": -9.45,
      "lng": 161.25
    },
    {
      "cityName": "Marahovi",
      "lat": -9.6333333,
      "lng": 160.55
    },
    {
      "cityName": "Marahuiraramua",
      "lat": -9.4,
      "lng": 161.2166667
    },
    {
      "cityName": "Marahu",
      "lat": -9.35,
      "lng": 161.15
    },
    {
      "cityName": "Maranu'u",
      "lat": -10.2,
      "lng": 161.4
    },
    {
      "cityName": "Maraone",
      "lat": -10.6,
      "lng": 161.8833333
    },
    {
      "cityName": "Maraoni",
      "lat": -10.8,
      "lng": 162
    },
    {
      "cityName": "Marapona",
      "lat": -9.65,
      "lng": 161.4166667
    },
    {
      "cityName": "Marararo",
      "lat": -9.25,
      "lng": 161.05
    },
    {
      "cityName": "Marasa",
      "lat": -9.75,
      "lng": 159.7833333
    },
    {
      "cityName": "Marata",
      "lat": -9.3333333,
      "lng": 161.2333333
    },
    {
      "cityName": "Marau",
      "lat": -9.8166667,
      "lng": 160.85
    },
    {
      "cityName": "Maraunia",
      "lat": -9.7166667,
      "lng": 160.75
    },
    {
      "cityName": "Maravovo",
      "lat": -9.2833333,
      "lng": 159.6333333
    },
    {
      "cityName": "Maroghu",
      "lat": -10.6333333,
      "lng": 161.6333333
    },
    {
      "cityName": "Marou",
      "lat": -9.4666667,
      "lng": 161.4666667
    },
    {
      "cityName": "Maro'umasike",
      "lat": -9.3166667,
      "lng": 161.25
    },
    {
      "cityName": "Marui",
      "lat": -9.4166667,
      "lng": 160.1833333
    },
    {
      "cityName": "Maruiraru",
      "lat": -9.3,
      "lng": 161.0666667
    },
    {
      "cityName": "Maruitaro",
      "lat": -9.3,
      "lng": 161.0333333
    },
    {
      "cityName": "Marumu",
      "lat": -9.4833333,
      "lng": 161.25
    },
    {
      "cityName": "Marupo",
      "lat": -9.2833333,
      "lng": 161.2166667
    },
    {
      "cityName": "Masiu",
      "lat": -9.2666667,
      "lng": 161.0333333
    },
    {
      "cityName": "Masugologo",
      "lat": -9.9,
      "lng": 160.55
    },
    {
      "cityName": "Matahenua",
      "lat": -11.2833333,
      "lng": 159.7833333
    },
    {
      "cityName": "Matakachi",
      "lat": -9.65,
      "lng": 159.6666667
    },
    {
      "cityName": "Matanaso",
      "lat": -9.7666667,
      "lng": 159.9
    },
    {
      "cityName": "Matangga",
      "lat": -9.6666667,
      "lng": 160.25
    },
    {
      "cityName": "Matango",
      "lat": -9.7166667,
      "lng": 160.7333333
    },
    {
      "cityName": "Matanikao",
      "lat": -9.4333333,
      "lng": 159.9666667
    },
    {
      "cityName": "Matari",
      "lat": -9.4166667,
      "lng": 161.2333333
    },
    {
      "cityName": "Matasere",
      "lat": -9.5666667,
      "lng": 159.6333333
    },
    {
      "cityName": "Matlava",
      "lat": -9.9,
      "lng": 160.7166667
    },
    {
      "cityName": "Mavaina",
      "lat": -9.8,
      "lng": 160.3833333
    },
    {
      "cityName": "Mawa",
      "lat": -9.0666667,
      "lng": 160.8
    },
    {
      "cityName": "Mbakua",
      "lat": -9.7333333,
      "lng": 160.6166667
    },
    {
      "cityName": "Mbalafai",
      "lat": -8.8166667,
      "lng": 160.9333333
    },
    {
      "cityName": "Mbalola",
      "lat": -9.1,
      "lng": 159.8
    },
    {
      "cityName": "Mbambandeha",
      "lat": -9.6666667,
      "lng": 160.1166667
    },
    {
      "cityName": "Mbambareilonga",
      "lat": -9.4333333,
      "lng": 159.85
    },
    {
      "cityName": "Mbambasu",
      "lat": -9.7,
      "lng": 160.7166667
    },
    {
      "cityName": "Mbaole",
      "lat": -9.6166667,
      "lng": 160.1
    },
    {
      "cityName": "Mbarakongga",
      "lat": -9.9166667,
      "lng": 160.6666667
    },
    {
      "cityName": "Mbarambou",
      "lat": -9.4666667,
      "lng": 160.1833333
    },
    {
      "cityName": "Mbarana",
      "lat": -9.4666667,
      "lng": 159.9666667
    },
    {
      "cityName": "Mbaranasia",
      "lat": -9.6166667,
      "lng": 160.6166667
    },
    {
      "cityName": "Mbazo",
      "lat": -9.1,
      "lng": 159.8333333
    },
    {
      "cityName": "Mbea",
      "lat": -9.4833333,
      "lng": 160.3166667
    },
    {
      "cityName": "Mbeghovila",
      "lat": -9.55,
      "lng": 160.25
    },
    {
      "cityName": "Mbeghovuvudha",
      "lat": -9.5666667,
      "lng": 160.3666667
    },
    {
      "cityName": "Mbelaha",
      "lat": -9.4833333,
      "lng": 160.0333333
    },
    {
      "cityName": "Mbelambela",
      "lat": -9.7833333,
      "lng": 160.2333333
    },
    {
      "cityName": "Mbelapita",
      "lat": -9.7666667,
      "lng": 160.6
    },
    {
      "cityName": "Mbelasara",
      "lat": -9.45,
      "lng": 160.4166667
    },
    {
      "cityName": "Mberechoa",
      "lat": -9.9,
      "lng": 160.5333333
    },
    {
      "cityName": "Mbetilonga",
      "lat": -9.55,
      "lng": 159.9833333
    },
    {
      "cityName": "Mbetini",
      "lat": -9.5833333,
      "lng": 160.5833333
    },
    {
      "cityName": "Mbetivaolu",
      "lat": -9.45,
      "lng": 160
    },
    {
      "cityName": "Mboeni",
      "lat": -9.5333333,
      "lng": 160.4666667
    },
    {
      "cityName": "Mboko",
      "lat": -9.6333333,
      "lng": 160.6666667
    },
    {
      "cityName": "Mbola",
      "lat": -9.1333333,
      "lng": 160.2333333
    },
    {
      "cityName": "Mbona",
      "lat": -9.1,
      "lng": 160.8333333
    },
    {
      "cityName": "Mboranaho",
      "lat": -9.7166667,
      "lng": 160.4833333
    },
    {
      "cityName": "Mbuasavia",
      "lat": -9.7833333,
      "lng": 160.55
    },
    {
      "cityName": "Mbughetu",
      "lat": -9.6666667,
      "lng": 160.5333333
    },
    {
      "cityName": "Mbulo",
      "lat": -9.5833333,
      "lng": 160.6166667
    },
    {
      "cityName": "Mbuluminjua",
      "lat": -9.5166667,
      "lng": 160.0666667
    },
    {
      "cityName": "Mbumbualala",
      "lat": -9.6166667,
      "lng": 160.4333333
    },
    {
      "cityName": "Mbumbukembe",
      "lat": -9.65,
      "lng": 160.4
    },
    {
      "cityName": "Mbumbukolo",
      "lat": -9.7,
      "lng": 160.4
    },
    {
      "cityName": "Mbumbumaraho",
      "lat": -9.6166667,
      "lng": 160.4666667
    },
    {
      "cityName": "Mbumbupanapana",
      "lat": -9.7166667,
      "lng": 160.6333333
    },
    {
      "cityName": "Mbumbutasi",
      "lat": -9.6333333,
      "lng": 160.3666667
    },
    {
      "cityName": "Mbu'ombu'o",
      "lat": -8.95,
      "lng": 161.1166667
    },
    {
      "cityName": "Mbuturua",
      "lat": -9.85,
      "lng": 160.5166667
    },
    {
      "cityName": "Menighagha",
      "lat": -9.4833333,
      "lng": 160.35
    },
    {
      "cityName": "Mereka",
      "lat": -9.0333333,
      "lng": 160.0833333
    },
    {
      "cityName": "Moira",
      "lat": -8.8166667,
      "lng": 160.95
    },
    {
      "cityName": "Moli",
      "lat": -9.7166667,
      "lng": 161.9666667
    },
    {
      "cityName": "Momolu",
      "lat": -9.45,
      "lng": 160.1833333
    },
    {
      "cityName": "Mongga",
      "lat": -9.5666667,
      "lng": 159.6666667
    },
    {
      "cityName": "Monggo",
      "lat": -8.55,
      "lng": 159.8666667
    },
    {
      "cityName": "Mota",
      "lat": -9.75,
      "lng": 161.9666667
    },
    {
      "cityName": "Motombulu",
      "lat": -9.4166667,
      "lng": 160.05
    },
    {
      "cityName": "Mwaniache",
      "lat": -9.6666667,
      "lng": 161.5666667
    },
    {
      "cityName": "Mwanimaoru",
      "lat": -10.4666667,
      "lng": 161.85
    },
    {
      "cityName": "Mwanipua",
      "lat": -10.2833333,
      "lng": 161.7666667
    },
    {
      "cityName": "Mwarada",
      "lat": -9.8,
      "lng": 161.9333333
    },
    {
      "cityName": "Mwarairaru",
      "lat": -10.8,
      "lng": 162.2666667
    },
    {
      "cityName": "Naana",
      "lat": -10.65,
      "lng": 162.2
    },
    {
      "cityName": "Na Chei",
      "lat": -9.8666667,
      "lng": 160.6
    },
    {
      "cityName": "Nafinotoga",
      "lat": -10.85,
      "lng": 162.4666667
    },
    {
      "cityName": "Nafinua",
      "lat": -8.7333333,
      "lng": 160.9166667
    },
    {
      "cityName": "Naganea",
      "lat": -10.6166667,
      "lng": 162.15
    },
    {
      "cityName": "Naghatare",
      "lat": -10.5333333,
      "lng": 162.1
    },
    {
      "cityName": "Naghighi",
      "lat": -10.6,
      "lng": 162.1333333
    },
    {
      "cityName": "Nagho",
      "lat": -9.0333333,
      "lng": 160.1166667
    },
    {
      "cityName": "Naghotano",
      "lat": -8.9,
      "lng": 159.9666667
    },
    {
      "cityName": "Nahahau",
      "lat": -10.5166667,
      "lng": 162.1166667
    },
    {
      "cityName": "Na Haimbau",
      "lat": -9.7,
      "lng": 160.4833333
    },
    {
      "cityName": "Na Hambu",
      "lat": -9.8,
      "lng": 160.5
    },
    {
      "cityName": "Na Homba",
      "lat": -9.9,
      "lng": 160.5666667
    },
    {
      "cityName": "Naho",
      "lat": -9.8833333,
      "lng": 160.5
    },
    {
      "cityName": "Na Kambi",
      "lat": -9.7,
      "lng": 160.3666667
    },
    {
      "cityName": "Na Kili",
      "lat": -9.9333333,
      "lng": 160.6
    },
    {
      "cityName": "Na Koilo",
      "lat": -9.75,
      "lng": 160.4833333
    },
    {
      "cityName": "Na Kongga",
      "lat": -9.8666667,
      "lng": 160.5166667
    },
    {
      "cityName": "Nakuhu",
      "lat": -10.5666667,
      "lng": 162.15
    },
    {
      "cityName": "Na Kule",
      "lat": -9.85,
      "lng": 160.4333333
    },
    {
      "cityName": "Na Kuma",
      "lat": -9.8,
      "lng": 160.65
    },
    {
      "cityName": "Nakutei",
      "lat": -10.4833333,
      "lng": 161.8666667
    },
    {
      "cityName": "Na Lame",
      "lat": -9.7666667,
      "lng": 160.3333333
    },
    {
      "cityName": "Nala",
      "lat": -9.6166667,
      "lng": 160
    },
    {
      "cityName": "Nalitata",
      "lat": -9.5166667,
      "lng": 160.1166667
    },
    {
      "cityName": "Namakohigho",
      "lat": -10.5333333,
      "lng": 162.0166667
    },
    {
      "cityName": "Namarako",
      "lat": -8.8833333,
      "lng": 160.7666667
    },
    {
      "cityName": "Namarango",
      "lat": -10.5,
      "lng": 162.0333333
    },
    {
      "cityName": "Namasi",
      "lat": -10.6333333,
      "lng": 162.05
    },
    {
      "cityName": "Namaturi",
      "lat": -10.6166667,
      "lng": 162.05
    },
    {
      "cityName": "Na Mbakero",
      "lat": -9.6833333,
      "lng": 160.2666667
    },
    {
      "cityName": "Nambare",
      "lat": -9,
      "lng": 161.0333333
    },
    {
      "cityName": "Na Mboneta",
      "lat": -9.8,
      "lng": 160.7
    },
    {
      "cityName": "Na Mbulonggato",
      "lat": -9.7833333,
      "lng": 160.6833333
    },
    {
      "cityName": "Namoanabaola",
      "lat": -8.7166667,
      "lng": 160.7166667
    },
    {
      "cityName": "Namoirora",
      "lat": -9.1333333,
      "lng": 161.0833333
    },
    {
      "cityName": "Namonahote",
      "lat": -9.2666667,
      "lng": 161.1166667
    },
    {
      "cityName": "Namo Na Kerengandi",
      "lat": -9.7333333,
      "lng": 160.35
    },
    {
      "cityName": "Namonambosa",
      "lat": -9.6666667,
      "lng": 160.2666667
    },
    {
      "cityName": "Namongali",
      "lat": -9.35,
      "lng": 159.8166667
    },
    {
      "cityName": "Namosambagha",
      "lat": -9.7333333,
      "lng": 159.9
    },
    {
      "cityName": "Namosina",
      "lat": -8.7166667,
      "lng": 160.8833333
    },
    {
      "cityName": "Nanakeni",
      "lat": -8.9333333,
      "lng": 161.0833333
    },
    {
      "cityName": "Nanepe",
      "lat": -10.6666667,
      "lng": 162.1333333
    },
    {
      "cityName": "Na Nggeu",
      "lat": -9.7666667,
      "lng": 160.7
    },
    {
      "cityName": "Na'onatala",
      "lat": -8.8666667,
      "lng": 161.0666667
    },
    {
      "cityName": "Na Palulu",
      "lat": -9.7333333,
      "lng": 160.5166667
    },
    {
      "cityName": "Naparaohau",
      "lat": -10.6,
      "lng": 162.1666667
    },
    {
      "cityName": "Naparaoinawa",
      "lat": -10.5,
      "lng": 162.1
    },
    {
      "cityName": "Naparasusu",
      "lat": -10.65,
      "lng": 162.1333333
    },
    {
      "cityName": "Napasiwai",
      "lat": -10.8333333,
      "lng": 162.1
    },
    {
      "cityName": "Na Poli",
      "lat": -9.7833333,
      "lng": 160.5666667
    },
    {
      "cityName": "Narano",
      "lat": -10.5833333,
      "lng": 162.1333333
    },
    {
      "cityName": "Narihasi",
      "lat": -9.4833333,
      "lng": 161.2666667
    },
    {
      "cityName": "Narioriori",
      "lat": -9.4666667,
      "lng": 161.4166667
    },
    {
      "cityName": "Narohei",
      "lat": -10.75,
      "lng": 161.8333333
    },
    {
      "cityName": "Naro",
      "lat": -9.3,
      "lng": 159.6166667
    },
    {
      "cityName": "Naruka",
      "lat": -10.8333333,
      "lng": 162.3166667
    },
    {
      "cityName": "Nasuragena",
      "lat": -10.7833333,
      "lng": 162.2666667
    },
    {
      "cityName": "Natagere",
      "lat": -10.8333333,
      "lng": 162.4833333
    },
    {
      "cityName": "Nata",
      "lat": -9.0833333,
      "lng": 160.2166667
    },
    {
      "cityName": "Na Tita",
      "lat": -9.8333333,
      "lng": 160.4
    },
    {
      "cityName": "Na Vatali",
      "lat": -9.8833333,
      "lng": 160.5666667
    },
    {
      "cityName": "Na Vaundalo",
      "lat": -9.7,
      "lng": 160.5666667
    },
    {
      "cityName": "Na Vila",
      "lat": -9.6333333,
      "lng": 160.4333333
    },
    {
      "cityName": "Na Vura",
      "lat": -9.6833333,
      "lng": 160.2833333
    },
    {
      "cityName": "Naworihu",
      "lat": -10.5166667,
      "lng": 162.1
    },
    {
      "cityName": "Na Wosi",
      "lat": -10.7333333,
      "lng": 161.8
    },
    {
      "cityName": "Ndala",
      "lat": -9.0333333,
      "lng": 160.1
    },
    {
      "cityName": "Ndandae",
      "lat": -9.55,
      "lng": 160.2833333
    },
    {
      "cityName": "Ndandala",
      "lat": -9.15,
      "lng": 160.2666667
    },
    {
      "cityName": "Ndaulahasi",
      "lat": -9.8,
      "lng": 160.8
    },
    {
      "cityName": "Nene Pungupungu",
      "lat": -9.4333333,
      "lng": 160.45
    },
    {
      "cityName": "New Chiri",
      "lat": -9.4333333,
      "lng": 159.8166667
    },
    {
      "cityName": "New Mbambaraho",
      "lat": -9.6333333,
      "lng": 160.4833333
    },
    {
      "cityName": "New Tenambuti",
      "lat": -9.5,
      "lng": 160.3666667
    },
    {
      "cityName": "Ngada'ifiu",
      "lat": -8.8166667,
      "lng": 160.9166667
    },
    {
      "cityName": "Ngadefiu",
      "lat": -8.7833333,
      "lng": 160.7166667
    },
    {
      "cityName": "Ngaimambulumbu",
      "lat": -9.5,
      "lng": 159.6166667
    },
    {
      "cityName": "Ngaliabu",
      "lat": -8.6833333,
      "lng": 160.7166667
    },
    {
      "cityName": "Ngaliae",
      "lat": -9.6833333,
      "lng": 160.65
    },
    {
      "cityName": "Ngalikasiu",
      "lat": -9.3166667,
      "lng": 159.7833333
    },
    {
      "cityName": "Ngalikomba",
      "lat": -9.4166667,
      "lng": 160.2833333
    },
    {
      "cityName": "Ngalikonare",
      "lat": -8.65,
      "lng": 160.85
    },
    {
      "cityName": "Ngalimarasa",
      "lat": -9.8,
      "lng": 160.3
    },
    {
      "cityName": "Ngalimera",
      "lat": -9.45,
      "lng": 160.1333333
    },
    {
      "cityName": "Ngalinggonu",
      "lat": -9.7833333,
      "lng": 159.9833333
    },
    {
      "cityName": "Ngalipeule",
      "lat": -9.8166667,
      "lng": 160.1333333
    },
    {
      "cityName": "Ngaliturara",
      "lat": -9.7833333,
      "lng": 160.0666667
    },
    {
      "cityName": "Ngalivungambau",
      "lat": -9.7333333,
      "lng": 160.3666667
    },
    {
      "cityName": "Ngalivuria",
      "lat": -9.8166667,
      "lng": 160.1833333
    },
    {
      "cityName": "Ngaria'ura",
      "lat": -10.3166667,
      "lng": 161.3666667
    },
    {
      "cityName": "Ngautu",
      "lat": -9.2666667,
      "lng": 159.6333333
    },
    {
      "cityName": "Nggaulai'ato'o",
      "lat": -8.9166667,
      "lng": 160.9333333
    },
    {
      "cityName": "Nggesa",
      "lat": -9.5166667,
      "lng": 160.3833333
    },
    {
      "cityName": "Nggeukama",
      "lat": -9.4166667,
      "lng": 160
    },
    {
      "cityName": "Nggonopoto",
      "lat": -9.4166667,
      "lng": 159.9333333
    },
    {
      "cityName": "Ngguluvoa",
      "lat": -9.7333333,
      "lng": 159.8
    },
    {
      "cityName": "Nggumu",
      "lat": -9.05,
      "lng": 160.2166667
    },
    {
      "cityName": "Nggwaunaire",
      "lat": -8.95,
      "lng": 161.0666667
    },
    {
      "cityName": "Nggwaunaloi",
      "lat": -8.85,
      "lng": 160.8
    },
    {
      "cityName": "Ngongosila",
      "lat": -8.7666667,
      "lng": 160.95
    },
    {
      "cityName": "Ngorangora",
      "lat": -10.4333333,
      "lng": 161.8833333
    },
    {
      "cityName": "Ni'ina",
      "lat": -9.2333333,
      "lng": 161.05
    },
    {
      "cityName": "Nimaniaihura",
      "lat": -9.3833333,
      "lng": 161.3
    },
    {
      "cityName": "Nitauhi",
      "lat": -9.45,
      "lng": 161.4333333
    },
    {
      "cityName": "Niughaghalo",
      "lat": -8.9833333,
      "lng": 160.1166667
    },
    {
      "cityName": "Niumakani",
      "lat": -9.6666667,
      "lng": 160.4833333
    },
    {
      "cityName": "Niu Pilesi",
      "lat": -9.6333333,
      "lng": 161.4666667
    },
    {
      "cityName": "Njeilao",
      "lat": -9.3666667,
      "lng": 159.7833333
    },
    {
      "cityName": "Noroiru",
      "lat": -9.2833333,
      "lng": 161.05
    },
    {
      "cityName": "Noronaho",
      "lat": -9.4333333,
      "lng": 161.2333333
    },
    {
      "cityName": "Noto",
      "lat": -9.8833333,
      "lng": 160.4833333
    },
    {
      "cityName": "Nuhu",
      "lat": -9.3666667,
      "lng": 159.5833333
    },
    {
      "cityName": "Numbu",
      "lat": -9.5,
      "lng": 160.3333333
    },
    {
      "cityName": "Nunu'asi",
      "lat": -9.4666667,
      "lng": 161.35
    },
    {
      "cityName": "Nunughu",
      "lat": -9.4833333,
      "lng": 160.4166667
    },
    {
      "cityName": "Nunulafa",
      "lat": -8.6666667,
      "lng": 160.85
    },
    {
      "cityName": "Oa",
      "lat": -9.9,
      "lng": 160.7333333
    },
    {
      "cityName": "Oau",
      "lat": -9.4333333,
      "lng": 161.4
    },
    {
      "cityName": "Ohena",
      "lat": -9.35,
      "lng": 161.2333333
    },
    {
      "cityName": "Ohumae",
      "lat": -9.3333333,
      "lng": 161.1333333
    },
    {
      "cityName": "Oiamaama",
      "lat": -9.1166667,
      "lng": 161.2166667
    },
    {
      "cityName": "Oiawaa",
      "lat": -9.4166667,
      "lng": 161.2
    },
    {
      "cityName": "Oi'eke",
      "lat": -9.1833333,
      "lng": 161.2333333
    },
    {
      "cityName": "Oiniha'a",
      "lat": -9.1666667,
      "lng": 161.1166667
    },
    {
      "cityName": "Oio",
      "lat": -9.1,
      "lng": 161.2166667
    },
    {
      "cityName": "Oipuru",
      "lat": -9.3666667,
      "lng": 161.1833333
    },
    {
      "cityName": "Oirousu",
      "lat": -9.1666667,
      "lng": 161.0833333
    },
    {
      "cityName": "Oitomu",
      "lat": -9.3,
      "lng": 161.2333333
    },
    {
      "cityName": "Okeoke",
      "lat": -10.5833333,
      "lng": 161.9
    },
    {
      "cityName": "Okiani",
      "lat": -9.4166667,
      "lng": 161.4166667
    },
    {
      "cityName": "Old Case",
      "lat": -9.55,
      "lng": 160.15
    },
    {
      "cityName": "Old Chuva",
      "lat": -9.5166667,
      "lng": 160.1833333
    },
    {
      "cityName": "Old Haimatua",
      "lat": -9.85,
      "lng": 160.4
    },
    {
      "cityName": "Oloha",
      "lat": -9.7,
      "lng": 161.5166667
    },
    {
      "cityName": "Olokesi",
      "lat": -9.5666667,
      "lng": 160.6
    },
    {
      "cityName": "Olomburi",
      "lat": -8.9833333,
      "lng": 161.1333333
    },
    {
      "cityName": "Omba",
      "lat": -9.4666667,
      "lng": 160.1333333
    },
    {
      "cityName": "Onebia",
      "lat": -10.3166667,
      "lng": 161.35
    },
    {
      "cityName": "Onehatare",
      "lat": -10.35,
      "lng": 161.45
    },
    {
      "cityName": "Onemae",
      "lat": -8.7166667,
      "lng": 160.6666667
    },
    {
      "cityName": "Onggaongga",
      "lat": -9.6833333,
      "lng": 160.5333333
    },
    {
      "cityName": "'Onggou",
      "lat": -8.8333333,
      "lng": 160.9666667
    },
    {
      "cityName": "O'omatawa",
      "lat": -9.6166667,
      "lng": 161.45
    },
    {
      "cityName": "O'o",
      "lat": -9.4833333,
      "lng": 161.4
    },
    {
      "cityName": "Ootenimae",
      "lat": -9.3,
      "lng": 161.1166667
    },
    {
      "cityName": "'Opo'opo",
      "lat": -9.3,
      "lng": 161.05
    },
    {
      "cityName": "Osinakaro",
      "lat": -9.8833333,
      "lng": 160.65
    },
    {
      "cityName": "Oteiora",
      "lat": -9.3666667,
      "lng": 161.2833333
    },
    {
      "cityName": "Ote",
      "lat": -9.6333333,
      "lng": 161.55
    },
    {
      "cityName": "Ote'ote",
      "lat": -9.2166667,
      "lng": 161
    },
    {
      "cityName": "Paa",
      "lat": -10.4833333,
      "lng": 162.0833333
    },
    {
      "cityName": "Paarai",
      "lat": -9.1166667,
      "lng": 161.1833333
    },
    {
      "cityName": "Paena",
      "lat": -9.1166667,
      "lng": 161.2333333
    },
    {
      "cityName": "Palasu'u",
      "lat": -9.7166667,
      "lng": 161.5333333
    },
    {
      "cityName": "Palolu",
      "lat": -8.95,
      "lng": 160.05
    },
    {
      "cityName": "Pamua",
      "lat": -10.4,
      "lng": 161.7333333
    },
    {
      "cityName": "Panatina",
      "lat": -9.4333333,
      "lng": 160
    },
    {
      "cityName": "Panuha",
      "lat": -10.7,
      "lng": 161.6833333
    },
    {
      "cityName": "Papalaha",
      "lat": -9.6166667,
      "lng": 161.55
    },
    {
      "cityName": "Papipao",
      "lat": -9.5333333,
      "lng": 160.3666667
    },
    {
      "cityName": "Para'akai",
      "lat": -9.0333333,
      "lng": 161.1666667
    },
    {
      "cityName": "Pare'omane",
      "lat": -9.2333333,
      "lng": 161.0166667
    },
    {
      "cityName": "Parina",
      "lat": -9.6,
      "lng": 160.1666667
    },
    {
      "cityName": "Pasifatoga",
      "lat": -10.85,
      "lng": 162.3333333
    },
    {
      "cityName": "Patura",
      "lat": -9.6333333,
      "lng": 160.5166667
    },
    {
      "cityName": "Paura",
      "lat": -9.1166667,
      "lng": 161.2
    },
    {
      "cityName": "Pauro",
      "lat": -9.1666667,
      "lng": 161.25
    },
    {
      "cityName": "Pelekea",
      "lat": -9.8,
      "lng": 160.6166667
    },
    {
      "cityName": "Peonakake",
      "lat": -9.8833333,
      "lng": 160.6833333
    },
    {
      "cityName": "Peonavula",
      "lat": -9.8666667,
      "lng": 160.6666667
    },
    {
      "cityName": "Pere'oi",
      "lat": -9.1333333,
      "lng": 161.2166667
    },
    {
      "cityName": "Piatarau",
      "lat": -9.1166667,
      "lng": 161.1
    },
    {
      "cityName": "Pichahila",
      "lat": -9.8666667,
      "lng": 160.55
    },
    {
      "cityName": "Pilo",
      "lat": -8.5333333,
      "lng": 159.8166667
    },
    {
      "cityName": "Pinau",
      "lat": -9.7166667,
      "lng": 160.6166667
    },
    {
      "cityName": "Poepoe",
      "lat": -9.0333333,
      "lng": 161.2
    },
    {
      "cityName": "Poinanggela",
      "lat": -9.6166667,
      "lng": 160.15
    },
    {
      "cityName": "Poponaia",
      "lat": -9.1666667,
      "lng": 161.15
    },
    {
      "cityName": "Popona'ire",
      "lat": -9.1166667,
      "lng": 161.1666667
    },
    {
      "cityName": "Potani'uu",
      "lat": -9.45,
      "lng": 161.3333333
    },
    {
      "cityName": "Po'u",
      "lat": -9.5333333,
      "lng": 161.5
    },
    {
      "cityName": "Pui",
      "lat": -9.5166667,
      "lng": 160.3333333
    },
    {
      "cityName": "Pululaha",
      "lat": -9.6333333,
      "lng": 161.4
    },
    {
      "cityName": "Pulu",
      "lat": -9.5166667,
      "lng": 161.5
    },
    {
      "cityName": "Pupuanakeni",
      "lat": -9.8,
      "lng": 160.8166667
    },
    {
      "cityName": "Puputa",
      "lat": -9.4666667,
      "lng": 160.35
    },
    {
      "cityName": "Purakiki",
      "lat": -9.8666667,
      "lng": 160.7833333
    },
    {
      "cityName": "Puralava",
      "lat": -9.7833333,
      "lng": 160.75
    },
    {
      "cityName": "Puratao",
      "lat": -9.7833333,
      "lng": 160.3333333
    },
    {
      "cityName": "Pwe'u",
      "lat": -9.6666667,
      "lng": 161.5166667
    },
    {
      "cityName": "Raa",
      "lat": -10.75,
      "lng": 161.8166667
    },
    {
      "cityName": "Rabu",
      "lat": -9.5,
      "lng": 160.4666667
    },
    {
      "cityName": "Rabuta",
      "lat": -8.7833333,
      "lng": 160.9
    },
    {
      "cityName": "Radefasu",
      "lat": -8.8166667,
      "lng": 160.7166667
    },
    {
      "cityName": "Raeao",
      "lat": -9.1333333,
      "lng": 161.2
    },
    {
      "cityName": "Ragapu",
      "lat": -10.8833333,
      "lng": 162.4333333
    },
    {
      "cityName": "Rambunggaula",
      "lat": -9.7,
      "lng": 160.7
    },
    {
      "cityName": "Ramoma'ini",
      "lat": -9.5,
      "lng": 161.2666667
    },
    {
      "cityName": "Raputete",
      "lat": -9.15,
      "lng": 161.2166667
    },
    {
      "cityName": "Rarafata",
      "lat": -8.7333333,
      "lng": 160.9
    },
    {
      "cityName": "Rara",
      "lat": -9,
      "lng": 160.2333333
    },
    {
      "cityName": "Rararo",
      "lat": -9.4333333,
      "lng": 161.3833333
    },
    {
      "cityName": "Raria'oa",
      "lat": -9.15,
      "lng": 161.2
    },
    {
      "cityName": "Rata",
      "lat": -9.2333333,
      "lng": 161.25
    },
    {
      "cityName": "Ratei",
      "lat": -9.1333333,
      "lng": 161.1166667
    },
    {
      "cityName": "Rau'e'eta",
      "lat": -9.3333333,
      "lng": 161.2
    },
    {
      "cityName": "Raukerere",
      "lat": -9.7,
      "lng": 159.7
    },
    {
      "cityName": "Raurasua",
      "lat": -9.3166667,
      "lng": 161.2166667
    },
    {
      "cityName": "Rautalu",
      "lat": -9.55,
      "lng": 160.4333333
    },
    {
      "cityName": "Ravu",
      "lat": -8.95,
      "lng": 160.1
    },
    {
      "cityName": "Ravu Sondu Ulu",
      "lat": -8.9666667,
      "lng": 160.1166667
    },
    {
      "cityName": "Riimairuu",
      "lat": -9.1833333,
      "lng": 161
    },
    {
      "cityName": "Ripo",
      "lat": -9.7666667,
      "lng": 161.9333333
    },
    {
      "cityName": "Riverside",
      "lat": -9.5833333,
      "lng": 161.4166667
    },
    {
      "cityName": "Roapu",
      "lat": -9.65,
      "lng": 161.5666667
    },
    {
      "cityName": "Rokai",
      "lat": -8.7333333,
      "lng": 161
    },
    {
      "cityName": "Rongokwere",
      "lat": -8.5333333,
      "lng": 160.8666667
    },
    {
      "cityName": "Rongoleilei",
      "lat": -9.7333333,
      "lng": 161.9666667
    },
    {
      "cityName": "Roone",
      "lat": -9.6,
      "lng": 161.55
    },
    {
      "cityName": "Rorongo",
      "lat": -9.5666667,
      "lng": 161.4666667
    },
    {
      "cityName": "Roroni",
      "lat": -9.45,
      "lng": 160.2333333
    },
    {
      "cityName": "Rota",
      "lat": -9.7166667,
      "lng": 161.55
    },
    {
      "cityName": "Ruavatu",
      "lat": -9.4666667,
      "lng": 160.4
    },
    {
      "cityName": "Rumahui",
      "lat": -10.3166667,
      "lng": 161.2666667
    },
    {
      "cityName": "Rumatari",
      "lat": -10.4833333,
      "lng": 162.1
    },
    {
      "cityName": "Saa Mission",
      "lat": -9.7166667,
      "lng": 161.5833333
    },
    {
      "cityName": "Sabonau",
      "lat": -9.7833333,
      "lng": 159.85
    },
    {
      "cityName": "Saghavua",
      "lat": -9.7833333,
      "lng": 160.1
    },
    {
      "cityName": "Sahasahakama",
      "lat": -9.6,
      "lng": 160.0833333
    },
    {
      "cityName": "Sakosi",
      "lat": -8.55,
      "lng": 160.9
    },
    {
      "cityName": "Salamarao",
      "lat": -9.6833333,
      "lng": 160.3666667
    },
    {
      "cityName": "Salesapa",
      "lat": -9.1166667,
      "lng": 160.35
    },
    {
      "cityName": "Samaria",
      "lat": -8.5166667,
      "lng": 160.85
    },
    {
      "cityName": "Sambani",
      "lat": -8.8666667,
      "lng": 160
    },
    {
      "cityName": "Sanggasere",
      "lat": -9.9,
      "lng": 160.7
    },
    {
      "cityName": "Sani Lae",
      "lat": -9.6166667,
      "lng": 160.55
    },
    {
      "cityName": "Sani Lumu",
      "lat": -9.5833333,
      "lng": 160.55
    },
    {
      "cityName": "Saofura",
      "lat": -8.8166667,
      "lng": 160.8
    },
    {
      "cityName": "Sape",
      "lat": -9.45,
      "lng": 160.15
    },
    {
      "cityName": "Sarawasi",
      "lat": -9.55,
      "lng": 161.4
    },
    {
      "cityName": "Sauri",
      "lat": -9.8,
      "lng": 160.3166667
    },
    {
      "cityName": "Sava",
      "lat": -9.9,
      "lng": 160.75
    },
    {
      "cityName": "Savekau",
      "lat": -9.7833333,
      "lng": 160.7833333
    },
    {
      "cityName": "Savolo",
      "lat": -9.6333333,
      "lng": 160.3
    },
    {
      "cityName": "Seve",
      "lat": -9.55,
      "lng": 160.5666667
    },
    {
      "cityName": "Siarana",
      "lat": -9.1666667,
      "lng": 160.2166667
    },
    {
      "cityName": "Siarara",
      "lat": -9.2833333,
      "lng": 161.1166667
    },
    {
      "cityName": "Sighosapa",
      "lat": -9.1,
      "lng": 159.7833333
    },
    {
      "cityName": "Siinamuo",
      "lat": -9.0166667,
      "lng": 161.1666667
    },
    {
      "cityName": "Sinalanggu",
      "lat": -8.8833333,
      "lng": 161.0833333
    },
    {
      "cityName": "Singgilia",
      "lat": -9.7,
      "lng": 160.6666667
    },
    {
      "cityName": "Siodjuru",
      "lat": -9.7666667,
      "lng": 161.9666667
    },
    {
      "cityName": "Siota Mission",
      "lat": -9.05,
      "lng": 160.3166667
    },
    {
      "cityName": "Siro",
      "lat": -8.9833333,
      "lng": 160.0666667
    },
    {
      "cityName": "Sita",
      "lat": -8.8166667,
      "lng": 160.7333333
    },
    {
      "cityName": "Soghati",
      "lat": -9.6,
      "lng": 159.7333333
    },
    {
      "cityName": "Soso",
      "lat": -8.9,
      "lng": 160.0166667
    },
    {
      "cityName": "Su'ena",
      "lat": -10.2166667,
      "lng": 161.7333333
    },
    {
      "cityName": "Suhu",
      "lat": -9.7833333,
      "lng": 160.8166667
    },
    {
      "cityName": "Suilonggolonggo",
      "lat": -9.7166667,
      "lng": 160.35
    },
    {
      "cityName": "Sukiki",
      "lat": -9.9333333,
      "lng": 160.6166667
    },
    {
      "cityName": "Suliliu",
      "lat": -8.9333333,
      "lng": 160.7333333
    },
    {
      "cityName": "Sunahavi",
      "lat": -9.6,
      "lng": 160
    },
    {
      "cityName": "Sunasau",
      "lat": -10.2833333,
      "lng": 161.75
    },
    {
      "cityName": "Sungina",
      "lat": -9.5,
      "lng": 160.05
    },
    {
      "cityName": "Suputovu",
      "lat": -9.5833333,
      "lng": 160.3
    },
    {
      "cityName": "Suramani",
      "lat": -9.2,
      "lng": 161.15
    },
    {
      "cityName": "Suruaharau",
      "lat": -10.3333333,
      "lng": 161.4166667
    },
    {
      "cityName": "Susu",
      "lat": -9.5333333,
      "lng": 160.5666667
    },
    {
      "cityName": "Suumatahu",
      "lat": -9.8166667,
      "lng": 160.8
    },
    {
      "cityName": "Suunanila",
      "lat": -8.55,
      "lng": 160.6833333
    },
    {
      "cityName": "Suurawa",
      "lat": -9.2,
      "lng": 161.2166667
    },
    {
      "cityName": "Su'uri'i",
      "lat": -9.6,
      "lng": 161.3833333
    },
    {
      "cityName": "Su'u",
      "lat": -9.1666667,
      "lng": 160.9333333
    },
    {
      "cityName": "Suva",
      "lat": -8.55,
      "lng": 159.85
    },
    {
      "cityName": "Ta'alulolo",
      "lat": -8.9,
      "lng": 160.75
    },
    {
      "cityName": "Tabaa",
      "lat": -8.7333333,
      "lng": 160.8666667
    },
    {
      "cityName": "Taba",
      "lat": -9.2666667,
      "lng": 159.6666667
    },
    {
      "cityName": "Ta'eri'ara",
      "lat": -9.1666667,
      "lng": 161.1666667
    },
    {
      "cityName": "Tafukoe",
      "lat": -8.5166667,
      "lng": 160.9
    },
    {
      "cityName": "Tagatalau",
      "lat": -8.7333333,
      "lng": 160.7333333
    },
    {
      "cityName": "Tagongga",
      "lat": -9.4666667,
      "lng": 159.6166667
    },
    {
      "cityName": "Taheramo",
      "lat": -9.7166667,
      "lng": 161.95
    },
    {
      "cityName": "Takamboro",
      "lat": -9.2833333,
      "lng": 159.75
    },
    {
      "cityName": "Takatakati",
      "lat": -9.7,
      "lng": 159.7166667
    },
    {
      "cityName": "Takopikopi",
      "lat": -9.1,
      "lng": 160.2333333
    },
    {
      "cityName": "Talaura",
      "lat": -9.4,
      "lng": 160.2833333
    },
    {
      "cityName": "Taloa",
      "lat": -9.7166667,
      "lng": 159.7666667
    },
    {
      "cityName": "Tamami",
      "lat": -9.5333333,
      "lng": 159.6
    },
    {
      "cityName": "Tambakokomu",
      "lat": -9.4166667,
      "lng": 160.0166667
    },
    {
      "cityName": "Tambalia",
      "lat": -9.2833333,
      "lng": 159.7333333
    },
    {
      "cityName": "Tambelusu",
      "lat": -9.55,
      "lng": 160.1833333
    },
    {
      "cityName": "Tambili",
      "lat": -9.7833333,
      "lng": 160.1166667
    },
    {
      "cityName": "Tambunambulo",
      "lat": -9.8333333,
      "lng": 160.4833333
    },
    {
      "cityName": "Tametame",
      "lat": -10.5,
      "lng": 162.05
    },
    {
      "cityName": "Tanamo",
      "lat": -9.7,
      "lng": 160.1833333
    },
    {
      "cityName": "Tanapoi",
      "lat": -9.6833333,
      "lng": 160.2333333
    },
    {
      "cityName": "Tanatete",
      "lat": -9.6833333,
      "lng": 160.2
    },
    {
      "cityName": "Tapa'atewa",
      "lat": -9.6,
      "lng": 161.4333333
    },
    {
      "cityName": "Taraoto",
      "lat": -10.7166667,
      "lng": 161.7666667
    },
    {
      "cityName": "Tarosi",
      "lat": -10.2,
      "lng": 161.3166667
    },
    {
      "cityName": "Tasisi",
      "lat": -8.5166667,
      "lng": 160.8666667
    },
    {
      "cityName": "Tasi",
      "lat": -9.5833333,
      "lng": 160.0166667
    },
    {
      "cityName": "Tasule",
      "lat": -9.6833333,
      "lng": 159.7333333
    },
    {
      "cityName": "Tatamba",
      "lat": -9.7666667,
      "lng": 160.6833333
    },
    {
      "cityName": "Tatatu",
      "lat": -9.5833333,
      "lng": 160.35
    },
    {
      "cityName": "Tavulea",
      "lat": -9.0833333,
      "lng": 160.35
    },
    {
      "cityName": "Tavutisakai",
      "lat": -9.5666667,
      "lng": 160.3166667
    },
    {
      "cityName": "Tawahaule",
      "lat": -9.6833333,
      "lng": 161.5
    },
    {
      "cityName": "Tawaiabu",
      "lat": -10.2,
      "lng": 161.2833333
    },
    {
      "cityName": "Tawai Mare",
      "lat": -9.2,
      "lng": 160.9666667
    },
    {
      "cityName": "Tawainupu",
      "lat": -9.1333333,
      "lng": 161.1666667
    },
    {
      "cityName": "Tawairoi",
      "lat": -9.6,
      "lng": 161.3666667
    },
    {
      "cityName": "Tawanaora",
      "lat": -9.3666667,
      "lng": 161.3
    },
    {
      "cityName": "Tawanisitoo",
      "lat": -9.7666667,
      "lng": 160.8166667
    },
    {
      "cityName": "Tawani",
      "lat": -10.45,
      "lng": 161.9333333
    },
    {
      "cityName": "Tawaraha",
      "lat": -10.35,
      "lng": 161.4333333
    },
    {
      "cityName": "Tawarodo",
      "lat": -10.2666667,
      "lng": 161.7666667
    },
    {
      "cityName": "Tawaroga",
      "lat": -10.7333333,
      "lng": 162.2833333
    },
    {
      "cityName": "Tawasubwe",
      "lat": -10.2166667,
      "lng": 161.4333333
    },
    {
      "cityName": "Tawasu",
      "lat": -10.4666667,
      "lng": 162.05
    },
    {
      "cityName": "Tawatana",
      "lat": -10.1833333,
      "lng": 161.3666667
    },
    {
      "cityName": "Teatupa",
      "lat": -9.5166667,
      "lng": 160.25
    },
    {
      "cityName": "Tenakaro",
      "lat": -9.4333333,
      "lng": 160.1
    },
    {
      "cityName": "Tenatelidhe",
      "lat": -9.4833333,
      "lng": 160.3666667
    },
    {
      "cityName": "Teneru",
      "lat": -9.4333333,
      "lng": 160.0833333
    },
    {
      "cityName": "Tetenimae",
      "lat": -9.2666667,
      "lng": 161.2333333
    },
    {
      "cityName": "Tetere",
      "lat": -10.4166667,
      "lng": 161.4666667
    },
    {
      "cityName": "Tinggoa",
      "lat": -11.85,
      "lng": 160.6333333
    },
    {
      "cityName": "Tinomeat",
      "lat": -9.5833333,
      "lng": 160.1333333
    },
    {
      "cityName": "Tiuni",
      "lat": -8.6,
      "lng": 160.75
    },
    {
      "cityName": "Toa",
      "lat": -9.15,
      "lng": 160.3833333
    },
    {
      "cityName": "Toghasa",
      "lat": -9.6333333,
      "lng": 160.3166667
    },