{
  "name": "Carrickfergus",
  "cities": [
    {
      "cityName": "Ballycarry",
      "lat": 54.766667,
      "lng": -5.766667
    },
    {
      "cityName": "Bellahill",
      "lat": 54.733333,
      "lng": -5.75
    },
    {
      "cityName": "Carrickfergus",
      "lat": 54.716667,
      "lng": -5.733333
    },
    {
      "cityName": "Eden",
      "lat": 54.716667,
      "lng": -5.783333
    },
    {
      "cityName": "Gransha",
      "lat": 54.783333,
      "lng": -5.716667
    },
    {
      "cityName": "Kilroot",
      "lat": 54.716667,
      "lng": -5.766667
    },
    {
      "cityName": "Whitehead",
      "lat": 54.75,
      "lng": -5.7
    },
    {
      "cityName": "Woodburn",
      "lat": 54.733333,
      "lng": -5.833333
    }
  ]
}