{
  "name": "Wiltshire",
  "cities": [
    {
      "cityName": "Alberbury",
      "lat": 52.716667,
      "lng": -2.95
    },
    {
      "cityName": "Aldbourne",
      "lat": 51.466667,
      "lng": -1.616667
    },
    {
      "cityName": "Alderbury",
      "lat": 51.033333,
      "lng": -1.733333
    },
    {
      "cityName": "Alton Barnes",
      "lat": 51.35,
      "lng": -1.85
    },
    {
      "cityName": "Alton Priors",
      "lat": 51.35,
      "lng": -1.833333
    },
    {
      "cityName": "Alvediston",
      "lat": 51.007778,
      "lng": -2.036389
    },
    {
      "cityName": "Amesbury",
      "lat": 51.166667,
      "lng": -1.783333
    },
    {
      "cityName": "Anstey",
      "lat": 51.036389,
      "lng": -2.063889
    },
    {
      "cityName": "Ashmore",
      "lat": 50.95,
      "lng": -2.133333
    },
    {
      "cityName": "Asterley",
      "lat": 52.65,
      "lng": -2.933333
    },
    {
      "cityName": "Aston",
      "lat": 52.65,
      "lng": -2.966667
    },
    {
      "cityName": "Atworth",
      "lat": 51.392778,
      "lng": -2.195278
    },
    {
      "cityName": "Avebury",
      "lat": 51.416667,
      "lng": -1.866667
    },
    {
      "cityName": "Barford Saint Martin",
      "lat": 51.066667,
      "lng": -1.916667
    },
    {
      "cityName": "Baverstock",
      "lat": 51.066667,
      "lng": -1.95
    },
    {
      "cityName": "Beanacre",
      "lat": 51.395,
      "lng": -2.140278
    },
    {
      "cityName": "Beechingstoke",
      "lat": 51.316667,
      "lng": -1.883333
    },
    {
      "cityName": "Berwick Bassett",
      "lat": 51.45,
      "lng": -1.85
    },
    {
      "cityName": "Berwick Saint James",
      "lat": 51.133333,
      "lng": -1.9
    },
    {
      "cityName": "Berwick Saint John",
      "lat": 51,
      "lng": -2.066667
    },
    {
      "cityName": "Biddestone",
      "lat": 51.460833,
      "lng": -2.198333
    },
    {
      "cityName": "Bishops Cannings",
      "lat": 51.366667,
      "lng": -1.95
    },
    {
      "cityName": "Bishop's Knoyle",
      "lat": 51.072778,
      "lng": -2.171389
    },
    {
      "cityName": "Bishopstone",
      "lat": 51.016667,
      "lng": -1.9
    },
    {
      "cityName": "Bishopstrow",
      "lat": 51.193056,
      "lng": -2.155278
    },
    {
      "cityName": "Boreham",
      "lat": 51.199444,
      "lng": -2.165556
    },
    {
      "cityName": "Bower Chalke",
      "lat": 51,
      "lng": -1.966667
    },
    {
      "cityName": "Box",
      "lat": 51.414722,
      "lng": -2.245556
    },
    {
      "cityName": "Boyton",
      "lat": 51.155,
      "lng": -2.071111
    },
    {
      "cityName": "Bradford-on-Avon",
      "lat": 51.346944,
      "lng": -2.249167
    },
    {
      "cityName": "Bratton",
      "lat": 51.270556,
      "lng": -2.124444
    },
    {
      "cityName": "Bremhill",
      "lat": 51.456667,
      "lng": -2.030278
    },
    {
      "cityName": "Brinkworth",
      "lat": 51.55,
      "lng": -1.983333
    },
    {
      "cityName": "Britford",
      "lat": 51.033333,
      "lng": -1.766667
    },
    {
      "cityName": "Brixton Deverill",
      "lat": 51.148889,
      "lng": -2.198333
    },
    {
      "cityName": "Broad Chalke",
      "lat": 51.016667,
      "lng": -1.933333
    },
    {
      "cityName": "Broad Town",
      "lat": 51.483333,
      "lng": -1.866667
    },
    {
      "cityName": "Brockton",
      "lat": 52.633333,
      "lng": -3
    },
    {
      "cityName": "Brokenborough",
      "lat": 51.603611,
      "lng": -2.118611
    },
    {
      "cityName": "Broughton Gifford",
      "lat": 51.37,
      "lng": -2.175
    },
    {
      "cityName": "Bulford",
      "lat": 51.2,
      "lng": -1.766667
    },
    {
      "cityName": "Bulkington",
      "lat": 51.323611,
      "lng": -2.083611
    },
    {
      "cityName": "Burbage",
      "lat": 51.333333,
      "lng": -1.666667
    },
    {
      "cityName": "Calne",
      "lat": 51.438611,
      "lng": -2.004167
    },
    {
      "cityName": "Calstone Wellington",
      "lat": 51.4,
      "lng": -1.95
    },
    {
      "cityName": "Cardeston",
      "lat": 52.7,
      "lng": -2.9
    },
    {
      "cityName": "Castle Combe",
      "lat": 51.494444,
      "lng": -2.225556
    },
    {
      "cityName": "Chapmanslade",
      "lat": 51.229167,
      "lng": -2.248889
    },
    {
      "cityName": "Charlton",
      "lat": 50.983333,
      "lng": -2.133333
    },
    {
      "cityName": "Cherhill",
      "lat": 51.416667,
      "lng": -1.95
    },
    {
      "cityName": "Chetwode",
      "lat": 51.95,
      "lng": -1.066667
    },
    {
      "cityName": "Cheverell",
      "lat": 51.287778,
      "lng": -2.026944
    },
    {
      "cityName": "Chicklade",
      "lat": 51.109167,
      "lng": -2.126667
    },
    {
      "cityName": "Chilmark",
      "lat": 51.094722,
      "lng": -2.048056
    },
    {
      "cityName": "Chippenham",
      "lat": 51.46,
      "lng": -2.124722
    },
    {
      "cityName": "Chittern",
      "lat": 51.194722,
      "lng": -2.014444
    },
    {
      "cityName": "Chittoe",
      "lat": 51.398056,
      "lng": -2.064444
    },
    {
      "cityName": "Christian Malford",
      "lat": 51.506667,
      "lng": -2.051944
    },
    {
      "cityName": "Chute",
      "lat": 51.283333,
      "lng": -1.566667
    },
    {
      "cityName": "Clack",
      "lat": 51.5,
      "lng": -1.983333
    },
    {
      "cityName": "Cliffe Pypard",
      "lat": 51.483333,
      "lng": -1.9
    },
    {
      "cityName": "Codford",
      "lat": 51.15,
      "lng": -2.05
    },
    {
      "cityName": "Codford Saint Mary",
      "lat": 51.155833,
      "lng": -2.038889
    },
    {
      "cityName": "Codford Saint Peter",
      "lat": 51.159722,
      "lng": -2.053056
    },
    {
      "cityName": "Colerne",
      "lat": 51.44,
      "lng": -2.261111
    },
    {
      "cityName": "Collingbourne Ducis",
      "lat": 51.283333,
      "lng": -1.65
    },
    {
      "cityName": "Collingbourne Kingston",
      "lat": 51.3,
      "lng": -1.65
    },
    {
      "cityName": "Combebissett",
      "lat": 51.033333,
      "lng": -1.85
    },
    {
      "cityName": "Compton Bassett",
      "lat": 51.433333,
      "lng": -1.95
    },
    {
      "cityName": "Compton Chamberlain",
      "lat": 51.05,
      "lng": -1.95
    },
    {
      "cityName": "Corsham",
      "lat": 51.430556,
      "lng": -2.189722
    },
    {
      "cityName": "Corsley",
      "lat": 51.218889,
      "lng": -2.248056
    },
    {
      "cityName": "Corsley Heath",
      "lat": 51.206944,
      "lng": -2.257778
    },
    {
      "cityName": "Corston",
      "lat": 51.556111,
      "lng": -2.110833
    },
    {
      "cityName": "Corton",
      "lat": 51.163056,
      "lng": -2.09
    },
    {
      "cityName": "Coulston",
      "lat": 51.285556,
      "lng": -2.073611
    },
    {
      "cityName": "Cross Keys",
      "lat": 51.441111,
      "lng": -2.185278
    },
    {
      "cityName": "Crudwell",
      "lat": 51.633333,
      "lng": -2.066667
    },
    {
      "cityName": "Deptford",
      "lat": 51.15,
      "lng": -1.983333
    },
    {
      "cityName": "Devizes",
      "lat": 51.35,
      "lng": -1.983333
    },
    {
      "cityName": "Dilton",
      "lat": 51.245833,
      "lng": -2.217222
    },
    {
      "cityName": "Dinton",
      "lat": 51.083333,
      "lng": -1.983333
    },
    {
      "cityName": "Donhead",
      "lat": 51.020833,
      "lng": -2.120556
    },
    {
      "cityName": "Donhead Saint Mary",
      "lat": 51.017778,
      "lng": -2.135
    },
    {
      "cityName": "Downton",
      "lat": 51,
      "lng": -1.733333
    },
    {
      "cityName": "Durnford",
      "lat": 51.133333,
      "lng": -1.816667
    },
    {
      "cityName": "Durrington",
      "lat": 51.183333,
      "lng": -1.766667
    },
    {
      "cityName": "East Everleigh",
      "lat": 51.266667,
      "lng": -1.7
    },
    {
      "cityName": "East Grimstead",
      "lat": 51.033333,
      "lng": -1.666667
    },
    {
      "cityName": "East Kennet",
      "lat": 51.4,
      "lng": -1.833333
    },
    {
      "cityName": "Easton Grey",
      "lat": 51.586944,
      "lng": -2.174167
    },
    {
      "cityName": "Edington",
      "lat": 51.275833,
      "lng": -2.106389
    },
    {
      "cityName": "Enford",
      "lat": 51.25,
      "lng": -1.8
    },
    {
      "cityName": "Erlestoke",
      "lat": 51.284722,
      "lng": -2.054444
    },
    {
      "cityName": "Farley",
      "lat": 51.05,
      "lng": -1.683333
    },
    {
      "cityName": "Figheldean",
      "lat": 51.216667,
      "lng": -1.783333
    },
    {
      "cityName": "Finmere",
      "lat": 51.983333,
      "lng": -1.066667
    },
    {
      "cityName": "Fisherton de la Mere",
      "lat": 51.15,
      "lng": -2
    },
    {
      "cityName": "Fittleton",
      "lat": 51.233333,
      "lng": -1.783333
    },
    {
      "cityName": "Fonthill Bishop",
      "lat": 51.096389,
      "lng": -2.093889
    },
    {
      "cityName": "Fordham",
      "lat": 52.3,
      "lng": 0.4
    },
    {
      "cityName": "Fosbury",
      "lat": 51.316667,
      "lng": -1.533333
    },
    {
      "cityName": "Fovant",
      "lat": 51.054167,
      "lng": -1.998889
    },
    {
      "cityName": "Foxham",
      "lat": 51.496389,
      "lng": -2.036111
    },
    {
      "cityName": "Foxley",
      "lat": 51.572222,
      "lng": -2.155
    },
    {
      "cityName": "Freckenham",
      "lat": 52.316667,
      "lng": 0.433333
    },
    {
      "cityName": "Fulwell",
      "lat": 52,
      "lng": -1.083333
    },
    {
      "cityName": "Fyfield",
      "lat": 51.416667,
      "lng": -1.783333
    },
    {
      "cityName": "Garsdon",
      "lat": 51.588333,
      "lng": -2.046667
    },
    {
      "cityName": "Gastard",
      "lat": 51.415833,
      "lng": -2.166667
    },
    {
      "cityName": "Grafton",
      "lat": 51.333333,
      "lng": -1.633333
    },
    {
      "cityName": "Great Somerford",
      "lat": 51.543056,
      "lng": -2.053611
    },
    {
      "cityName": "Great Wishford",
      "lat": 51.116667,
      "lng": -1.883333
    },
    {
      "cityName": "Grittleton",
      "lat": 51.519722,
      "lng": -2.203056
    },
    {
      "cityName": "Halston",
      "lat": 52.666667,
      "lng": -2.866667
    },
    {
      "cityName": "Hanging Langford",
      "lat": 51.133333,
      "lng": -1.95
    },
    {
      "cityName": "Hankerton",
      "lat": 51.614444,
      "lng": -2.045
    },
    {
      "cityName": "Hardenhuish",
      "lat": 51.470278,
      "lng": -2.131111
    },
    {
      "cityName": "Hatch",
      "lat": 51.053889,
      "lng": -2.1075
    },
    {
      "cityName": "Hawthorn",
      "lat": 51.424167,
      "lng": -2.223611
    },
    {
      "cityName": "Herringswell",
      "lat": 52.3,
      "lng": 0.516667
    },
    {
      "cityName": "Heytesbury",
      "lat": 51.183056,
      "lng": -2.108333
    },
    {
      "cityName": "Highway",
      "lat": 51.466667,
      "lng": -1.933333
    },
    {
      "cityName": "Hilcott",
      "lat": 51.316667,
      "lng": -1.833333
    },
    {
      "cityName": "Hillmarton",
      "lat": 51.466667,
      "lng": -1.966667
    },
    {
      "cityName": "Hilperton",
      "lat": 51.331667,
      "lng": -2.185833
    },
    {
      "cityName": "Hindon",
      "lat": 51.092222,
      "lng": -2.125833
    },
    {
      "cityName": "Holt",
      "lat": 51.355556,
      "lng": -2.197222
    },
    {
      "cityName": "Horningsham",
      "lat": 51.1725,
      "lng": -2.2725
    },
    {
      "cityName": "Huish",
      "lat": 51.366667,
      "lng": -1.783333
    },
    {
      "cityName": "Hullavington",
      "lat": 51.535833,
      "lng": -2.152778
    },
    {
      "cityName": "Imber",
      "lat": 51.233333,
      "lng": -2.05
    },
    {
      "cityName": "Isleham",
      "lat": 52.333333,
      "lng": 0.416667
    },
    {
      "cityName": "Keevil",
      "lat": 51.321667,
      "lng": -2.117222
    },
    {
      "cityName": "Kennet",
      "lat": 52.283333,
      "lng": 0.5
    },
    {
      "cityName": "Kentford",
      "lat": 52.266667,
      "lng": 0.5
    },
    {
      "cityName": "Kilmington",
      "lat": 51.126944,
      "lng": -2.326944
    },
    {
      "cityName": "Kingston Deverill",
      "lat": 51.133056,
      "lng": -2.220278
    },
    {
      "cityName": "Kington Langley",
      "lat": 51.490556,
      "lng": -2.113333
    },
    {
      "cityName": "Kington Saint Michael",
      "lat": 51.496111,
      "lng": -2.140278
    },
    {
      "cityName": "Knook",
      "lat": 51.176944,
      "lng": -2.090278
    },
    {
      "cityName": "Lacock",
      "lat": 51.415278,
      "lng": -2.121944
    },
    {
      "cityName": "Lark Hill",
      "lat": 51.2,
      "lng": -1.816667
    },
    {
      "cityName": "Lavington",
      "lat": 51.283333,
      "lng": -1.983333
    },
    {
      "cityName": "Lea",
      "lat": 51.575278,
      "lng": -2.063056
    },
    {
      "cityName": "Limpley Stoke",
      "lat": 51.343333,
      "lng": -2.315278
    },
    {
      "cityName": "Little Cheverell",
      "lat": 51.280556,
      "lng": -2.015556
    },
    {
      "cityName": "Little Langford",
      "lat": 51.116667,
      "lng": -1.916667
    },
    {
      "cityName": "Longbridge Deverill",
      "lat": 51.166111,
      "lng": -2.19
    },
    {
      "cityName": "Longford",
      "lat": 51.133333,
      "lng": -1.933333
    },
    {
      "cityName": "Luckington",
      "lat": 51.554444,
      "lng": -2.242222
    },
    {
      "cityName": "Ludwell",
      "lat": 51.003056,
      "lng": -2.128611
    },
    {
      "cityName": "Lyneham",
      "lat": 51.516667,
      "lng": -1.966667
    },
    {
      "cityName": "Maddington",
      "lat": 51.2,
      "lng": -1.916667
    },
    {
      "cityName": "Maiden Bradley",
      "lat": 51.15,
      "lng": -2.283333
    },
    {
      "cityName": "Malmesbury",
      "lat": 51.585,
      "lng": -2.1
    },
    {
      "cityName": "Manningford Abbots",
      "lat": 51.316667,
      "lng": -1.8
    },
    {
      "cityName": "Manningford Bruce",
      "lat": 51.3,
      "lng": -1.8
    },
    {
      "cityName": "Manton",
      "lat": 51.4,
      "lng": -1.75
    },
    {
      "cityName": "Marlborough",
      "lat": 51.416667,
      "lng": -1.716667
    },
    {
      "cityName": "Marston",
      "lat": 51.310833,
      "lng": -2.049722
    },
    {
      "cityName": "Martin",
      "lat": 50.966667,
      "lng": -1.9
    },
    {
      "cityName": "Melbury Abbas",
      "lat": 50.983333,
      "lng": -2.166667
    },
    {
      "cityName": "Melksham",
      "lat": 51.374167,
      "lng": -2.136389
    },
    {
      "cityName": "Melverley",
      "lat": 52.733333,
      "lng": -2.983333
    },
    {
      "cityName": "Mere",
      "lat": 51.088889,
      "lng": -2.266944
    },
    {
      "cityName": "Mildenhall",
      "lat": 51.416667,
      "lng": -1.7
    },
    {
      "cityName": "Minsterley",
      "lat": 52.633333,
      "lng": -2.933333
    },
    {
      "cityName": "Mixbury",
      "lat": 51.983333,
      "lng": -1.116667
    },
    {
      "cityName": "Monckton Deverill",
      "lat": 51.137778,
      "lng": -2.206389
    },
    {
      "cityName": "Neston",
      "lat": 51.412222,
      "lng": -2.200556
    },
    {
      "cityName": "Nettleton",
      "lat": 51.502222,
      "lng": -2.2625
    },
    {
      "cityName": "New Sarum",
      "lat": 51.066667,
      "lng": -1.783333
    },
    {
      "cityName": "North Bradley",
      "lat": 51.295,
      "lng": -2.204722
    },
    {
      "cityName": "North Tidworth",
      "lat": 51.233333,
      "lng": -1.666667
    },
    {
      "cityName": "North Wraxall",
      "lat": 51.473333,
      "lng": -2.261111
    },
    {
      "cityName": "Norton Bavant",
      "lat": 51.190556,
      "lng": -2.132222
    },
    {
      "cityName": "Norton",
      "lat": 51.559444,
      "lng": -2.165
    },
    {
      "cityName": "Oaksey",
      "lat": 51.642222,
      "lng": -2.013333
    },
    {
      "cityName": "Oare",
      "lat": 51.35,
      "lng": -1.766667
    },
    {
      "cityName": "Odstock",
      "lat": 51.033333,
      "lng": -1.783333
    },
    {
      "cityName": "Ogbourne Saint Andrew",
      "lat": 51.433333,
      "lng": -1.733333
    },
    {
      "cityName": "Ogbourne Saint George",
      "lat": 51.45,
      "lng": -1.716667
    },
    {
      "cityName": "Old Sarum",
      "lat": 51.083333,
      "lng": -1.8
    },
    {
      "cityName": "Orcheston",
      "lat": 51.216667,
      "lng": -1.916667
    },
    {
      "cityName": "Oxenwood",
      "lat": 51.316667,
      "lng": -1.566667
    },
    {
      "cityName": "Patney",
      "lat": 51.316667,
      "lng": -1.9
    },
    {
      "cityName": "Pentridge",
      "lat": 50.966667,
      "lng": -1.95
    },
    {
      "cityName": "Pewsey",
      "lat": 51.333333,
      "lng": -1.75
    },
    {
      "cityName": "Pitton",
      "lat": 51.066667,
      "lng": -1.7
    },
    {
      "cityName": "Plealey",
      "lat": 52.65,
      "lng": -2.85
    },
    {
      "cityName": "Pontesbury",
      "lat": 52.65,
      "lng": -2.883333
    },
    {
      "cityName": "Potterne",
      "lat": 51.326944,
      "lng": -2.01
    },
    {
      "cityName": "Poulshot",
      "lat": 51.337222,
      "lng": -2.046389
    },
    {
      "cityName": "Rollestone",
      "lat": 51.183333,
      "lng": -1.9
    },
    {
      "cityName": "Roundway",
      "lat": 51.366667,
      "lng": -1.983333
    },
    {
      "cityName": "Rowde",
      "lat": 51.363056,
      "lng": -2.033889
    },
    {
      "cityName": "Rudloe",
      "lat": 51.428056,
      "lng": -2.221944
    },
    {
      "cityName": "Rushall",
      "lat": 51.283333,
      "lng": -1.816667
    },
    {
      "cityName": "Seagry",
      "lat": 51.525,
      "lng": -2.077778
    },
    {
      "cityName": "Sedgehill",
      "lat": 51.052222,
      "lng": -2.192778
    },
    {
      "cityName": "Seend",
      "lat": 51.348056,
      "lng": -2.084722
    },
    {
      "cityName": "Semington",
      "lat": 51.343889,
      "lng": -2.148333
    },
    {
      "cityName": "Semley",
      "lat": 51.041944,
      "lng": -2.156944
    },
    {
      "cityName": "Shalstone",
      "lat": 52.016667,
      "lng": -1.066667
    },
    {
      "cityName": "Sherrington",
      "lat": 51.151667,
      "lng": -2.059444
    },
    {
      "cityName": "Sherston",
      "lat": 51.573889,
      "lng": -2.2125
    },
    {
      "cityName": "Shootend",
      "lat": 51.05,
      "lng": -1.75
    },
    {
      "cityName": "Shrawardine",
      "lat": 52.733333,
      "lng": -2.9
    },
    {
      "cityName": "Slaughterford",
      "lat": 51.4625,
      "lng": -2.226111
    },
    {
      "cityName": "Snailwell",
      "lat": 52.283333,
      "lng": 0.416667
    },
    {
      "cityName": "Soham",
      "lat": 52.333333,
      "lng": 0.35
    },
    {
      "cityName": "Somerford Keynes",
      "lat": 51.65,
      "lng": -1.966667
    },
    {
      "cityName": "Sopworth",
      "lat": 51.575278,
      "lng": -2.251667
    },
    {
      "cityName": "South Newton",
      "lat": 51.1,
      "lng": -1.866667
    },
    {
      "cityName": "Southwick",
      "lat": 51.296944,
      "lng": -2.2325
    },
    {
      "cityName": "South Wraxall",
      "lat": 51.378611,
      "lng": -2.243056
    },
    {
      "cityName": "Stanton Saint Quintin",
      "lat": 51.517778,
      "lng": -2.135278
    },
    {
      "cityName": "Stapleford",
      "lat": 51.116667,
      "lng": -1.9
    },
    {
      "cityName": "Steeple Ashton",
      "lat": 51.311389,
      "lng": -2.136667
    },
    {
      "cityName": "Stockton",
      "lat": 51.145278,
      "lng": -2.031944
    },
    {
      "cityName": "Stourton",
      "lat": 51.105,
      "lng": -2.315556
    },
    {
      "cityName": "Studley",
      "lat": 51.442222,
      "lng": -2.049722
    },
    {
      "cityName": "Sutton Benger",
      "lat": 51.507222,
      "lng": -2.078611
    },
    {
      "cityName": "Sutton Veny",
      "lat": 51.177222,
      "lng": -2.146944
    },
    {
      "cityName": "Swallowcliffe",
      "lat": 51.0425,
      "lng": -2.052222
    },
    {
      "cityName": "Swindon",
      "lat": 51.933333,
      "lng": -2.1
    },
    {
      "cityName": "Teffont Magna",
      "lat": 51.090278,
      "lng": -2.018611
    },
    {
      "cityName": "Tidcombe",
      "lat": 51.316667,
      "lng": -1.583333
    },
    {
      "cityName": "Tilshead",
      "lat": 51.233333,
      "lng": -1.95
    },
    {
      "cityName": "Tingewick",
      "lat": 51.983333,
      "lng": -1.05
    },
    {
      "cityName": "Tisbury",
      "lat": 51.063056,
      "lng": -2.083333
    },
    {
      "cityName": "Tockenham",
      "lat": 51.5,
      "lng": -1.933333
    },
    {
      "cityName": "Trowbridge",
      "lat": 51.318889,
      "lng": -2.208611
    },
    {
      "cityName": "Tuddenham",
      "lat": 52.316667,
      "lng": 0.55
    },
    {
      "cityName": "Tytherington",
      "lat": 51.168333,
      "lng": -2.121111
    },
    {
      "cityName": "Tytherton Lucas",
      "lat": 51.467778,
      "lng": -2.076389
    },
    {
      "cityName": "Upton Scudamore",
      "lat": 51.23,
      "lng": -2.193333
    },
    {
      "cityName": "Urchfont",
      "lat": 51.3,
      "lng": -1.933333
    },
    {
      "cityName": "Warminster",
      "lat": 51.203611,
      "lng": -2.180833
    },
    {
      "cityName": "West Ashton",
      "lat": 51.299722,
      "lng": -2.175278
    },
    {
      "cityName": "Westbury on Severn",
      "lat": 51.816667,
      "lng": -2.416667
    },
    {
      "cityName": "Westbury",
      "lat": 51.26,
      "lng": -2.1875
    },
    {
      "cityName": "West Grimstead",
      "lat": 51.033333,
      "lng": -1.7
    },
    {
      "cityName": "West Kington",
      "lat": 51.493333,
      "lng": -2.273611
    },
    {
      "cityName": "West Knoyle",
      "lat": 51.0925,
      "lng": -2.201944
    },
    {
      "cityName": "West Row",
      "lat": 52.35,
      "lng": 0.45
    },
    {
      "cityName": "Westwood",
      "lat": 51.331111,
      "lng": -2.273889
    },
    {
      "cityName": "Whitley",
      "lat": 51.395278,
      "lng": -2.164444
    },
    {
      "cityName": "Wicken",
      "lat": 52.3,
      "lng": 0.3
    },
    {
      "cityName": "Wilcott",
      "lat": 52.75,
      "lng": -2.933333
    },
    {
      "cityName": "Wilcot",
      "lat": 51.333333,
      "lng": -1.8
    },
    {
      "cityName": "Wilsford",
      "lat": 51.3,
      "lng": -1.85
    },
    {
      "cityName": "Wilton",
      "lat": 51.083333,
      "lng": -1.866667
    },
    {
      "cityName": "Wingfield",
      "lat": 51.308889,
      "lng": -2.252778
    },
    {
      "cityName": "Winterbourne Bassett",
      "lat": 51.466667,
      "lng": -1.85
    },
    {
      "cityName": "Winterbourne Dauntsey",
      "lat": 51.1,
      "lng": -1.75
    },
    {
      "cityName": "Winterbourne Earls",
      "lat": 51.083333,
      "lng": -1.75
    },
    {
      "cityName": "Winterbourne Monkton",
      "lat": 51.433333,
      "lng": -1.85
    },
    {
      "cityName": "Winterbourne Stoke",
      "lat": 51.15,
      "lng": -1.9
    },
    {
      "cityName": "Wollaston",
      "lat": 52.7,
      "lng": -3
    },
    {
      "cityName": "Woodborough",
      "lat": 51.333333,
      "lng": -1.833333
    },
    {
      "cityName": "Woodford",
      "lat": 51.116667,
      "lng": -1.833333
    },
    {
      "cityName": "Wooton Bassett",
      "lat": 51.533333,
      "lng": -1.9
    },
    {
      "cityName": "Wootton Rivers",
      "lat": 51.35,
      "lng": -1.716667
    },
    {
      "cityName": "Worlington",
      "lat": 52.333333,
      "lng": 0.5
    },
    {
      "cityName": "Worton",
      "lat": 51.316111,
      "lng": -2.041111
    },
    {
      "cityName": "Wylye",
      "lat": 51.133333,
      "lng": -1.983333
    },
    {
      "cityName": "Yatesbury",
      "lat": 51.433333,
      "lng": -1.9
    },
    {
      "cityName": "Yatton Keynell",
      "lat": 51.487222,
      "lng": -2.1925
    },
    {
      "cityName": "Yockleton",
      "lat": 52.683333,
      "lng": -2.9
    },
    {
      "cityName": "Zeals",
      "lat": 51.083611,
      "lng": -2.314167
    }
  ]
}