{
  "name": "Midlothian",
  "cities": [
    {
      "cityName": "Auchendinny",
      "lat": 55.833333,
      "lng": -3.183333
    },
    {
      "cityName": "Balerno",
      "lat": 55.883333,
      "lng": -3.333333
    },
    {
      "cityName": "Blackshield",
      "lat": 55.833333,
      "lng": -2.933333
    },
    {
      "cityName": "Bonnyrigg",
      "lat": 55.866667,
      "lng": -3.1
    },
    {
      "cityName": "Borthwick",
      "lat": 55.816667,
      "lng": -3
    },
    {
      "cityName": "Brighstone",
      "lat": 50.633333,
      "lng": -1.383333
    },
    {
      "cityName": "Calbourne",
      "lat": 50.666667,
      "lng": -1.4
    },
    {
      "cityName": "Carrington",
      "lat": 55.833333,
      "lng": -3.083333
    },
    {
      "cityName": "Colinton",
      "lat": 55.9,
      "lng": -3.25
    },
    {
      "cityName": "Corstorphine",
      "lat": 55.933333,
      "lng": -3.283333
    },
    {
      "cityName": "Craigmillar",
      "lat": 55.9,
      "lng": -3.116667
    },
    {
      "cityName": "Cramond Bridge",
      "lat": 55.95,
      "lng": -3.3
    },
    {
      "cityName": "Cramond",
      "lat": 55.966667,
      "lng": -3.3
    },
    {
      "cityName": "Currie",
      "lat": 55.9,
      "lng": -3.3
    },
    {
      "cityName": "Dalkeith",
      "lat": 55.866667,
      "lng": -3.066667
    },
    {
      "cityName": "Dalmahoy",
      "lat": 55.9,
      "lng": -3.366667
    },
    {
      "cityName": "Dalmeny",
      "lat": 55.966667,
      "lng": -3.383333
    },
    {
      "cityName": "Fushiebridge",
      "lat": 55.816667,
      "lng": -3.033333
    },
    {
      "cityName": "Gogar",
      "lat": 55.916667,
      "lng": -3.333333
    },
    {
      "cityName": "Gorebridge",
      "lat": 55.833333,
      "lng": -3.05
    },
    {
      "cityName": "Hawthornden",
      "lat": 55.85,
      "lng": -3.133333
    },
    {
      "cityName": "Howgate",
      "lat": 55.8,
      "lng": -3.2
    },
    {
      "cityName": "Juniper Green",
      "lat": 55.9,
      "lng": -3.283333
    },
    {
      "cityName": "Kirkliston",
      "lat": 55.95,
      "lng": -3.4
    },
    {
      "cityName": "Lasswade",
      "lat": 55.883333,
      "lng": -3.116667
    },
    {
      "cityName": "Leadburn",
      "lat": 55.783333,
      "lng": -3.233333
    },
    {
      "cityName": "Liberton",
      "lat": 55.9,
      "lng": -3.133333
    },
    {
      "cityName": "Loanhead",
      "lat": 55.866667,
      "lng": -3.15
    },
    {
      "cityName": "Millerhill",
      "lat": 55.9,
      "lng": -3.083333
    },
    {
      "cityName": "Mottistone",
      "lat": 50.633333,
      "lng": -1.416667
    },
    {
      "cityName": "Newbridge",
      "lat": 50.683333,
      "lng": -1.416667
    },
    {
      "cityName": "Nine Mile Burn",
      "lat": 55.8,
      "lng": -3.316667
    },
    {
      "cityName": "Pathhead",
      "lat": 55.866667,
      "lng": -2.966667
    },
    {
      "cityName": "Penicuik",
      "lat": 55.816667,
      "lng": -3.233333
    },
    {
      "cityName": "Polton",
      "lat": 55.866667,
      "lng": -3.133333
    },
    {
      "cityName": "Pomathorn",
      "lat": 55.816667,
      "lng": -3.2
    },
    {
      "cityName": "Port Edgar",
      "lat": 55.983333,
      "lng": -3.416667
    },
    {
      "cityName": "Queensferry",
      "lat": 55.983333,
      "lng": -3.4
    },
    {
      "cityName": "Ratho",
      "lat": 55.916667,
      "lng": -3.366667
    },
    {
      "cityName": "Sighthill",
      "lat": 55.916667,
      "lng": -3.283333
    },
    {
      "cityName": "Temple",
      "lat": 55.8,
      "lng": -3.083333
    },
    {
      "cityName": "Turnhouse",
      "lat": 55.95,
      "lng": -3.333333
    }
  ]
}