{
  "name": "North Yorkshire",
  "cities": [
    {
      "cityName": "Ainderby",
      "lat": 54.316667,
      "lng": -1.483333
    },
    {
      "cityName": "Birkby",
      "lat": 54.416667,
      "lng": -1.483333
    },
    {
      "cityName": "Borrowby",
      "lat": 54.3,
      "lng": -1.35
    },
    {
      "cityName": "Brompton",
      "lat": 54.35,
      "lng": -1.416667
    },
    {
      "cityName": "Cowton",
      "lat": 54.416667,
      "lng": -1.533333
    },
    {
      "cityName": "Danby Wiske",
      "lat": 54.383333,
      "lng": -1.483333
    },
    {
      "cityName": "East Harlsey",
      "lat": 54.383333,
      "lng": -1.35
    },
    {
      "cityName": "Great Langton",
      "lat": 54.366667,
      "lng": -1.55
    },
    {
      "cityName": "Harrogate",
      "lat": 53.983333,
      "lng": -1.533333
    },
    {
      "cityName": "Kirby Sigston",
      "lat": 54.35,
      "lng": -1.35
    },
    {
      "cityName": "Kirkby Overblow",
      "lat": 53.933333,
      "lng": -1.5
    },
    {
      "cityName": "Leake",
      "lat": 54.316667,
      "lng": -1.333333
    },
    {
      "cityName": "Little Langton",
      "lat": 54.35,
      "lng": -1.533333
    },
    {
      "cityName": "Little Smeaton",
      "lat": 54.416667,
      "lng": -1.466667
    },
    {
      "cityName": "Maunby",
      "lat": 54.266667,
      "lng": -1.45
    },
    {
      "cityName": "Nether Silton",
      "lat": 54.316667,
      "lng": -1.3
    },
    {
      "cityName": "Newby Wiske",
      "lat": 54.283333,
      "lng": -1.433333
    },
    {
      "cityName": "Northallerton",
      "lat": 54.333333,
      "lng": -1.433333
    },
    {
      "cityName": "North Cowton",
      "lat": 54.4,
      "lng": -1.55
    },
    {
      "cityName": "Osmotherley",
      "lat": 54.366667,
      "lng": -1.3
    },
    {
      "cityName": "Otterington",
      "lat": 54.283333,
      "lng": -1.416667
    },
    {
      "cityName": "Over Silton",
      "lat": 54.333333,
      "lng": -1.3
    },
    {
      "cityName": "Pannal",
      "lat": 53.95,
      "lng": -1.533333
    },
    {
      "cityName": "Starbeck",
      "lat": 53.983333,
      "lng": -1.5
    },
    {
      "cityName": "Thrintoft",
      "lat": 54.333333,
      "lng": -1.5
    },
    {
      "cityName": "Yafforth",
      "lat": 54.35,
      "lng": -1.466667
    }
  ]
}