{
  "name": "Derry",
  "cities": [
    {
      "cityName": "Aird",
      "lat": 55.233333,
      "lng": -6.5
    },
    {
      "cityName": "Baile Coinlcora",
      "lat": 54.25,
      "lng": -5.8
    },
    {
      "cityName": "Ballidivity",
      "lat": 55.15,
      "lng": -6.5
    },
    {
      "cityName": "Ballinamallaght",
      "lat": 54.85,
      "lng": -7.233333
    },
    {
      "cityName": "Ballydonegan",
      "lat": 54.866667,
      "lng": -7.016667
    },
    {
      "cityName": "Ballydullaghan",
      "lat": 54.933333,
      "lng": -6.683333
    },
    {
      "cityName": "Ballynagard",
      "lat": 55.033333,
      "lng": -7.266667
    },
    {
      "cityName": "Ballyneaner",
      "lat": 54.866667,
      "lng": -7.216667
    },
    {
      "cityName": "Billy",
      "lat": 55.166667,
      "lng": -6.483333
    },
    {
      "cityName": "Boom Hall",
      "lat": 55.016667,
      "lng": -7.3
    },
    {
      "cityName": "Bryansford",
      "lat": 54.216667,
      "lng": -5.933333
    },
    {
      "cityName": "Bushmills",
      "lat": 55.2,
      "lng": -6.516667
    },
    {
      "cityName": "Callaghanstown",
      "lat": 54.95,
      "lng": -7.4
    },
    {
      "cityName": "Carn",
      "lat": 54.9,
      "lng": -6.833333
    },
    {
      "cityName": "Castlerock",
      "lat": 55.15,
      "lng": -6.783333
    },
    {
      "cityName": "Claudy",
      "lat": 54.866667,
      "lng": -6.516667
    },
    {
      "cityName": "Clooney Park",
      "lat": 55,
      "lng": -7.3
    },
    {
      "cityName": "Craigavole",
      "lat": 54.933333,
      "lng": -6.666667
    },
    {
      "cityName": "Creggan",
      "lat": 55,
      "lng": -7.35
    },
    {
      "cityName": "Cullion",
      "lat": 54.9,
      "lng": -7.366667
    },
    {
      "cityName": "Culmore",
      "lat": 55.05,
      "lng": -7.266667
    },
    {
      "cityName": "Cumber-Lady",
      "lat": 54.9,
      "lng": -7.15
    },
    {
      "cityName": "Derry",
      "lat": 55,
      "lng": -7.333333
    },
    {
      "cityName": "Donemana",
      "lat": 54.866667,
      "lng": -7.3
    },
    {
      "cityName": "Draperstown",
      "lat": 54.8,
      "lng": -6.766667
    },
    {
      "cityName": "Dreen",
      "lat": 54.85,
      "lng": -7.05
    },
    {
      "cityName": "Drumahoe",
      "lat": 54.966667,
      "lng": -7.266667
    },
    {
      "cityName": "Dundrum",
      "lat": 54.25,
      "lng": -5.85
    },
    {
      "cityName": "Dunseverick",
      "lat": 55.233333,
      "lng": -6.45
    },
    {
      "cityName": "Eglinton",
      "lat": 55.016667,
      "lng": -7.183333
    },
    {
      "cityName": "Fawney",
      "lat": 54.883333,
      "lng": -7.3
    },
    {
      "cityName": "Feeny",
      "lat": 54.883333,
      "lng": -7.016667
    },
    {
      "cityName": "Foyle Hill",
      "lat": 54.983333,
      "lng": -7.35
    },
    {
      "cityName": "Gortnessey",
      "lat": 54.983333,
      "lng": -7.216667
    },
    {
      "cityName": "Gulladuff",
      "lat": 54.833333,
      "lng": -6.6
    },
    {
      "cityName": "Killaloo",
      "lat": 54.916667,
      "lng": -7.183333
    },
    {
      "cityName": "Kilrea",
      "lat": 54.966667,
      "lng": -6.583333
    },
    {
      "cityName": "Knockcloghrim",
      "lat": 54.816667,
      "lng": -6.616667
    },
    {
      "cityName": "Lisnagunogue",
      "lat": 55.216667,
      "lng": -6.466667
    },
    {
      "cityName": "Maghera",
      "lat": 54.233333,
      "lng": -5.9
    },
    {
      "cityName": "Moneyneaney",
      "lat": 54.816667,
      "lng": -6.833333
    },
    {
      "cityName": "Mosside",
      "lat": 55.15,
      "lng": -6.416667
    },
    {
      "cityName": "Mount Hamilton",
      "lat": 54.783333,
      "lng": -7.016667
    },
    {
      "cityName": "New Buildings",
      "lat": 54.95,
      "lng": -7.35
    },
    {
      "cityName": "Portrush",
      "lat": 55.216667,
      "lng": -6.65
    },
    {
      "cityName": "Portstewart",
      "lat": 55.166667,
      "lng": -6.7
    },
    {
      "cityName": "Straid",
      "lat": 55.183333,
      "lng": -6.4
    },
    {
      "cityName": "Stranagalwilly",
      "lat": 54.85,
      "lng": -7.166667
    },
    {
      "cityName": "Swatragh",
      "lat": 54.9,
      "lng": -6.666667
    },
    {
      "cityName": "Tamlaght O'Crilly",
      "lat": 54.9,
      "lng": -6.583333
    },
    {
      "cityName": "Tamnyrankin",
      "lat": 54.916667,
      "lng": -6.683333
    },
    {
      "cityName": "Tobermore",
      "lat": 54.816667,
      "lng": -6.7
    },
    {
      "cityName": "Tonduff",
      "lat": 55.233333,
      "lng": -6.483333
    },
    {
      "cityName": "Upperlands",
      "lat": 54.866667,
      "lng": -6.65
    }
  ]
}