{
  "name": "Oxfordshire",
  "cities": [
    {
      "cityName": "Abingdon",
      "lat": 51.666667,
      "lng": -1.283333
    },
    {
      "cityName": "Adderbury",
      "lat": 52,
      "lng": -1.316667
    },
    {
      "cityName": "Alvescot",
      "lat": 51.733333,
      "lng": -1.6
    },
    {
      "cityName": "Appleford",
      "lat": 51.616667,
      "lng": -1.233333
    },
    {
      "cityName": "Appleton",
      "lat": 51.7,
      "lng": -1.35
    },
    {
      "cityName": "Ascot under Wychwood",
      "lat": 51.85,
      "lng": -1.566667
    },
    {
      "cityName": "Ashbury",
      "lat": 51.55,
      "lng": -1.616667
    },
    {
      "cityName": "Ashendon",
      "lat": 51.816667,
      "lng": -0.966667
    },
    {
      "cityName": "Asthall",
      "lat": 51.783333,
      "lng": -1.583333
    },
    {
      "cityName": "Aston",
      "lat": 51.716667,
      "lng": -1.5
    },
    {
      "cityName": "Aston Rowant",
      "lat": 51.666667,
      "lng": -0.95
    },
    {
      "cityName": "Aston Tirroid",
      "lat": 51.566667,
      "lng": -1.2
    },
    {
      "cityName": "Balking",
      "lat": 51.6,
      "lng": -1.533333
    },
    {
      "cityName": "Bampton",
      "lat": 50.983333,
      "lng": -3.483333
    },
    {
      "cityName": "Banbury",
      "lat": 52.05,
      "lng": -1.333333
    },
    {
      "cityName": "Barford",
      "lat": 51.983333,
      "lng": -1.366667
    },
    {
      "cityName": "Berrick Salome",
      "lat": 51.633333,
      "lng": -1.1
    },
    {
      "cityName": "Bicester",
      "lat": 51.9,
      "lng": -1.15
    },
    {
      "cityName": "Bix",
      "lat": 51.55,
      "lng": -0.95
    },
    {
      "cityName": "Blackthorn",
      "lat": 51.866667,
      "lng": -1.1
    },
    {
      "cityName": "Bladon",
      "lat": 51.816667,
      "lng": -1.35
    },
    {
      "cityName": "Bledington",
      "lat": 51.883333,
      "lng": -1.633333
    },
    {
      "cityName": "Bletchingdon",
      "lat": 51.85,
      "lng": -1.266667
    },
    {
      "cityName": "Blewbury",
      "lat": 51.55,
      "lng": -1.233333
    },
    {
      "cityName": "Bloxham",
      "lat": 52,
      "lng": -1.366667
    },
    {
      "cityName": "Boddicott",
      "lat": 52.033333,
      "lng": -1.333333
    },
    {
      "cityName": "Bourton on the Water",
      "lat": 51.866667,
      "lng": -1.75
    },
    {
      "cityName": "Brightwell Baldwin",
      "lat": 51.633333,
      "lng": -1.05
    },
    {
      "cityName": "Britwell Salome",
      "lat": 51.616667,
      "lng": -1.033333
    },
    {
      "cityName": "Brize Norton",
      "lat": 51.766667,
      "lng": -1.566667
    },
    {
      "cityName": "Broadwell",
      "lat": 51.733333,
      "lng": -1.633333
    },
    {
      "cityName": "Broughton",
      "lat": 52.033333,
      "lng": -1.383333
    },
    {
      "cityName": "Buckland",
      "lat": 51.666667,
      "lng": -1.5
    },
    {
      "cityName": "Burford",
      "lat": 51.8,
      "lng": -1.633333
    },
    {
      "cityName": "Carterton",
      "lat": 51.75,
      "lng": -1.583333
    },
    {
      "cityName": "Cassington",
      "lat": 51.783333,
      "lng": -1.35
    },
    {
      "cityName": "Chacombe",
      "lat": 52.083333,
      "lng": -1.283333
    },
    {
      "cityName": "Chadlington",
      "lat": 51.883333,
      "lng": -1.516667
    },
    {
      "cityName": "Chalgrove",
      "lat": 51.65,
      "lng": -1.083333
    },
    {
      "cityName": "Challow",
      "lat": 51.583333,
      "lng": -1.466667
    },
    {
      "cityName": "Charlbury",
      "lat": 51.866667,
      "lng": -1.466667
    },
    {
      "cityName": "Charney Basset",
      "lat": 51.633333,
      "lng": -1.45
    },
    {
      "cityName": "Chearsley",
      "lat": 51.766667,
      "lng": -0.95
    },
    {
      "cityName": "Chesterton",
      "lat": 51.883333,
      "lng": -1.183333
    },
    {
      "cityName": "Childrey",
      "lat": 51.583333,
      "lng": -1.483333
    },
    {
      "cityName": "Chilton",
      "lat": 51.55,
      "lng": -1.266667
    },
    {
      "cityName": "Chinnor",
      "lat": 51.683333,
      "lng": -0.9
    },
    {
      "cityName": "Chipping Norton",
      "lat": 51.866667,
      "lng": -1.533333
    },
    {
      "cityName": "Cholsey",
      "lat": 51.566667,
      "lng": -1.15
    },
    {
      "cityName": "Christmas Common",
      "lat": 51.633333,
      "lng": -0.966667
    },
    {
      "cityName": "Church Handborough",
      "lat": 51.8,
      "lng": -1.383333
    },
    {
      "cityName": "Clanfield",
      "lat": 51.7,
      "lng": -1.583333
    },
    {
      "cityName": "Clapton",
      "lat": 51.85,
      "lng": -1.766667
    },
    {
      "cityName": "Coleshill",
      "lat": 51.633333,
      "lng": -1.65
    },
    {
      "cityName": "Compton",
      "lat": 51.516667,
      "lng": -1.25
    },
    {
      "cityName": "Cottam",
      "lat": 53.3,
      "lng": -0.766667
    },
    {
      "cityName": "Cowley",
      "lat": 51.716667,
      "lng": -1.216667
    },
    {
      "cityName": "Coxwell",
      "lat": 51.633333,
      "lng": -1.6
    },
    {
      "cityName": "Crowell",
      "lat": 51.683333,
      "lng": -0.916667
    },
    {
      "cityName": "Crowmarsh Gifford",
      "lat": 51.583333,
      "lng": -1.1
    },
    {
      "cityName": "Cuddesdon",
      "lat": 51.716667,
      "lng": -1.133333
    },
    {
      "cityName": "Culham",
      "lat": 51.65,
      "lng": -1.283333
    },
    {
      "cityName": "Cumnor",
      "lat": 51.716667,
      "lng": -1.333333
    },
    {
      "cityName": "Cuxham",
      "lat": 51.65,
      "lng": -1.033333
    },
    {
      "cityName": "Denchworth",
      "lat": 51.616667,
      "lng": -1.45
    },
    {
      "cityName": "Didcot",
      "lat": 51.6,
      "lng": -1.25
    },
    {
      "cityName": "Dorton",
      "lat": 51.816667,
      "lng": -1
    },
    {
      "cityName": "Drayton",
      "lat": 51.633333,
      "lng": -1.3
    },
    {
      "cityName": "Ducklington",
      "lat": 51.75,
      "lng": -1.483333
    },
    {
      "cityName": "East Challow",
      "lat": 51.583333,
      "lng": -1.45
    },
    {
      "cityName": "East Hagbourne",
      "lat": 51.583333,
      "lng": -1.233333
    },
    {
      "cityName": "East Hanney",
      "lat": 51.616667,
      "lng": -1.4
    },
    {
      "cityName": "East Tisted",
      "lat": 51.083333,
      "lng": -0.983333
    },
    {
      "cityName": "Edgcott",
      "lat": 51.883333,
      "lng": -1.016667
    },
    {
      "cityName": "Elsfield",
      "lat": 51.766667,
      "lng": -1.216667
    },
    {
      "cityName": "Ensham",
      "lat": 51.766667,
      "lng": -1.383333
    },
    {
      "cityName": "Enstone",
      "lat": 51.916667,
      "lng": -1.45
    },
    {
      "cityName": "Ewelme",
      "lat": 51.6,
      "lng": -1.066667
    },
    {
      "cityName": "Faringdon",
      "lat": 51.1,
      "lng": -0.983333
    },
    {
      "cityName": "Fawley",
      "lat": 51.566667,
      "lng": -0.916667
    },
    {
      "cityName": "Fifield",
      "lat": 51.85,
      "lng": -1.65
    },
    {
      "cityName": "Garford",
      "lat": 51.65,
      "lng": -1.383333
    },
    {
      "cityName": "Garsington",
      "lat": 51.7,
      "lng": -1.15
    },
    {
      "cityName": "Great Barrington",
      "lat": 51.816667,
      "lng": -1.7
    },
    {
      "cityName": "Great Haseley",
      "lat": 51.7,
      "lng": -1.066667
    },
    {
      "cityName": "Great Milton",
      "lat": 51.716667,
      "lng": -1.083333
    },
    {
      "cityName": "Great Rissington",
      "lat": 51.85,
      "lng": -1.716667
    },
    {
      "cityName": "Great Tew",
      "lat": 51.95,
      "lng": -1.416667
    },
    {
      "cityName": "Grendon Underwood",
      "lat": 51.866667,
      "lng": -1
    },
    {
      "cityName": "Grove",
      "lat": 51.6,
      "lng": -1.416667
    },
    {
      "cityName": "Haddenham",
      "lat": 51.766667,
      "lng": -0.916667
    },
    {
      "cityName": "Harwell",
      "lat": 51.6,
      "lng": -1.283333
    },
    {
      "cityName": "Hatford",
      "lat": 51.633333,
      "lng": -1.5
    },
    {
      "cityName": "Headington",
      "lat": 51.75,
      "lng": -1.2
    },
    {
      "cityName": "Hendred",
      "lat": 51.583333,
      "lng": -1.333333
    },
    {
      "cityName": "Holwell",
      "lat": 51.766667,
      "lng": -1.666667
    },
    {
      "cityName": "Horsepath",
      "lat": 51.733333,
      "lng": -1.166667
    },
    {
      "cityName": "Ibstone",
      "lat": 51.616667,
      "lng": -0.9
    },
    {
      "cityName": "Idbury",
      "lat": 51.866667,
      "lng": -1.65
    },
    {
      "cityName": "Islip",
      "lat": 51.816667,
      "lng": -1.233333
    },
    {
      "cityName": "Kencot",
      "lat": 51.733333,
      "lng": -1.616667
    },
    {
      "cityName": "Kiddington",
      "lat": 51.9,
      "lng": -1.4
    },
    {
      "cityName": "Kidlington",
      "lat": 51.816667,
      "lng": -1.283333
    },
    {
      "cityName": "Kingsey",
      "lat": 51.75,
      "lng": -0.916667
    },
    {
      "cityName": "Kings Sutton",
      "lat": 52.016667,
      "lng": -1.266667
    },
    {
      "cityName": "Kingston Bagpuze",
      "lat": 51.666667,
      "lng": -1.416667
    },
    {
      "cityName": "Kirtlington",
      "lat": 51.866667,
      "lng": -1.266667
    },
    {
      "cityName": "Laneham",
      "lat": 53.266667,
      "lng": -0.8
    },
    {
      "cityName": "Langford",
      "lat": 51.716667,
      "lng": -1.633333
    },
    {
      "cityName": "Launton",
      "lat": 51.883333,
      "lng": -1.116667
    },
    {
      "cityName": "Letcombe Bassett",
      "lat": 51.55,
      "lng": -1.45
    },
    {
      "cityName": "Letcombe Regis",
      "lat": 51.566667,
      "lng": -1.45
    },
    {
      "cityName": "Lewknor",
      "lat": 51.666667,
      "lng": -0.966667
    },
    {
      "cityName": "Little Barrington",
      "lat": 51.8,
      "lng": -1.683333
    },
    {
      "cityName": "Little Haseley",
      "lat": 51.683333,
      "lng": -1.066667
    },
    {
      "cityName": "Little Milton",
      "lat": 51.683333,
      "lng": -1.1
    },
    {
      "cityName": "Little Rissington",
      "lat": 51.866667,
      "lng": -1.716667
    },
    {
      "cityName": "Little Strickland",
      "lat": 54.55,
      "lng": -2.666667
    },
    {
      "cityName": "Little Tew",
      "lat": 51.933333,
      "lng": -1.433333
    },
    {
      "cityName": "Littleworth",
      "lat": 51.666667,
      "lng": -1.55
    },
    {
      "cityName": "Lockinge",
      "lat": 51.566667,
      "lng": -1.383333
    },
    {
      "cityName": "Long Crendon",
      "lat": 51.766667,
      "lng": -0.983333
    },
    {
      "cityName": "Long Wittenham",
      "lat": 51.633333,
      "lng": -1.233333
    },
    {
      "cityName": "Longworth",
      "lat": 51.683333,
      "lng": -1.433333
    },
    {
      "cityName": "Lower Slaughter",
      "lat": 51.883333,
      "lng": -1.75
    },
    {
      "cityName": "Marcham",
      "lat": 51.65,
      "lng": -1.333333
    },
    {
      "cityName": "Mardale",
      "lat": 54.483333,
      "lng": -2.816667
    },
    {
      "cityName": "Marsh Gibbon",
      "lat": 51.9,
      "lng": -1.05
    },
    {
      "cityName": "Marston",
      "lat": 51.766667,
      "lng": -1.233333
    },
    {
      "cityName": "Merton",
      "lat": 51.85,
      "lng": -1.166667
    },
    {
      "cityName": "Milton",
      "lat": 51.616667,
      "lng": -1.3
    },
    {
      "cityName": "Mongewell",
      "lat": 51.583333,
      "lng": -1.116667
    },
    {
      "cityName": "Moreton",
      "lat": 51.6,
      "lng": -1.183333
    },
    {
      "cityName": "Nettlebed",
      "lat": 51.566667,
      "lng": -0.983333
    },
    {
      "cityName": "Newby",
      "lat": 54.566667,
      "lng": -2.616667
    },
    {
      "cityName": "Newton",
      "lat": 53.25,
      "lng": -0.783333
    },
    {
      "cityName": "Northend",
      "lat": 51.616667,
      "lng": -0.95
    },
    {
      "cityName": "North Hinksey",
      "lat": 51.733333,
      "lng": -1.283333
    },
    {
      "cityName": "North Leigh",
      "lat": 51.8,
      "lng": -1.433333
    },
    {
      "cityName": "North Leverton",
      "lat": 53.316667,
      "lng": -0.816667
    },
    {
      "cityName": "Northmoor",
      "lat": 51.716667,
      "lng": -1.383333
    },
    {
      "cityName": "North Stoke",
      "lat": 51.566667,
      "lng": -1.116667
    },
    {
      "cityName": "Nuffield",
      "lat": 51.566667,
      "lng": -1.033333
    },
    {
      "cityName": "Nuneham Courtenay",
      "lat": 51.7,
      "lng": -1.216667
    },
    {
      "cityName": "Oxford",
      "lat": 51.75,
      "lng": -1.25
    },
    {
      "cityName": "Pishill",
      "lat": 51.6,
      "lng": -0.95
    },
    {
      "cityName": "Pooley Bridge",
      "lat": 54.6,
      "lng": -2.816667
    },
    {
      "cityName": "Poundon",
      "lat": 51.916667,
      "lng": -1.05
    },
    {
      "cityName": "Pusey",
      "lat": 51.666667,
      "lng": -1.483333
    },
    {
      "cityName": "Pyrton",
      "lat": 51.65,
      "lng": -1
    },
    {
      "cityName": "Radcot",
      "lat": 51.683333,
      "lng": -1.583333
    },
    {
      "cityName": "Radley",
      "lat": 51.666667,
      "lng": -1.216667
    },
    {
      "cityName": "Radnage",
      "lat": 51.683333,
      "lng": -0.866667
    },
    {
      "cityName": "Rampton",
      "lat": 53.3,
      "lng": -0.8
    },
    {
      "cityName": "Rissington Wick",
      "lat": 51.883333,
      "lng": -1.716667
    },
    {
      "cityName": "Ropley",
      "lat": 51.066667,
      "lng": -1.083333
    },
    {
      "cityName": "Rosgill",
      "lat": 54.533333,
      "lng": -2.716667
    },
    {
      "cityName": "Rotherfield Peppard",
      "lat": 51.533333,
      "lng": -0.966667
    },
    {
      "cityName": "Rousham",
      "lat": 51.9,
      "lng": -1.316667
    },
    {
      "cityName": "Selborne",
      "lat": 51.083333,
      "lng": -0.933333
    },
    {
      "cityName": "Sevenhampton",
      "lat": 51.6,
      "lng": -1.7
    },
    {
      "cityName": "Shabbington",
      "lat": 51.75,
      "lng": -1.033333
    },
    {
      "cityName": "Shap",
      "lat": 54.516667,
      "lng": -2.666667
    },
    {
      "cityName": "Sherbourne",
      "lat": 51.816667,
      "lng": -1.75
    },
    {
      "cityName": "Shillingford",
      "lat": 51.616667,
      "lng": -1.133333
    },
    {
      "cityName": "Shilton",
      "lat": 51.766667,
      "lng": -1.6
    },
    {
      "cityName": "Shipton",
      "lat": 51.85,
      "lng": -1.583333
    },
    {
      "cityName": "Shirburn",
      "lat": 51.65,
      "lng": -0.983333
    },
    {
      "cityName": "Shrivenham",
      "lat": 51.6,
      "lng": -1.65
    },
    {
      "cityName": "Sotwell",
      "lat": 51.6,
      "lng": -1.15
    },
    {
      "cityName": "South Hinksey",
      "lat": 51.716667,
      "lng": -1.25
    },
    {
      "cityName": "South Leigh",
      "lat": 51.766667,
      "lng": -1.433333
    },
    {
      "cityName": "South Leverton",
      "lat": 53.316667,
      "lng": -0.833333
    },
    {
      "cityName": "South Moreton",
      "lat": 51.583333,
      "lng": -1.183333
    },
    {
      "cityName": "Spelsbury",
      "lat": 51.883333,
      "lng": -1.5
    },
    {
      "cityName": "Standlake",
      "lat": 51.716667,
      "lng": -1.416667
    },
    {
      "cityName": "Stanton Harcourt",
      "lat": 51.733333,
      "lng": -1.4
    },
    {
      "cityName": "Steventon",
      "lat": 51.616667,
      "lng": -1.316667
    },
    {
      "cityName": "Stokeham",
      "lat": 53.283333,
      "lng": -0.833333
    },
    {
      "cityName": "Stokenchurch",
      "lat": 51.65,
      "lng": -0.9
    },
    {
      "cityName": "Stonesfield",
      "lat": 51.833333,
      "lng": -1.433333
    },
    {
      "cityName": "Stoodleigh",
      "lat": 50.95,
      "lng": -3.533333
    },
    {
      "cityName": "Stratton Audley",
      "lat": 51.916667,
      "lng": -1.116667
    },
    {
      "cityName": "Summertown",
      "lat": 51.766667,
      "lng": -1.266667
    },
    {
      "cityName": "Sunningwell",
      "lat": 51.683333,
      "lng": -1.283333
    },
    {
      "cityName": "Sutton Courtenay",
      "lat": 51.633333,
      "lng": -1.266667
    },
    {
      "cityName": "Swinbrook",
      "lat": 51.8,
      "lng": -1.583333
    },
    {
      "cityName": "Tackley",
      "lat": 51.866667,
      "lng": -1.316667
    },
    {
      "cityName": "Taynton",
      "lat": 51.816667,
      "lng": -1.666667
    },
    {
      "cityName": "Tendring",
      "lat": 51.883333,
      "lng": -1.1
    },
    {
      "cityName": "Tetsworth",
      "lat": 51.7,
      "lng": -1
    },
    {
      "cityName": "Thame",
      "lat": 51.75,
      "lng": -0.983333
    },
    {
      "cityName": "Treswell",
      "lat": 53.3,
      "lng": -0.833333
    },
    {
      "cityName": "Uffington",
      "lat": 51.583333,
      "lng": -1.55
    },
    {
      "cityName": "Upton",
      "lat": 51.566667,
      "lng": -1.25
    },
    {
      "cityName": "Wallingford",
      "lat": 51.6,
      "lng": -1.133333
    },
    {
      "cityName": "Wantage",
      "lat": 51.583333,
      "lng": -1.4
    },
    {
      "cityName": "Wardington",
      "lat": 52.1,
      "lng": -1.283333
    },
    {
      "cityName": "Warkworth",
      "lat": 52.05,
      "lng": -1.283333
    },
    {
      "cityName": "Warminghall",
      "lat": 51.75,
      "lng": -1.066667
    },
    {
      "cityName": "Watchfield",
      "lat": 51.6,
      "lng": -1.633333
    },
    {
      "cityName": "Waterperry",
      "lat": 51.75,
      "lng": -1.083333
    },
    {
      "cityName": "Watlington",
      "lat": 51.633333,
      "lng": -1
    },
    {
      "cityName": "Wendlebury",
      "lat": 51.866667,
      "lng": -1.183333
    },
    {
      "cityName": "Westcote",
      "lat": 51.866667,
      "lng": -1.683333
    },
    {
      "cityName": "West Hanney",
      "lat": 51.616667,
      "lng": -1.416667
    },
    {
      "cityName": "Weston on the Green",
      "lat": 51.85,
      "lng": -1.216667
    },
    {
      "cityName": "Westwell",
      "lat": 51.783333,
      "lng": -1.683333
    },
    {
      "cityName": "Wheatley",
      "lat": 51.733333,
      "lng": -1.133333
    },
    {
      "cityName": "Wilcote",
      "lat": 51.833333,
      "lng": -1.45
    },
    {
      "cityName": "Windrush",
      "lat": 51.8,
      "lng": -1.716667
    },
    {
      "cityName": "Witney",
      "lat": 51.783333,
      "lng": -1.483333
    },
    {
      "cityName": "Woodstock",
      "lat": 51.85,
      "lng": -1.316667
    },
    {
      "cityName": "Woolstone",
      "lat": 51.583333,
      "lng": -1.566667
    },
    {
      "cityName": "Wootton",
      "lat": 51.7,
      "lng": -1.3
    },
    {
      "cityName": "Wotton Underwood",
      "lat": 51.833333,
      "lng": -1
    },
    {
      "cityName": "Wytham",
      "lat": 51.766667,
      "lng": -1.3
    },
    {
      "cityName": "Yarnton",
      "lat": 51.8,
      "lng": -1.3
    },
    {
      "cityName": "Yelford",
      "lat": 51.733333,
      "lng": -1.483333
    }
  ]
}