{
  "name": "Worcestershire",
  "cities": [
    {
      "cityName": "Abberley",
      "lat": 52.3,
      "lng": -2.366667
    },
    {
      "cityName": "Abbots Lench",
      "lat": 52.15,
      "lng": -1.966667
    },
    {
      "cityName": "Alvechurch",
      "lat": 52.333333,
      "lng": -1.95
    },
    {
      "cityName": "Badsey",
      "lat": 52.083333,
      "lng": -1.883333
    },
    {
      "cityName": "Barnt Green",
      "lat": 52.35,
      "lng": -1.983333
    },
    {
      "cityName": "Bengeworth",
      "lat": 52.083333,
      "lng": -1.933333
    },
    {
      "cityName": "Bentley",
      "lat": 52.283333,
      "lng": -2
    },
    {
      "cityName": "Beoley",
      "lat": 52.316667,
      "lng": -1.9
    },
    {
      "cityName": "Berrington",
      "lat": 52.3,
      "lng": -2.633333
    },
    {
      "cityName": "Besford",
      "lat": 52.1,
      "lng": -2.133333
    },
    {
      "cityName": "Bewdley",
      "lat": 52.383333,
      "lng": -2.316667
    },
    {
      "cityName": "Boraston",
      "lat": 52.316667,
      "lng": -2.566667
    },
    {
      "cityName": "Broadway",
      "lat": 50.933333,
      "lng": -2.966667
    },
    {
      "cityName": "Bromsgrove",
      "lat": 52.333333,
      "lng": -2.066667
    },
    {
      "cityName": "Buckland",
      "lat": 52.016667,
      "lng": -1.866667
    },
    {
      "cityName": "Charlton",
      "lat": 52.1,
      "lng": -1.983333
    },
    {
      "cityName": "Childs Wickham",
      "lat": 52.033333,
      "lng": -1.883333
    },
    {
      "cityName": "Church Honeybourne",
      "lat": 52.083333,
      "lng": -1.816667
    },
    {
      "cityName": "Church Lench",
      "lat": 52.15,
      "lng": -1.95
    },
    {
      "cityName": "Cleeve Prior",
      "lat": 52.133333,
      "lng": -1.866667
    },
    {
      "cityName": "Cofton Hackett",
      "lat": 52.366667,
      "lng": -1.983333
    },
    {
      "cityName": "Cow Honeybourne",
      "lat": 52.083333,
      "lng": -1.833333
    },
    {
      "cityName": "Crossway Green",
      "lat": 52.316667,
      "lng": -2.233333
    },
    {
      "cityName": "Crowle",
      "lat": 52.2,
      "lng": -2.116667
    },
    {
      "cityName": "Cutsdean",
      "lat": 51.966667,
      "lng": -1.866667
    },
    {
      "cityName": "Dodford",
      "lat": 52.35,
      "lng": -2.1
    },
    {
      "cityName": "Doverdale",
      "lat": 52.283333,
      "lng": -2.2
    },
    {
      "cityName": "Draycott",
      "lat": 52.133333,
      "lng": -2.216667
    },
    {
      "cityName": "Droitwich",
      "lat": 52.266667,
      "lng": -2.15
    },
    {
      "cityName": "Elmbridge",
      "lat": 52.316667,
      "lng": -2.15
    },
    {
      "cityName": "Fernhill Heath",
      "lat": 52.233333,
      "lng": -2.2
    },
    {
      "cityName": "Great Kyre",
      "lat": 52.266667,
      "lng": -2.55
    },
    {
      "cityName": "Great Malvern",
      "lat": 52.116667,
      "lng": -2.316667
    },
    {
      "cityName": "Greet",
      "lat": 52.333333,
      "lng": -2.633333
    },
    {
      "cityName": "Hanbury",
      "lat": 52.266667,
      "lng": -2.05
    },
    {
      "cityName": "Hanley Castle",
      "lat": 52.083333,
      "lng": -2.233333
    },
    {
      "cityName": "Harvington",
      "lat": 52.133333,
      "lng": -1.916667
    },
    {
      "cityName": "Headless Cross",
      "lat": 52.283333,
      "lng": -1.933333
    },
    {
      "cityName": "Henwick",
      "lat": 52.2,
      "lng": -2.233333
    },
    {
      "cityName": "Himbleton",
      "lat": 52.233333,
      "lng": -2.083333
    },
    {
      "cityName": "Hindlip",
      "lat": 52.2,
      "lng": -2.183333
    },
    {
      "cityName": "Hinton",
      "lat": 52.05,
      "lng": -1.95
    },
    {
      "cityName": "Hope Baggott",
      "lat": 52.35,
      "lng": -2.616667
    },
    {
      "cityName": "Hopwood",
      "lat": 52.383333,
      "lng": -1.95
    },
    {
      "cityName": "Kempsey",
      "lat": 52.133333,
      "lng": -2.2
    },
    {
      "cityName": "Kidderminster",
      "lat": 52.383333,
      "lng": -2.25
    },
    {
      "cityName": "Langley Green",
      "lat": 52.15,
      "lng": -2.4
    },
    {
      "cityName": "Lickey End",
      "lat": 52.366667,
      "lng": -2.05
    },
    {
      "cityName": "Little Dodford",
      "lat": 52.333333,
      "lng": -2.1
    },
    {
      "cityName": "Little Malvern",
      "lat": 52.066667,
      "lng": -2.333333
    },
    {
      "cityName": "Littleton",
      "lat": 52.1,
      "lng": -1.883333
    },
    {
      "cityName": "Long Marsden",
      "lat": 52.133333,
      "lng": -1.783333
    },
    {
      "cityName": "Madresfield",
      "lat": 52.116667,
      "lng": -2.283333
    },
    {
      "cityName": "Malvern Link",
      "lat": 52.133333,
      "lng": -2.3
    },
    {
      "cityName": "Malvern Wells",
      "lat": 52.066667,
      "lng": -2.316667
    },
    {
      "cityName": "Martin Hussingtree",
      "lat": 52.233333,
      "lng": -2.166667
    },
    {
      "cityName": "Mathon",
      "lat": 52.116667,
      "lng": -2.4
    },
    {
      "cityName": "Offenham",
      "lat": 52.1,
      "lng": -1.916667
    },
    {
      "cityName": "Pebworth",
      "lat": 52.116667,
      "lng": -1.8
    },
    {
      "cityName": "Pensax",
      "lat": 52.316667,
      "lng": -2.4
    },
    {
      "cityName": "Peopleton",
      "lat": 52.15,
      "lng": -2.1
    },
    {
      "cityName": "Pershore",
      "lat": 52.116667,
      "lng": -2.066667
    },
    {
      "cityName": "Pirton",
      "lat": 52.116667,
      "lng": -2.183333
    },
    {
      "cityName": "Powick",
      "lat": 52.166667,
      "lng": -2.25
    },
    {
      "cityName": "Radditch",
      "lat": 52.3,
      "lng": -1.933333
    },
    {
      "cityName": "Ribbesford",
      "lat": 52.366667,
      "lng": -2.316667
    },
    {
      "cityName": "Rock",
      "lat": 52.333333,
      "lng": -2.4
    },
    {
      "cityName": "Sedgeberrow",
      "lat": 52.033333,
      "lng": -1.966667
    },
    {
      "cityName": "Seven Stoke",
      "lat": 52.1,
      "lng": -2.216667
    },
    {
      "cityName": "Shelsley Beauchamp",
      "lat": 52.266667,
      "lng": -2.4
    },
    {
      "cityName": "Snowshill",
      "lat": 52,
      "lng": -1.85
    },
    {
      "cityName": "Spetchley",
      "lat": 52.183333,
      "lng": -2.15
    },
    {
      "cityName": "Stanton",
      "lat": 52,
      "lng": -1.9
    },
    {
      "cityName": "Stanway",
      "lat": 51.983333,
      "lng": -1.916667
    },
    {
      "cityName": "Stoke Prior",
      "lat": 52.3,
      "lng": -2.066667
    },
    {
      "cityName": "Stourport",
      "lat": 52.35,
      "lng": -2.266667
    },
    {
      "cityName": "Tardebigge",
      "lat": 52.316667,
      "lng": -2
    },
    {
      "cityName": "Tenbury",
      "lat": 52.3,
      "lng": -2.583333
    },
    {
      "cityName": "Throckmorton",
      "lat": 52.15,
      "lng": -2.033333
    },
    {
      "cityName": "Toddington",
      "lat": 51.983333,
      "lng": -1.933333
    },
    {
      "cityName": "Upton-on-Severn",
      "lat": 52.066667,
      "lng": -2.216667
    },
    {
      "cityName": "Upton Warren",
      "lat": 52.3,
      "lng": -2.1
    },
    {
      "cityName": "Vigo",
      "lat": 52.333333,
      "lng": -2.016667
    },
    {
      "cityName": "Wadborough",
      "lat": 52.116667,
      "lng": -2.15
    },
    {
      "cityName": "Welland",
      "lat": 52.05,
      "lng": -2.3
    },
    {
      "cityName": "Weston Subedge",
      "lat": 52.05,
      "lng": -1.816667
    },
    {
      "cityName": "Wolverley",
      "lat": 52.416667,
      "lng": -2.25
    },
    {
      "cityName": "Worcester",
      "lat": 52.2,
      "lng": -2.2
    },
    {
      "cityName": "Wormington",
      "lat": 52.016667,
      "lng": -1.933333
    }
  ]
}