{
  "name": "Savanes",
  "cities": [
    {
      "cityName": "Bafimé",
      "lat": 9.466667,
      "lng": -5.566667
    },
    {
      "cityName": "Balékaha",
      "lat": 9.516667,
      "lng": -5.483333
    },
    {
      "cityName": "Blabokaha",
      "lat": 9.383333,
      "lng": -5.566667
    },
    {
      "cityName": "Blahouara",
      "lat": 9.5,
      "lng": -5.716667
    },
    {
      "cityName": "Bodonon",
      "lat": 9.583333,
      "lng": -5.666667
    },
    {
      "cityName": "Bounokaha",
      "lat": 9.4,
      "lng": -5.6
    },
    {
      "cityName": "Dabakaha",
      "lat": 9.45,
      "lng": -5.466667
    },
    {
      "cityName": "Dagbarakaha",
      "lat": 9.333333,
      "lng": -5.6
    },
    {
      "cityName": "Dagbonkaha",
      "lat": 9.366667,
      "lng": -5.583333
    },
    {
      "cityName": "Diégbè",
      "lat": 9.5,
      "lng": -5.633333
    },
    {
      "cityName": "Diélokaha",
      "lat": 9.4,
      "lng": -5.55
    },
    {
      "cityName": "Diémitana",
      "lat": 9.366667,
      "lng": -5.683333
    },
    {
      "cityName": "Diénana",
      "lat": 9.516667,
      "lng": -5.6
    },
    {
      "cityName": "Dobélakaha",
      "lat": 9.366667,
      "lng": -5.483333
    },
    {
      "cityName": "Dobyankaha",
      "lat": 9.4,
      "lng": -5.516667
    },
    {
      "cityName": "Dokaha",
      "lat": 9.35,
      "lng": -5.566667
    },
    {
      "cityName": "Dotek",
      "lat": 9.316667,
      "lng": -5.55
    },
    {
      "cityName": "Fadienkaha",
      "lat": 9.383333,
      "lng": -5.683333
    },
    {
      "cityName": "Fahala",
      "lat": 9.333333,
      "lng": -5.666667
    },
    {
      "cityName": "Famankaha",
      "lat": 9.566667,
      "lng": -5.7
    },
    {
      "cityName": "Famorodougou",
      "lat": 9.3,
      "lng": -5.566667
    },
    {
      "cityName": "Flanakaha",
      "lat": 9.3,
      "lng": -5.616667
    },
    {
      "cityName": "Fononfila",
      "lat": 9.5,
      "lng": -5.733333
    },
    {
      "cityName": "Foro",
      "lat": 9.4,
      "lng": -5.716667
    },
    {
      "cityName": "Gbaloho",
      "lat": 9.5,
      "lng": -5.7
    },
    {
      "cityName": "Gbandokaha",
      "lat": 9.533333,
      "lng": -5.55
    },
    {
      "cityName": "Gbanlélé",
      "lat": 9.3,
      "lng": -5.583333
    },
    {
      "cityName": "Gefyenkaha",
      "lat": 9.283333,
      "lng": -5.55
    },
    {
      "cityName": "Kafiédougou",
      "lat": 9.4,
      "lng": -5.633333
    },
    {
      "cityName": "Kafigé",
      "lat": 9.433333,
      "lng": -5.583333
    },
    {
      "cityName": "Kaniénékaha",
      "lat": 9.433333,
      "lng": -5.716667
    },
    {
      "cityName": "Kanofonkaha",
      "lat": 9.4,
      "lng": -5.7
    },
    {
      "cityName": "Kapélé",
      "lat": 9.433333,
      "lng": -5.7
    },
    {
      "cityName": "Karakoro",
      "lat": 9.416667,
      "lng": -5.5
    },
    {
      "cityName": "Kassiélékaha",
      "lat": 9.35,
      "lng": -5.55
    },
    {
      "cityName": "Kassienré",
      "lat": 9.4,
      "lng": -5.683333
    },
    {
      "cityName": "Katia",
      "lat": 9.366667,
      "lng": -5.65
    },
    {
      "cityName": "Katoumara",
      "lat": 9.45,
      "lng": -5.716667
    },
    {
      "cityName": "Klotélékaha",
      "lat": 9.533333,
      "lng": -5.5
    },
    {
      "cityName": "Kogotonkaha",
      "lat": 9.4,
      "lng": -5.466667
    },
    {
      "cityName": "Kolopiankaha",
      "lat": 9.35,
      "lng": -5.45
    },
    {
      "cityName": "Korgokaha",
      "lat": 9.5,
      "lng": -5.533333
    },
    {
      "cityName": "Korhogo",
      "lat": 9.45,
      "lng": -5.633333
    },
    {
      "cityName": "Koulokakaha",
      "lat": 9.466667,
      "lng": -5.583333
    },
    {
      "cityName": "Koumingékaha",
      "lat": 9.433333,
      "lng": -5.516667
    },
    {
      "cityName": "Kpeungarikaha",
      "lat": 9.383333,
      "lng": -5.5
    },
    {
      "cityName": "Ladorikaha",
      "lat": 9.366667,
      "lng": -5.55
    },
    {
      "cityName": "Lahata",
      "lat": 9.566667,
      "lng": -5.583333
    },
    {
      "cityName": "Lakouolokaha",
      "lat": 9.483333,
      "lng": -5.533333
    },
    {
      "cityName": "Lakpolo",
      "lat": 9.483333,
      "lng": -5.566667
    },
    {
      "cityName": "Laniéna",
      "lat": 9.533333,
      "lng": -5.6
    },
    {
      "cityName": "Lavanakaha",
      "lat": 9.366667,
      "lng": -5.533333
    },
    {
      "cityName": "Lawélek",
      "lat": 9.3,
      "lng": -5.55
    },
    {
      "cityName": "Lénékaha",
      "lat": 9.45,
      "lng": -5.6
    },
    {
      "cityName": "Lofinékaha",
      "lat": 9.283333,
      "lng": -5.6
    },
    {
      "cityName": "Lofiné",
      "lat": 9.55,
      "lng": -5.683333
    },
    {
      "cityName": "Lohonyonkaha",
      "lat": 9.55,
      "lng": -5.566667
    },
    {
      "cityName": "Lomakaha",
      "lat": 9.45,
      "lng": -5.55
    },
    {
      "cityName": "Lonakaha",
      "lat": 9.333333,
      "lng": -5.583333
    },
    {
      "cityName": "Lorikaha",
      "lat": 9.4,
      "lng": -5.533333
    },
    {
      "cityName": "Mingakaha",
      "lat": 9.333333,
      "lng": -5.483333
    },
    {
      "cityName": "Moroviné",
      "lat": 9.4,
      "lng": -5.566667
    },
    {
      "cityName": "Nadyinkaha",
      "lat": 9.5,
      "lng": -5.483333
    },
    {
      "cityName": "Nagounkaha",
      "lat": 9.5,
      "lng": -5.516667
    },
    {
      "cityName": "Nahakaha",
      "lat": 9.366667,
      "lng": -5.466667
    },
    {
      "cityName": "Nahouakaha",
      "lat": 9.466667,
      "lng": -5.5
    },
    {
      "cityName": "Nahoualakaha",
      "lat": 9.333333,
      "lng": -5.65
    },
    {
      "cityName": "Nakourbélékaha",
      "lat": 9.316667,
      "lng": -5.6
    },
    {
      "cityName": "Nallouroukaha",
      "lat": 9.516667,
      "lng": -5.616667
    },
    {
      "cityName": "Nalolokaha",
      "lat": 9.316667,
      "lng": -5.583333
    },
    {
      "cityName": "Nanbadiélékaha",
      "lat": 9.366667,
      "lng": -5.566667
    },
    {
      "cityName": "Nanbatiourkaha",
      "lat": 9.316667,
      "lng": -5.516667
    },
    {
      "cityName": "Nanbolokaha",
      "lat": 9.4,
      "lng": -5.583333
    },
    {
      "cityName": "Nanbourbakaha",
      "lat": 9.416667,
      "lng": -5.7
    },
    {
      "cityName": "Nangakaha",
      "lat": 9.566667,
      "lng": -5.516667
    },
    {
      "cityName": "Nangasèrègè",
      "lat": 9.483333,
      "lng": -5.733333
    },
    {
      "cityName": "Nangohouokaha",
      "lat": 9.483333,
      "lng": -5.516667
    },
    {
      "cityName": "Nanionkaha",
      "lat": 9.333333,
      "lng": -5.566667
    },
    {
      "cityName": "Nanyènengèkaha",
      "lat": 9.483333,
      "lng": -5.7
    },
    {
      "cityName": "Natio-Kobadara",
      "lat": 9.483333,
      "lng": -5.616667
    },
    {
      "cityName": "Natyo Kabadara",
      "lat": 9.533333,
      "lng": -5.7
    },
    {
      "cityName": "Navonongokaha",
      "lat": 9.333333,
      "lng": -5.55
    },
    {
      "cityName": "Néchokaha",
      "lat": 9.283333,
      "lng": -5.583333
    },
    {
      "cityName": "Nédioukaha",
      "lat": 9.516667,
      "lng": -5.516667
    },
    {
      "cityName": "Nianbélégué",
      "lat": 9.466667,
      "lng": -5.7
    },
    {
      "cityName": "Nianélékaha",
      "lat": 9.416667,
      "lng": -5.616667
    },
    {
      "cityName": "Nidalivogo",
      "lat": 9.516667,
      "lng": -5.55
    },
    {
      "cityName": "Niellokaha",
      "lat": 9.366667,
      "lng": -5.516667
    },
    {
      "cityName": "Nioudiozonkaha",
      "lat": 9.466667,
      "lng": -5.533333
    },
    {
      "cityName": "Nogoniénékaha",
      "lat": 9.35,
      "lng": -5.466667
    },
    {
      "cityName": "Nogotékaha",
      "lat": 9.316667,
      "lng": -5.533333
    },
    {
      "cityName": "Nongotiérikaha",
      "lat": 9.516667,
      "lng": -5.65
    },
    {
      "cityName": "Nongozankaha",
      "lat": 9.483333,
      "lng": -5.5
    },
    {
      "cityName": "Nouplé Kalélé",
      "lat": 9.566667,
      "lng": -5.65
    },
    {
      "cityName": "Nouplé",
      "lat": 9.55,
      "lng": -5.633333
    },
    {
      "cityName": "Pédérékaha",
      "lat": 9.416667,
      "lng": -5.466667
    },
    {
      "cityName": "Pligakaha",
      "lat": 9.3,
      "lng": -5.633333
    },
    {
      "cityName": "Pokaha",
      "lat": 9.416667,
      "lng": -5.516667
    },
    {
      "cityName": "Prémafolo",
      "lat": 9.433333,
      "lng": -5.6
    },
    {
      "cityName": "Séllé",
      "lat": 9.516667,
      "lng": -5.683333
    },
    {
      "cityName": "Séridiakaha",
      "lat": 9.55,
      "lng": -5.583333
    },
    {
      "cityName": "Sissian",
      "lat": 9.366667,
      "lng": -5.716667
    },
    {
      "cityName": "Sologo",
      "lat": 9.35,
      "lng": -5.666667
    },
    {
      "cityName": "Solona",
      "lat": 9.35,
      "lng": -5.683333
    },
    {
      "cityName": "Soritianvogo",
      "lat": 9.533333,
      "lng": -5.583333
    },
    {
      "cityName": "Takalé",
      "lat": 9.416667,
      "lng": -5.6
    },
    {
      "cityName": "Tchopo",
      "lat": 9.4,
      "lng": -5.75
    },
    {
      "cityName": "Tégéré",
      "lat": 9.433333,
      "lng": -5.65
    },
    {
      "cityName": "Ténémongokaha",
      "lat": 9.316667,
      "lng": -5.616667
    },
    {
      "cityName": "Tengrela",
      "lat": 10.486944,
      "lng": -6.409722
    },
    {
      "cityName": "Tiélivogo",
      "lat": 9.516667,
      "lng": -5.733333
    },
    {
      "cityName": "Tiémélékaha",
      "lat": 9.55,
      "lng": -5.533333
    },
    {
      "cityName": "Tiéyakaha",
      "lat": 9.333333,
      "lng": -5.633333
    },
    {
      "cityName": "Tiohoniarandugu",
      "lat": 9.35,
      "lng": -5.633333
    },
    {
      "cityName": "Tiorotiérivogo",
      "lat": 9.6,
      "lng": -5.616667
    },
    {
      "cityName": "Topigakaha",
      "lat": 9.4,
      "lng": -5.483333
    },
    {
      "cityName": "Torgokaha",
      "lat": 9.383333,
      "lng": -5.633333
    },
    {
      "cityName": "Torokodougou",
      "lat": 9.416667,
      "lng": -5.65
    },
    {
      "cityName": "Walougokaha",
      "lat": 9.283333,
      "lng": -5.616667
    },
    {
      "cityName": "Wamakaha",
      "lat": 9.316667,
      "lng": -5.566667
    },
    {
      "cityName": "Waraniéné",
      "lat": 9.416667,
      "lng": -5.666667
    },
    {
      "cityName": "Yéfon",
      "lat": 9.516667,
      "lng": -5.7
    },
    {
      "cityName": "Zanapkokaha",
      "lat": 9.366667,
      "lng": -5.633333
    },
    {
      "cityName": "Zéwélékaha",
      "lat": 9.4,
      "lng": -5.45
    },
    {
      "cityName": "Zimakaha",
      "lat": 9.483333,
      "lng": -5.466667
    },
    {
      "cityName": "Zongotakaha",
      "lat": 9.416667,
      "lng": -5.683333
    }
  ]
}