{
  "name": "Unnamed region 25",
  "cities": [
    {
      "cityName": "Alamingoro",
      "lat": 8.733333,
      "lng": -3.216667
    },
    {
      "cityName": "Amindi",
      "lat": 9.7,
      "lng": -3.566667
    },
    {
      "cityName": "Andan",
      "lat": 9.933333,
      "lng": -3.716667
    },
    {
      "cityName": "Angaye",
      "lat": 9.583333,
      "lng": -3.283333
    },
    {
      "cityName": "Angobila",
      "lat": 8.466667,
      "lng": -3.583333
    },
    {
      "cityName": "Anson",
      "lat": 9.233333,
      "lng": -3.066667
    },
    {
      "cityName": "Anvahi",
      "lat": 8.533333,
      "lng": -3.083333
    },
    {
      "cityName": "Anvéyo",
      "lat": 8.533333,
      "lng": -3.516667
    },
    {
      "cityName": "Babaigué",
      "lat": 9.783333,
      "lng": -3.65
    },
    {
      "cityName": "Babayondo",
      "lat": 9.833333,
      "lng": -3.283333
    },
    {
      "cityName": "Baguila",
      "lat": 9.85,
      "lng": -3.366667
    },
    {
      "cityName": "Baloun",
      "lat": 9.566667,
      "lng": -3.016667
    },
    {
      "cityName": "Baltan",
      "lat": 9.85,
      "lng": -3.416667
    },
    {
      "cityName": "Bambéla",
      "lat": 9.566667,
      "lng": -3.883333
    },
    {
      "cityName": "Bania",
      "lat": 9.016667,
      "lng": -3.166667
    },
    {
      "cityName": "Barakodi",
      "lat": 8.45,
      "lng": -3.216667
    },
    {
      "cityName": "Baria",
      "lat": 9.85,
      "lng": -3.35
    },
    {
      "cityName": "Bartégué",
      "lat": 9.85,
      "lng": -3.666667
    },
    {
      "cityName": "Batédi",
      "lat": 9.583333,
      "lng": -3.916667
    },
    {
      "cityName": "Batilindé",
      "lat": 9.9,
      "lng": -3.566667
    },
    {
      "cityName": "Batipor",
      "lat": 9.45,
      "lng": -2.866667
    },
    {
      "cityName": "Batiyal",
      "lat": 9.9,
      "lng": -3.55
    },
    {
      "cityName": "Batiyéna",
      "lat": 9.883333,
      "lng": -3.55
    },
    {
      "cityName": "Bavayo",
      "lat": 8.633333,
      "lng": -3.733333
    },
    {
      "cityName": "Bayana",
      "lat": 9.583333,
      "lng": -3.066667
    },
    {
      "cityName": "Béïriéra",
      "lat": 9.866667,
      "lng": -3.433333
    },
    {
      "cityName": "Bélétan",
      "lat": 9.55,
      "lng": -3.35
    },
    {
      "cityName": "Bélinkoré",
      "lat": 9.733333,
      "lng": -3.7
    },
    {
      "cityName": "Bénanbéré",
      "lat": 8.366667,
      "lng": -3.2
    },
    {
      "cityName": "Bénassono",
      "lat": 9.45,
      "lng": -3.033333
    },
    {
      "cityName": "Bénioudo",
      "lat": 9.85,
      "lng": -3.2
    },
    {
      "cityName": "Bérikiri",
      "lat": 9.816667,
      "lng": -3.333333
    },
    {
      "cityName": "Bibiel",
      "lat": 9.433333,
      "lng": -2.95
    },
    {
      "cityName": "Bidari",
      "lat": 9.766667,
      "lng": -3.1
    },
    {
      "cityName": "Bidigué",
      "lat": 9.633333,
      "lng": -3.45
    },
    {
      "cityName": "Biékiri",
      "lat": 9.833333,
      "lng": -3.3
    },
    {
      "cityName": "Biélifi",
      "lat": 9.816667,
      "lng": -3.4
    },
    {
      "cityName": "Biélini",
      "lat": 9.8,
      "lng": -3.416667
    },
    {
      "cityName": "Bielpin",
      "lat": 9.716667,
      "lng": -3.333333
    },
    {
      "cityName": "Biénou",
      "lat": 9.816667,
      "lng": -3.183333
    },
    {
      "cityName": "Bierra",
      "lat": 9.483333,
      "lng": -3.233333
    },
    {
      "cityName": "Bifouanté",
      "lat": 9.583333,
      "lng": -3.233333
    },
    {
      "cityName": "Biguilay",
      "lat": 9.466667,
      "lng": -3.883333
    },
    {
      "cityName": "Biguine",
      "lat": 9.483333,
      "lng": -3.083333
    },
    {
      "cityName": "Bikoégui",
      "lat": 9.5,
      "lng": -3.116667
    },
    {
      "cityName": "Biléra",
      "lat": 9.783333,
      "lng": -3.45
    },
    {
      "cityName": "Bilinko-Bana",
      "lat": 9.483333,
      "lng": -3.433333
    },
    {
      "cityName": "Binadio",
      "lat": 9.833333,
      "lng": -3.216667
    },
    {
      "cityName": "Binazi",
      "lat": 9.833333,
      "lng": -3.4
    },
    {
      "cityName": "Bingoura",
      "lat": 9.816667,
      "lng": -3.3
    },
    {
      "cityName": "Binguetta",
      "lat": 9.9,
      "lng": -3.583333
    },
    {
      "cityName": "Bingui",
      "lat": 9.766667,
      "lng": -3.4
    },
    {
      "cityName": "Binguito",
      "lat": 9.766667,
      "lng": -3.7
    },
    {
      "cityName": "Binié",
      "lat": 9.65,
      "lng": -3.516667
    },
    {
      "cityName": "Biribiéli",
      "lat": 9.783333,
      "lng": -3.333333
    },
    {
      "cityName": "Birifo",
      "lat": 9.766667,
      "lng": -3.45
    },
    {
      "cityName": "Birima",
      "lat": 8.916667,
      "lng": -3.183333
    },
    {
      "cityName": "Bissankoye",
      "lat": 9.616667,
      "lng": -3.533333
    },
    {
      "cityName": "Blikaodi",
      "lat": 9.166667,
      "lng": -3.116667
    },
    {
      "cityName": "Bodé",
      "lat": 8.533333,
      "lng": -3.116667
    },
    {
      "cityName": "Boki",
      "lat": 9.816667,
      "lng": -3.583333
    },
    {
      "cityName": "Bonddo-Yo",
      "lat": 8.433333,
      "lng": -3.4
    },
    {
      "cityName": "Bonfilé",
      "lat": 9.433333,
      "lng": -3.033333
    },
    {
      "cityName": "Borodouo",
      "lat": 9.65,
      "lng": -3.316667
    },
    {
      "cityName": "Boroton",
      "lat": 9.5,
      "lng": -3.45
    },
    {
      "cityName": "Botou",
      "lat": 9.283333,
      "lng": -3.116667
    },
    {
      "cityName": "Bouaranda",
      "lat": 9.766667,
      "lng": -3.5
    },
    {
      "cityName": "Bougoulaye",
      "lat": 8.583333,
      "lng": -3.65
    },
    {
      "cityName": "Bouko",
      "lat": 9.483333,
      "lng": -3.166667
    },
    {
      "cityName": "Bouna",
      "lat": 9.266667,
      "lng": -3
    },
    {
      "cityName": "Bourgodon",
      "lat": 8.4,
      "lng": -3.116667
    },
    {
      "cityName": "Bourié",
      "lat": 9.666667,
      "lng": -3.5
    },
    {
      "cityName": "Bourougouroula",
      "lat": 9.766667,
      "lng": -3.216667
    },
    {
      "cityName": "Dabéli",
      "lat": 9.833333,
      "lng": -3.35
    },
    {
      "cityName": "Dabila",
      "lat": 9.7,
      "lng": -3.75
    },
    {
      "cityName": "Dabolandié",
      "lat": 9.75,
      "lng": -3
    },
    {
      "cityName": "Dadjo",
      "lat": 9.55,
      "lng": -3.483333
    },
    {
      "cityName": "Danbiro",
      "lat": 9.6,
      "lng": -3.583333
    },
    {
      "cityName": "Danguiro",
      "lat": 9.866667,
      "lng": -3.683333
    },
    {
      "cityName": "Danoa",
      "lat": 9.683333,
      "lng": -3.083333
    },
    {
      "cityName": "Dardo",
      "lat": 9.45,
      "lng": -2.833333
    },
    {
      "cityName": "Dédi",
      "lat": 8.616667,
      "lng": -3.683333
    },
    {
      "cityName": "Déko",
      "lat": 9.633333,
      "lng": -3.216667
    },
    {
      "cityName": "Dékoïkélo",
      "lat": 9.716667,
      "lng": -3.683333
    },
    {
      "cityName": "Dékoungbé",
      "lat": 8.55,
      "lng": -3.583333
    },
    {
      "cityName": "Déoudo",
      "lat": 9.55,
      "lng": -3.016667
    },
    {
      "cityName": "Déré",
      "lat": 9.833333,
      "lng": -3.6
    },
    {
      "cityName": "Dianéré",
      "lat": 9.333333,
      "lng": -3.166667
    },
    {
      "cityName": "Diédéré",
      "lat": 9.666667,
      "lng": -3.3
    },
    {
      "cityName": "Difara",
      "lat": 9.616667,
      "lng": -3.3
    },
    {
      "cityName": "Digba",
      "lat": 9.45,
      "lng": -3.2
    },
    {
      "cityName": "Dikba",
      "lat": 8.55,
      "lng": -3.333333
    },
    {
      "cityName": "Dikoïté",
      "lat": 9.733333,
      "lng": -3.733333
    },
    {
      "cityName": "Dikoye Sétrou",
      "lat": 9.633333,
      "lng": -3.55
    },
    {
      "cityName": "Dinaïro",
      "lat": 9.516667,
      "lng": -3.266667
    },
    {
      "cityName": "Dinapére",
      "lat": 9.766667,
      "lng": -3.566667
    },
    {
      "cityName": "Dinbara",
      "lat": 9.516667,
      "lng": -2.966667
    },
    {
      "cityName": "Diornia",
      "lat": 9.483333,
      "lng": -2.966667
    },
    {
      "cityName": "Diouro",
      "lat": 9.416667,
      "lng": -3.25
    },
    {
      "cityName": "Ditido",
      "lat": 9.416667,
      "lng": -2.966667
    },
    {
      "cityName": "Doguina",
      "lat": 9.35,
      "lng": -2.75
    },
    {
      "cityName": "Dokor",
      "lat": 9.45,
      "lng": -3
    },
    {
      "cityName": "Dorovitan",
      "lat": 9.483333,
      "lng": -3.416667
    },
    {
      "cityName": "Douro",
      "lat": 9.783333,
      "lng": -3.55
    },
    {
      "cityName": "Fafou",
      "lat": 9.733333,
      "lng": -3.116667
    },
    {
      "cityName": "Fakala",
      "lat": 8.45,
      "lng": -3.033333
    },
    {
      "cityName": "Fanako",
      "lat": 8.6,
      "lng": -3.15
    },
    {
      "cityName": "Farankoye",
      "lat": 9.566667,
      "lng": -3.316667
    },
    {
      "cityName": "Féki",
      "lat": 9.683333,
      "lng": -3.55
    },
    {
      "cityName": "Filié",
      "lat": 9.516667,
      "lng": -3.166667
    },
    {
      "cityName": "Gangane Da",
      "lat": 9.516667,
      "lng": -3.3
    },
    {
      "cityName": "Gangane",
      "lat": 9.566667,
      "lng": -3.516667
    },
    {
      "cityName": "Gaouy",
      "lat": 9,
      "lng": -3.916667
    },
    {
      "cityName": "Gobado",
      "lat": 9.633333,
      "lng": -2.983333
    },
    {
      "cityName": "Gobaïta",
      "lat": 9.733333,
      "lng": -3.233333
    },
    {
      "cityName": "Gobaitan",
      "lat": 9.866667,
      "lng": -3.733333
    },
    {
      "cityName": "Gobitara",
      "lat": 9.8,
      "lng": -3.583333
    },
    {
      "cityName": "Gogo",
      "lat": 9.766667,
      "lng": -3.533333
    },
    {
      "cityName": "Gola",
      "lat": 9.783333,
      "lng": -3.166667
    },
    {
      "cityName": "Gombelé",
      "lat": 8.6,
      "lng": -3.166667
    },
    {
      "cityName": "Gongopou",
      "lat": 9.6,
      "lng": -3.9
    },
    {
      "cityName": "Gori",
      "lat": 9.833333,
      "lng": -3.683333
    },
    {
      "cityName": "Gouamélé",
      "lat": 9.733333,
      "lng": -3.75
    },
    {
      "cityName": "Gouana",
      "lat": 9.716667,
      "lng": -3.733333
    },
    {
      "cityName": "Gouansé",
      "lat": 9.666667,
      "lng": -3.216667
    },
    {
      "cityName": "Goungoutolé",
      "lat": 9.266667,
      "lng": -2.85
    },
    {
      "cityName": "Gounpar",
      "lat": 9.45,
      "lng": -2.916667
    },
    {
      "cityName": "Goutoudo",
      "lat": 9.85,
      "lng": -3.133333
    },
    {
      "cityName": "Guélénion",
      "lat": 9.916667,
      "lng": -3.533333
    },
    {
      "cityName": "Guidiré",
      "lat": 9.733333,
      "lng": -3.45
    },
    {
      "cityName": "Guinanboum",
      "lat": 9.533333,
      "lng": -2.983333
    },
    {
      "cityName": "Hanion",
      "lat": 9.816667,
      "lng": -3.716667
    },
    {
      "cityName": "Herné",
      "lat": 9.75,
      "lng": -3.183333
    },
    {
      "cityName": "Himbié",
      "lat": 9.2,
      "lng": -2.85
    },
    {
      "cityName": "Inahire",
      "lat": 9.683333,
      "lng": -3.35
    },
    {
      "cityName": "Ino",
      "lat": 9.5,
      "lng": -3.1
    },
    {
      "cityName": "Irmangassaye",
      "lat": 9.6,
      "lng": -3.333333
    },
    {
      "cityName": "Itiri",
      "lat": 9.716667,
      "lng": -3.366667
    },
    {
      "cityName": "Kakoutan",
      "lat": 9.816667,
      "lng": -3.266667
    },
    {
      "cityName": "Kakpin",
      "lat": 8.65,
      "lng": -3.8
    },
    {
      "cityName": "Kalabo",
      "lat": 8.5,
      "lng": -3.55
    },
    {
      "cityName": "Kalamon",
      "lat": 9.816667,
      "lng": -3.166667
    },
    {
      "cityName": "Kaléfa",
      "lat": 9.483333,
      "lng": -3.05
    },
    {
      "cityName": "Kalfodo",
      "lat": 9.65,
      "lng": -3.166667
    },
    {
      "cityName": "Kalfour",
      "lat": 9.616667,
      "lng": -3.1
    },
    {
      "cityName": "Kalina",
      "lat": 9.766667,
      "lng": -3.3
    },
    {
      "cityName": "Kambolo",
      "lat": 9.366667,
      "lng": -3.233333
    },
    {
      "cityName": "Kanguélé",
      "lat": 8.4,
      "lng": -3.616667
    },
    {
      "cityName": "Kanhouralégué",
      "lat": 8.55,
      "lng": -3.633333
    },
    {
      "cityName": "Kantara",
      "lat": 9.8,
      "lng": -3.116667
    },
    {
      "cityName": "Kélétiki",
      "lat": 9.783333,
      "lng": -3.783333
    },
    {
      "cityName": "Kélindikoye",
      "lat": 9.783333,
      "lng": -3.633333
    },
    {
      "cityName": "Kéramira",
      "lat": 9.783333,
      "lng": -3.283333
    },
    {
      "cityName": "Kiaré",
      "lat": 9.716667,
      "lng": -3.416667
    },
    {
      "cityName": "Kiélo",
      "lat": 9.933333,
      "lng": -3.683333
    },
    {
      "cityName": "Kildio",
      "lat": 9.433333,
      "lng": -3.266667
    },
    {
      "cityName": "Kilihoro",
      "lat": 9.833333,
      "lng": -3.2
    },
    {
      "cityName": "Kilinbata",
      "lat": 9.616667,
      "lng": -3.2
    },
    {
      "cityName": "Kinani",
      "lat": 9.683333,
      "lng": -3.566667
    },
    {
      "cityName": "Kineta",
      "lat": 8.866667,
      "lng": -2.783333
    },
    {
      "cityName": "Kiripi",
      "lat": 9.85,
      "lng": -3.316667
    },
    {
      "cityName": "Kobinou",
      "lat": 9.783333,
      "lng": -3.25
    },
    {
      "cityName": "Koboro",
      "lat": 9.75,
      "lng": -3.75
    },
    {
      "cityName": "Kodiénou",
      "lat": 9.916667,
      "lng": -3.416667
    },
    {
      "cityName": "Kodo",
      "lat": 9.55,
      "lng": -3.083333
    },
    {
      "cityName": "Koébonou",
      "lat": 9.583333,
      "lng": -3.533333
    },
    {
      "cityName": "Kofa",
      "lat": 9.433333,
      "lng": -3.166667
    },
    {
      "cityName": "Koflandé",
      "lat": 9.083333,
      "lng": -3.15
    },
    {
      "cityName": "Kohodaï",
      "lat": 9.866667,
      "lng": -3.466667
    },
    {
      "cityName": "Kohui",
      "lat": 8.4,
      "lng": -3.15
    },
    {
      "cityName": "Koïbouré",
      "lat": 9.733333,
      "lng": -3.483333
    },
    {
      "cityName": "Koïtan",
      "lat": 9.6,
      "lng": -3.766667
    },
    {
      "cityName": "Kokpingué",
      "lat": 8.95,
      "lng": -3.183333
    },
    {
      "cityName": "Konanpéré",
      "lat": 9.533333,
      "lng": -3.3
    },
    {
      "cityName": "Kondo",
      "lat": 9.566667,
      "lng": -3.133333
    },
    {
      "cityName": "Konédia",
      "lat": 9.6,
      "lng": -3.933333
    },
    {
      "cityName": "Konguidougou",
      "lat": 9.383333,
      "lng": -3.033333
    },
    {
      "cityName": "Kononbro",
      "lat": 9.633333,
      "lng": -3.916667
    },
    {
      "cityName": "Konzaï",
      "lat": 9.75,
      "lng": -3.766667
    },
    {
      "cityName": "Konzié",
      "lat": 9.466667,
      "lng": -3.4
    },
    {
      "cityName": "Kossami",
      "lat": 9.883333,
      "lng": -3.6
    },
    {
      "cityName": "Kotouroudo",
      "lat": 9.85,
      "lng": -3.3
    },
    {
      "cityName": "Kouéro",
      "lat": 9.833333,
      "lng": -3.483333
    },
    {
      "cityName": "Koulanio",
      "lat": 9.733333,
      "lng": -3.316667
    },
    {
      "cityName": "Koulda",
      "lat": 9.383333,
      "lng": -2.766667
    },
    {
      "cityName": "Koumala",
      "lat": 9.816667,
      "lng": -3.366667
    },
    {
      "cityName": "Koundé",
      "lat": 9.283333,
      "lng": -2.85
    },
    {
      "cityName": "Kouranou",
      "lat": 9.65,
      "lng": -3.35
    },
    {
      "cityName": "Koutouba",
      "lat": 8.683333,
      "lng": -3.2
    },
    {
      "cityName": "Koutougou",
      "lat": 8.433333,
      "lng": -3.2
    },
    {
      "cityName": "Kpon",
      "lat": 8.416667,
      "lng": -3.5
    },
    {
      "cityName": "Krétido",
      "lat": 9.466667,
      "lng": -3.25
    },
    {
      "cityName": "Krikoua",
      "lat": 9.416667,
      "lng": -3.166667
    },
    {
      "cityName": "Ladré",
      "lat": 9.733333,
      "lng": -3.133333
    },
    {
      "cityName": "Lagbo",
      "lat": 9.9,
      "lng": -3.616667
    },
    {
      "cityName": "Lahadono",
      "lat": 9.433333,
      "lng": -3.2
    },
    {
      "cityName": "Lahindi",
      "lat": 8.833333,
      "lng": -2.75
    },
    {
      "cityName": "Lakoura",
      "lat": 9.7,
      "lng": -3.116667
    },
    {
      "cityName": "Lambira",
      "lat": 8.583333,
      "lng": -3.383333
    },
    {
      "cityName": "Landé",
      "lat": 8.433333,
      "lng": -3.483333
    },
    {
      "cityName": "Lankaré",
      "lat": 9.75,
      "lng": -3.1
    },
    {
      "cityName": "Lankie",
      "lat": 9.866667,
      "lng": -3.416667
    },
    {
      "cityName": "Lankoura",
      "lat": 9.75,
      "lng": -3.266667
    },
    {
      "cityName": "Latinga",
      "lat": 9.7,
      "lng": -3.433333
    },
    {
      "cityName": "Linki",
      "lat": 9.716667,
      "lng": -3.483333
    },
    {
      "cityName": "Logouana",
      "lat": 9.883333,
      "lng": -3.233333
    },
    {
      "cityName": "Longangara",
      "lat": 8.516667,
      "lng": -3.433333
    },
    {
      "cityName": "Lonko Hono",
      "lat": 9.883333,
      "lng": -3.65
    },
    {
      "cityName": "Magon",
      "lat": 8.783333,
      "lng": -3.183333
    },
    {
      "cityName": "Maguidan",
      "lat": 9.616667,
      "lng": -3.566667
    },
    {
      "cityName": "Makbène",
      "lat": 8.366667,
      "lng": -3.166667
    },
    {
      "cityName": "Mananko Binié",
      "lat": 9.6,
      "lng": -3.483333
    },
    {
      "cityName": "Maninbouri",
      "lat": 9.65,
      "lng": -3
    },
    {
      "cityName": "Mazou",
      "lat": 9.283333,
      "lng": -2.783333
    },
    {
      "cityName": "Médéna",
      "lat": 9.65,
      "lng": -3.916667
    },
    {
      "cityName": "Miguié",
      "lat": 9.433333,
      "lng": -2.866667
    },
    {
      "cityName": "Mina",
      "lat": 9.3,
      "lng": -2.766667
    },
    {
      "cityName": "Minda",
      "lat": 9.716667,
      "lng": -3.75
    },
    {
      "cityName": "Minkio",
      "lat": 9.8,
      "lng": -3.466667
    },
    {
      "cityName": "Moulé",
      "lat": 9.483333,
      "lng": -3.133333
    },
    {
      "cityName": "Mousso-Yéma",
      "lat": 8.816667,
      "lng": -3.183333
    },
    {
      "cityName": "Naguilou",
      "lat": 9.683333,
      "lng": -3.166667
    },
    {
      "cityName": "Nakélé",
      "lat": 9.85,
      "lng": -3.4
    },
    {
      "cityName": "Namadira",
      "lat": 9.766667,
      "lng": -3.433333
    },
    {
      "cityName": "Nami",
      "lat": 9.466667,
      "lng": -3.133333
    },
    {
      "cityName": "Nanpéré",
      "lat": 9.716667,
      "lng": -3.3
    },
    {
      "cityName": "Nasiam",
      "lat": 8.45,
      "lng": -3.483333
    },
    {
      "cityName": "Natatioupoulouo",
      "lat": 9.833333,
      "lng": -3.433333
    },
    {
      "cityName": "Niakoura",
      "lat": 9.9,
      "lng": -3.316667
    },
    {
      "cityName": "Niamoué",
      "lat": 9.6,
      "lng": -3.433333
    },
    {
      "cityName": "Niandagui",
      "lat": 9.266667,
      "lng": -2.9
    },
    {
      "cityName": "Niando",
      "lat": 9.733333,
      "lng": -3.416667
    },
    {
      "cityName": "Niobolo",
      "lat": 9.833333,
      "lng": -3.116667
    },
    {
      "cityName": "Niolango",
      "lat": 9.3,
      "lng": -3.083333
    },
    {
      "cityName": "Noata",
      "lat": 9.4,
      "lng": -3.066667
    },
    {
      "cityName": "Nodjir",
      "lat": 9.416667,
      "lng": -3.283333
    },
    {
      "cityName": "Noka",
      "lat": 9.366667,
      "lng": -3.083333
    },
    {
      "cityName": "Nomi",
      "lat": 9.7,
      "lng": -3.483333
    },
    {
      "cityName": "Nonpélé",
      "lat": 9.666667,
      "lng": -3.416667
    },
    {
      "cityName": "Nopori",
      "lat": 9.633333,
      "lng": -3.083333
    },
    {
      "cityName": "Nota",
      "lat": 9.466667,
      "lng": -3.066667
    },
    {
      "cityName": "Nougoa",
      "lat": 9.416667,
      "lng": -3.1
    },
    {
      "cityName": "Noumoutiédougou",
      "lat": 8.55,
      "lng": -3.116667
    },
    {
      "cityName": "Nyionio",
      "lat": 9.816667,
      "lng": -3.233333
    },
    {
      "cityName": "Olara",
      "lat": 9.7,
      "lng": -3.233333
    },
    {
      "cityName": "Ouakorodio",
      "lat": 8.6,
      "lng": -3.35
    },
    {
      "cityName": "Oulonpéré",
      "lat": 9.683333,
      "lng": -3.3
    },
    {
      "cityName": "Ounanié",
      "lat": 9.566667,
      "lng": -2.983333
    },
    {
      "cityName": "Païmoko",
      "lat": 9.533333,
      "lng": -3.416667
    },
    {
      "cityName": "Parbouli",
      "lat": 9.85,
      "lng": -3.683333
    },
    {
      "cityName": "Parhadi",
      "lat": 8.45,
      "lng": -3.55
    },
    {
      "cityName": "Pazangui",
      "lat": 8.5,
      "lng": -3.483333
    },
    {
      "cityName": "Péko",
      "lat": 9.516667,
      "lng": -3.033333
    },
    {
      "cityName": "Pélerdo",
      "lat": 9.366667,
      "lng": -3
    },
    {
      "cityName": "Péou",
      "lat": 9.75,
      "lng": -3.4
    },
    {
      "cityName": "Péteï",
      "lat": 8.4,
      "lng": -3.1
    },
    {
      "cityName": "Pieye",
      "lat": 8.9,
      "lng": -2.716667
    },
    {
      "cityName": "Pirimou",
      "lat": 8.583333,
      "lng": -3.283333
    },
    {
      "cityName": "Pogouana",
      "lat": 9.866667,
      "lng": -3.2
    },
    {
      "cityName": "Pomiré",
      "lat": 9.85,
      "lng": -3.633333
    },
    {
      "cityName": "Porovilan",
      "lat": 9.733333,
      "lng": -3.633333
    },
    {
      "cityName": "Poua",
      "lat": 9.783333,
      "lng": -3.366667
    },
    {
      "cityName": "Poubonaouré",
      "lat": 9.633333,
      "lng": -3.266667
    },
    {
      "cityName": "Pouon",
      "lat": 9.4,
      "lng": -2.933333
    },
    {
      "cityName": "Saboukba",
      "lat": 8.583333,
      "lng": -3.25
    },
    {
      "cityName": "Saédi",
      "lat": 9.616667,
      "lng": -3.483333
    },
    {
      "cityName": "Sagba",
      "lat": 9.716667,
      "lng": -3.016667
    },
    {
      "cityName": "Saiko",
      "lat": 9.733333,
      "lng": -3.383333
    },
    {
      "cityName": "Sainako",
      "lat": 9.816667,
      "lng": -3.45
    },
    {
      "cityName": "Sai",
      "lat": 9.45,
      "lng": -3.35
    },
    {
      "cityName": "Sakoura",
      "lat": 9.783333,
      "lng": -3.8
    },
    {
      "cityName": "Samdéna",
      "lat": 9.7,
      "lng": -3.733333
    },
    {
      "cityName": "Sanforo",
      "lat": 9.7,
      "lng": -3.216667
    },
    {
      "cityName": "Sangbanaré",
      "lat": 9.566667,
      "lng": -3.266667
    },
    {
      "cityName": "Sanguita",
      "lat": 8.483333,
      "lng": -3.083333
    },
    {
      "cityName": "Sansan",
      "lat": 9.65,
      "lng": -3.066667
    },
    {
      "cityName": "Sédou",
      "lat": 9.65,
      "lng": -3.55
    },
    {
      "cityName": "Segboron",
      "lat": 9.783333,
      "lng": -3.483333
    },
    {
      "cityName": "Sékiou",
      "lat": 9.6,
      "lng": -3.133333
    },
    {
      "cityName": "Séko",
      "lat": 9.566667,
      "lng": -3.116667
    },
    {
      "cityName": "Séni",
      "lat": 9.866667,
      "lng": -3.25
    },
    {
      "cityName": "Sépèlè",
      "lat": 9.783333,
      "lng": -3.266667
    },
    {
      "cityName": "Séperé",
      "lat": 9.383333,
      "lng": -3.183333
    },
    {
      "cityName": "Sépira",
      "lat": 9.5,
      "lng": -2.983333
    },
    {
      "cityName": "Sévé",
      "lat": 8.65,
      "lng": -3.2
    },
    {
      "cityName": "Sienli",
      "lat": 8.45,
      "lng": -3.25
    },
    {
      "cityName": "Singuéguétan",
      "lat": 9.616667,
      "lng": -3.916667
    },
    {
      "cityName": "Siraodi",
      "lat": 8.866667,
      "lng": -3.083333
    },
    {
      "cityName": "Sobopié",
      "lat": 9.316667,
      "lng": -3.133333
    },
    {
      "cityName": "Sogobi",
      "lat": 9.766667,
      "lng": -3.616667
    },
    {
      "cityName": "Sohobi",
      "lat": 9.816667,
      "lng": -3.733333
    },
    {
      "cityName": "Soloka",
      "lat": 8.533333,
      "lng": -3.783333
    },
    {
      "cityName": "Somantou",
      "lat": 9.366667,
      "lng": -2.883333
    },
    {
      "cityName": "Somati",
      "lat": 9.516667,
      "lng": -3
    },
    {
      "cityName": "Soropèle",
      "lat": 9.4,
      "lng": -3.3
    },
    {
      "cityName": "Sorotan",
      "lat": 9.45,
      "lng": -3.9
    },
    {
      "cityName": "Sourouboura",
      "lat": 9.783333,
      "lng": -3.35
    },
    {
      "cityName": "Takoïnaté",
      "lat": 9.733333,
      "lng": -3.716667
    },
    {
      "cityName": "Takoïte",
      "lat": 9.766667,
      "lng": -3.716667
    },
    {
      "cityName": "Talahini",
      "lat": 8.383333,
      "lng": -3.566667
    },
    {
      "cityName": "Talo",
      "lat": 9.75,
      "lng": -3.233333
    },
    {
      "cityName": "Tantama",
      "lat": 9.466667,
      "lng": -2.7
    },
    {
      "cityName": "Tantita",
      "lat": 9.9,
      "lng": -3.6
    },
    {
      "cityName": "Tara",
      "lat": 9.916667,
      "lng": -3.516667
    },
    {
      "cityName": "Tébikinko",
      "lat": 9.833333,
      "lng": -3.616667
    },
    {
      "cityName": "Téhérondo",
      "lat": 9.783333,
      "lng": -3.316667
    },
    {
      "cityName": "Téhini",
      "lat": 9.6,
      "lng": -3.666667
    },
    {
      "cityName": "Tiakoye",
      "lat": 9.45,
      "lng": -3.083333
    },
    {
      "cityName": "Tiamnouho",
      "lat": 9.883333,
      "lng": -3.416667
    },
    {
      "cityName": "Tianho",
      "lat": 8.383333,
      "lng": -3.283333
    },
    {
      "cityName": "Tiaparaga",
      "lat": 9.8,
      "lng": -3.783333
    },
    {
      "cityName": "Tiapéré",
      "lat": 9.6,
      "lng": -3.05
    },
    {
      "cityName": "Tiaré",
      "lat": 9.55,
      "lng": -3.366667
    },
    {
      "cityName": "Tientifi",
      "lat": 9.816667,
      "lng": -3.433333
    },
    {
      "cityName": "Tierbo",
      "lat": 9.266667,
      "lng": -2.783333
    },
    {
      "cityName": "Tikorosso",
      "lat": 9.4,
      "lng": -3.933333
    },
    {
      "cityName": "Tilgongon",
      "lat": 9.916667,
      "lng": -3.583333
    },
    {
      "cityName": "Timingo",
      "lat": 8.733333,
      "lng": -3.85
    },
    {
      "cityName": "Tinbo",
      "lat": 9.333333,
      "lng": -2.9
    },
    {
      "cityName": "Tingo",
      "lat": 9.8,
      "lng": -3.366667
    },
    {
      "cityName": "Tinguira",
      "lat": 9.583333,
      "lng": -3.566667
    },
    {
      "cityName": "Tiobiel",
      "lat": 9.583333,
      "lng": -3.6
    },
    {
      "cityName": "Tiobié",
      "lat": 9.583333,
      "lng": -3.583333
    },
    {
      "cityName": "Tioboulonao",
      "lat": 9.9,
      "lng": -3.416667
    },
    {
      "cityName": "Titirikiou",
      "lat": 9.85,
      "lng": -3.466667
    },
    {
      "cityName": "Tokité",
      "lat": 9.566667,
      "lng": -3.166667
    },
    {
      "cityName": "Tonbé",
      "lat": 9.366667,
      "lng": -2.75
    },
    {
      "cityName": "Tonkiro",
      "lat": 9.733333,
      "lng": -3.216667
    },
    {
      "cityName": "Topéré",
      "lat": 9.8,
      "lng": -3.766667
    },
    {
      "cityName": "Totovi",
      "lat": 9.716667,
      "lng": -3.45
    },
    {
      "cityName": "Tougouloukaye",
      "lat": 9.783333,
      "lng": -3.816667
    },
    {
      "cityName": "Toumbo",
      "lat": 8.533333,
      "lng": -3.45
    },
    {
      "cityName": "Trimiriboura",
      "lat": 9.7,
      "lng": -3.166667
    },
    {
      "cityName": "Varalé",
      "lat": 9.666667,
      "lng": -3.283333
    },
    {
      "cityName": "Varbo",
      "lat": 9.416667,
      "lng": -2.8
    },
    {
      "cityName": "Vigoli",
      "lat": 9.35,
      "lng": -3.15
    },
    {
      "cityName": "Vilayo",
      "lat": 9.433333,
      "lng": -3.233333
    },
    {
      "cityName": "Vinbango",
      "lat": 8.5,
      "lng": -3.166667
    },
    {
      "cityName": "Vinvéréna",
      "lat": 9.866667,
      "lng": -3.5
    },
    {
      "cityName": "Vonkoro",
      "lat": 9.166667,
      "lng": -2.75
    },
    {
      "cityName": "Wadara",
      "lat": 9.85,
      "lng": -3.333333
    },
    {
      "cityName": "Wadrada",
      "lat": 9.683333,
      "lng": -3.266667
    },
    {
      "cityName": "Wakiandié",
      "lat": 9.6,
      "lng": -3.233333
    },
    {
      "cityName": "Wantiétié",
      "lat": 9.583333,
      "lng": -2.966667
    },
    {
      "cityName": "Warago",
      "lat": 9.65,
      "lng": -3.466667
    },
    {
      "cityName": "Watianao",
      "lat": 9.9,
      "lng": -3.383333
    },
    {
      "cityName": "Yaga",
      "lat": 8.55,
      "lng": -3.466667
    },
    {
      "cityName": "Yakandié",
      "lat": 9.5,
      "lng": -3.183333
    },
    {
      "cityName": "Yaldiré",
      "lat": 9.55,
      "lng": -3.15
    },
    {
      "cityName": "Yaléfou",
      "lat": 9.716667,
      "lng": -3.716667
    },
    {
      "cityName": "Yalguiré",
      "lat": 9.55,
      "lng": -3.266667
    },
    {
      "cityName": "Yalo",
      "lat": 9.333333,
      "lng": -3.233333
    },
    {
      "cityName": "Yandéré",
      "lat": 9.533333,
      "lng": -3.133333
    },
    {
      "cityName": "Yankohouri",
      "lat": 9.7,
      "lng": -3.35
    },
    {
      "cityName": "Zamou",
      "lat": 8.55,
      "lng": -3.783333
    },
    {
      "cityName": "Zanzé",
      "lat": 9.833333,
      "lng": -3.8
    },
    {
      "cityName": "Zoronko",
      "lat": 9.533333,
      "lng": -3.216667
    }
  ]
}