{
  "name": "Manzini",
  "cities": [
    {
      "cityName": "Bhunya",
      "lat": -26.55,
      "lng": 31.0166667
    },
    {
      "cityName": "Bremersdorp",
      "lat": -26.4833333,
      "lng": 31.3666667
    },
    {
      "cityName": "Etjanine",
      "lat": -26.3833333,
      "lng": 30.9
    },
    {
      "cityName": "Kwaluseni",
      "lat": -26.4833333,
      "lng": 31.3333333
    },
    {
      "cityName": "Macnab",
      "lat": -26.4166667,
      "lng": 31.5833333
    },
    {
      "cityName": "Mahlanya",
      "lat": -26.5,
      "lng": 31.2833333
    },
    {
      "cityName": "Mankaiana",
      "lat": -26.6833333,
      "lng": 31.0833333
    },
    {
      "cityName": "Matapa",
      "lat": -26.5166667,
      "lng": 31.3166667
    },
    {
      "cityName": "Mbuluzana",
      "lat": -26.35,
      "lng": 31.5166667
    },
    {
      "cityName": "Mhlambanyati",
      "lat": -26.45,
      "lng": 31.0166667
    },
    {
      "cityName": "Mvangalini",
      "lat": -26.75,
      "lng": 31.6
    },
    {
      "cityName": "Sandlane",
      "lat": -26.5666667,
      "lng": 30.7833333
    },
    {
      "cityName": "Sidvokodvo",
      "lat": -26.6166667,
      "lng": 31.45
    },
    {
      "cityName": "Sinceni",
      "lat": -26.7666667,
      "lng": 31.5833333
    },
    {
      "cityName": "Siphofaneni",
      "lat": -26.6833333,
      "lng": 31.6833333
    },
    {
      "cityName": "Skombeni",
      "lat": -26.4,
      "lng": 31.35
    },
    {
      "cityName": "Usutu Mission",
      "lat": -26.5833333,
      "lng": 31.1833333
    }
  ]
}