{
  "name": "Phetchabun",
  "cities": [
    {
      "cityName": "Amphoe Chon Daen",
      "lat": 16.183333,
      "lng": 100.766667
    },
    {
      "cityName": "Amphoe Lom Kao",
      "lat": 16.8,
      "lng": 101.15
    },
    {
      "cityName": "Amphoe Lom Sak",
      "lat": 16.716667,
      "lng": 101.15
    },
    {
      "cityName": "Amphoe Muang Phetchabun",
      "lat": 16.416667,
      "lng": 101.133333
    },
    {
      "cityName": "Amphoe Nong Phai",
      "lat": 15.9825,
      "lng": 101.062222
    },
    {
      "cityName": "Amphoe Si Thep",
      "lat": 15.446944,
      "lng": 101.0725
    },
    {
      "cityName": "Amphoe Tha Rong",
      "lat": 15.658889,
      "lng": 101.1125
    },
    {
      "cityName": "Amphoe Wat Pa",
      "lat": 16.783333,
      "lng": 101.25
    },
    {
      "cityName": "Ban Bang Hua Lom",
      "lat": 16.25,
      "lng": 101.066667
    },
    {
      "cityName": "Ban Bau Rang",
      "lat": 15.6025,
      "lng": 101.178889
    },
    {
      "cityName": "Ban Beung",
      "lat": 16.816667,
      "lng": 101.233333
    },
    {
      "cityName": "Ban Bhoj",
      "lat": 15.927778,
      "lng": 101.027222
    },
    {
      "cityName": "Ban Bong",
      "lat": 16.35,
      "lng": 101.15
    },
    {
      "cityName": "Ban Bo Thai",
      "lat": 16.083333,
      "lng": 101.15
    },
    {
      "cityName": "Ban Bu Chanuan",
      "lat": 16.316667,
      "lng": 101.216667
    },
    {
      "cityName": "Ban Bung Khla",
      "lat": 16.616667,
      "lng": 101.15
    },
    {
      "cityName": "Ban Bung Sam Phan Nai",
      "lat": 15.783056,
      "lng": 101.030833
    },
    {
      "cityName": "Ban Bung Sam Phan Nok",
      "lat": 15.786667,
      "lng": 101.0075
    },
    {
      "cityName": "Ban Chaliang Lap",
      "lat": 16.4,
      "lng": 101.266667
    },
    {
      "cityName": "Ban Chang Talut",
      "lat": 16.566667,
      "lng": 101.316667
    },
    {
      "cityName": "Ban Chon Daen",
      "lat": 16.183333,
      "lng": 100.85
    },
    {
      "cityName": "Ban Chong Samran",
      "lat": 15.408611,
      "lng": 101.369722
    },
    {
      "cityName": "Ban Chon Phrai",
      "lat": 16.35,
      "lng": 101.05
    },
    {
      "cityName": "Ban Chowo Tai",
      "lat": 16.883333,
      "lng": 101.2
    },
    {
      "cityName": "Ban Daun Na",
      "lat": 16.35,
      "lng": 101.25
    },
    {
      "cityName": "Ban Dha Bhu",
      "lat": 15.570556,
      "lng": 101.061389
    },
    {
      "cityName": "Ban Dong",
      "lat": 16.55,
      "lng": 101.166667
    },
    {
      "cityName": "Ban Dong Chaniang",
      "lat": 15.474722,
      "lng": 101.216944
    },
    {
      "cityName": "Ban Dong Khaen",
      "lat": 16.2,
      "lng": 100.8
    },
    {
      "cityName": "Ban Dong Khui",
      "lat": 16.116667,
      "lng": 100.733333
    },
    {
      "cityName": "Ban Dong Khui Tai",
      "lat": 16.083333,
      "lng": 100.666667
    },
    {
      "cityName": "Ban Dong Khwang",
      "lat": 16.7,
      "lng": 101.183333
    },
    {
      "cityName": "Ban Dong Kui Dai",
      "lat": 16.1,
      "lng": 100.716667
    },
    {
      "cityName": "Ban Dong Mun Lek",
      "lat": 16.45,
      "lng": 101.2
    },
    {
      "cityName": "Ban Dong Sua Luang",
      "lat": 16.166667,
      "lng": 100.666667
    },
    {
      "cityName": "Ban Dong Takhop Tai",
      "lat": 16.133333,
      "lng": 100.75
    },
    {
      "cityName": "Ban Dong Thip",
      "lat": 16.883333,
      "lng": 101.3
    },
    {
      "cityName": "Ban Dong Yang En",
      "lat": 15.595556,
      "lng": 101.257778
    },
    {
      "cityName": "Ban Don Kae",
      "lat": 16.766667,
      "lng": 101.283333
    },
    {
      "cityName": "Ban Fak Huai",
      "lat": 16.783333,
      "lng": 101.3
    },
    {
      "cityName": "Ban Gan Ju",
      "lat": 15.8525,
      "lng": 101.0925
    },
    {
      "cityName": "Ban Gaung Thun",
      "lat": 15.944444,
      "lng": 101.094167
    },
    {
      "cityName": "Ban Guti Phra",
      "lat": 16.166667,
      "lng": 100.833333
    },
    {
      "cityName": "Ban Hang",
      "lat": 19.398333,
      "lng": 103.307222
    },
    {
      "cityName": "Ban Hin Hao",
      "lat": 16.933333,
      "lng": 101.216667
    },
    {
      "cityName": "Ban Hnohng Boh Heng",
      "lat": 15.612778,
      "lng": 101.185278
    },
    {
      "cityName": "Ban Hua Bung Chan",
      "lat": 15.467222,
      "lng": 101.135556
    },
    {
      "cityName": "Ban Huai Deang",
      "lat": 16.833333,
      "lng": 101.183333
    },
    {
      "cityName": "Ban Huai Dua Noi",
      "lat": 16.983333,
      "lng": 101.816667
    },
    {
      "cityName": "Ban Huai Hoi",
      "lat": 16.95,
      "lng": 101.183333
    },
    {
      "cityName": "Ban Huai I Chin",
      "lat": 16.9,
      "lng": 101.25
    },
    {
      "cityName": "Ban Huai Khao Lam",
      "lat": 16.866667,
      "lng": 101.45
    },
    {
      "cityName": "Ban Huai Khoi",
      "lat": 16.983333,
      "lng": 101.25
    },
    {
      "cityName": "Ban Huai Koi",
      "lat": 17.05,
      "lng": 101.3
    },
    {
      "cityName": "Ban Huai Lan",
      "lat": 16.716667,
      "lng": 101.166667
    },
    {
      "cityName": "Ban Huai Lat",
      "lat": 16.7,
      "lng": 101.716667
    },
    {
      "cityName": "Ban Huai Leng",
      "lat": 15.705833,
      "lng": 101.115278
    },
    {
      "cityName": "Ban Huai Mayom",
      "lat": 16.85,
      "lng": 101.216667
    },
    {
      "cityName": "Ban Huai Muang",
      "lat": 17.066667,
      "lng": 101.333333
    },
    {
      "cityName": "Ban Huai Na",
      "lat": 16.266667,
      "lng": 101.066667
    },
    {
      "cityName": "Ban Huai Nam Bo",
      "lat": 16.1,
      "lng": 101.05
    },
    {
      "cityName": "Ban Huai Ngu Hao",
      "lat": 17.05,
      "lng": 101.45
    },
    {
      "cityName": "Ban Huai Phai",
      "lat": 16.766667,
      "lng": 101.05
    },
    {
      "cityName": "Ban Huai Phi",
      "lat": 16.366667,
      "lng": 101.116667
    },
    {
      "cityName": "Ban Huai Pui",
      "lat": 16.8,
      "lng": 101.183333
    },
    {
      "cityName": "Ban Huai Rahong",
      "lat": 16.766667,
      "lng": 101.383333
    },
    {
      "cityName": "Ban Huai Saen Nga",
      "lat": 16.65,
      "lng": 101.283333
    },
    {
      "cityName": "Ban Huai Sai",
      "lat": 15.731111,
      "lng": 100.904167
    },
    {
      "cityName": "Ban Huai Sakae",
      "lat": 16.183333,
      "lng": 101.033333
    },
    {
      "cityName": "Ban Huai Sawing",
      "lat": 16.583333,
      "lng": 101.266667
    },
    {
      "cityName": "Ban Huai Ta Thai",
      "lat": 16.233333,
      "lng": 100.95
    },
    {
      "cityName": "Ban Huai Tum",
      "lat": 16.183333,
      "lng": 100.933333
    },
    {
      "cityName": "Ban Huai Yai",
      "lat": 16.466667,
      "lng": 101.3
    },
    {
      "cityName": "Ban Huai Ya Khrua",
      "lat": 16.833333,
      "lng": 101.633333
    },
    {
      "cityName": "Ban Hua Kapo",
      "lat": 16.983333,
      "lng": 101.616667
    },
    {
      "cityName": "Ban Hua Na",
      "lat": 16.266667,
      "lng": 101.1
    },
    {
      "cityName": "Ban Hua Tok",
      "lat": 16.116667,
      "lng": 101.083333
    },
    {
      "cityName": "Ban i Lart",
      "lat": 17,
      "lng": 101.25
    },
    {
      "cityName": "Ban I Loet",
      "lat": 16.95,
      "lng": 101.833333
    },
    {
      "cityName": "Ban Kaeng Ton",
      "lat": 17.033333,
      "lng": 101.216667
    },
    {
      "cityName": "Ban Kam Muat",
      "lat": 16.216667,
      "lng": 101.15
    },
    {
      "cityName": "Ban Kapo",
      "lat": 16.983333,
      "lng": 101.583333
    },
    {
      "cityName": "Ban Kaun Yang Kwang",
      "lat": 15.881667,
      "lng": 101.104444
    },
    {
      "cityName": "Ban Kham Muat",
      "lat": 16.166667,
      "lng": 101.15
    },
    {
      "cityName": "Ban Khao Changok",
      "lat": 16.033333,
      "lng": 100.783333
    },
    {
      "cityName": "Ban Khao Khlang",
      "lat": 15.401389,
      "lng": 101.125556
    },
    {
      "cityName": "Ban Khao Kho",
      "lat": 16.666667,
      "lng": 100.966667
    },
    {
      "cityName": "Ban Khao Ya Nua",
      "lat": 16.566667,
      "lng": 100.966667
    },
    {
      "cityName": "Ban Khlong Bong",
      "lat": 16.433333,
      "lng": 101.216667
    },
    {
      "cityName": "Ban Khlong Huai Na",
      "lat": 16.133333,
      "lng": 100.866667
    },
    {
      "cityName": "Ban Khlong Phap",
      "lat": 16.35,
      "lng": 100.716667
    },
    {
      "cityName": "Ban Khlong Samrong",
      "lat": 16.3,
      "lng": 101.15
    },
    {
      "cityName": "Ban Khlong Si Fan",
      "lat": 16.65,
      "lng": 101.166667
    },
    {
      "cityName": "Ban Khlong Wua Nao",
      "lat": 15.942222,
      "lng": 101.0325
    },
    {
      "cityName": "Ban Khlong Yang",
      "lat": 16.016667,
      "lng": 101.016667
    },
    {
      "cityName": "Ban Khok",
      "lat": 16.35,
      "lng": 101.233333
    },
    {
      "cityName": "Ban Khok Charoen",
      "lat": 15.528333,
      "lng": 101.184722
    },
    {
      "cityName": "Ban Khok Lan Koi",
      "lat": 16.95,
      "lng": 101.35
    },
    {
      "cityName": "Ban Khok Nong Haeo",
      "lat": 16.983333,
      "lng": 101.533333
    },
    {
      "cityName": "Ban Khok Pong",
      "lat": 15.740556,
      "lng": 101.150556
    },
    {
      "cityName": "Ban Khok Pu",
      "lat": 15.724167,
      "lng": 101.1
    },
    {
      "cityName": "Ban Khok Sa-at",
      "lat": 15.474722,
      "lng": 101.056667
    },
    {
      "cityName": "Ban Khok Sakae Lat",
      "lat": 15.407222,
      "lng": 101.174722
    },
    {
      "cityName": "Ban Khok Sung",
      "lat": 16.216667,
      "lng": 100.783333
    },
    {
      "cityName": "Ban Khok Ta Yo",
      "lat": 15.82,
      "lng": 101.011944
    },
    {
      "cityName": "Ban Khok Tum",
      "lat": 15.416111,
      "lng": 101.192778
    },
    {
      "cityName": "Ban Klong Nam Khan",
      "lat": 16.366667,
      "lng": 100.9
    },
    {
      "cityName": "Ban Kluai",
      "lat": 16.016667,
      "lng": 100.766667
    },
    {
      "cityName": "Ban Kok Kabok",
      "lat": 16.733333,
      "lng": 101.733333
    },
    {
      "cityName": "Ban Kok Sai",
      "lat": 16.433333,
      "lng": 101.2
    },
    {
      "cityName": "Ban Kong Khayang",
      "lat": 16.5,
      "lng": 101.25
    },
    {
      "cityName": "Ban Laem",
      "lat": 7.35,
      "lng": 99.566667
    },
    {
      "cityName": "Ban Lak Dan",
      "lat": 16.966667,
      "lng": 101.516667
    },
    {
      "cityName": "Ban Lam Bua Watthana",
      "lat": 15.940833,
      "lng": 101.035278
    },
    {
      "cityName": "Ban Lam Changhan",
      "lat": 15.770556,
      "lng": 101.012778
    },
    {
      "cityName": "Ban Lam Huai Phrai",
      "lat": 15.596667,
      "lng": 101.120833
    },
    {
      "cityName": "Ban Lam Pa Sak",
      "lat": 16.5,
      "lng": 101.216667
    },
    {
      "cityName": "Ban Lan Kha",
      "lat": 16.766667,
      "lng": 101.25
    },
    {
      "cityName": "Ban Lao Kok Kho",
      "lat": 16.75,
      "lng": 101.016667
    },
    {
      "cityName": "Ban Lat",
      "lat": 17,
      "lng": 101.383333
    },
    {
      "cityName": "Ban Lat Kha",
      "lat": 16.333333,
      "lng": 100.966667
    },
    {
      "cityName": "Ban Lat Khae",
      "lat": 16.033333,
      "lng": 100.833333
    },
    {
      "cityName": "Ban Lila",
      "lat": 17.016667,
      "lng": 101.316667
    },
    {
      "cityName": "Ban Lom Gao",
      "lat": 16.883333,
      "lng": 101.233333
    },
    {
      "cityName": "Ban Long Kha",
      "lat": 16.083333,
      "lng": 101.05
    },
    {
      "cityName": "Ban Lung",
      "lat": 16.216667,
      "lng": 101.066667
    },
    {
      "cityName": "Ban Maeo Hua Pha",
      "lat": 16.883333,
      "lng": 101.05
    },
    {
      "cityName": "Ban Maeo Thap Boek",
      "lat": 16.916667,
      "lng": 101.133333
    },
    {
      "cityName": "Ban Mai",
      "lat": 15.542778,
      "lng": 101.081389
    },
    {
      "cityName": "Ban Mai Hua Na",
      "lat": 15.510278,
      "lng": 101.184167
    },
    {
      "cityName": "Ban Mai Kut Taphet",
      "lat": 15.460556,
      "lng": 101.365278
    },
    {
      "cityName": "Ban Mai Phet Khon",
      "lat": 15.8925,
      "lng": 101.112778
    },
    {
      "cityName": "Ban Maun",
      "lat": 16.85,
      "lng": 101.183333
    },
    {
      "cityName": "Ban Muang Baeng",
      "lat": 16.916667,
      "lng": 101.166667
    },
    {
      "cityName": "Ban Mu But",
      "lat": 16.633333,
      "lng": 101.05
    },
    {
      "cityName": "Ban Mu Khut",
      "lat": 16.666667,
      "lng": 101.133333
    },
    {
      "cityName": "Ban Na",
      "lat": 16.5,
      "lng": 101.166667
    },
    {
      "cityName": "Ban Na Khae",
      "lat": 16.3,
      "lng": 101.116667
    },
    {
      "cityName": "Ban Nam Baeng",
      "lat": 16.216667,
      "lng": 101
    },
    {
      "cityName": "Ban Nam Bo",
      "lat": 15.719167,
      "lng": 101.149167
    },
    {
      "cityName": "Ban Nam Chang",
      "lat": 16.383333,
      "lng": 101.083333
    },
    {
      "cityName": "Ban Nam Chao",
      "lat": 17.05,
      "lng": 101.283333
    },
    {
      "cityName": "Ban Nam Chum",
      "lat": 16.75,
      "lng": 101.166667
    },
    {
      "cityName": "Ban Nam Dua",
      "lat": 16.533333,
      "lng": 101.333333
    },
    {
      "cityName": "Ban Nam Duk",
      "lat": 16.716667,
      "lng": 101.25
    },
    {
      "cityName": "Ban Nam Duk Klang",
      "lat": 16.616667,
      "lng": 101.25
    },
    {
      "cityName": "Ban Nam Duk Nua",
      "lat": 16.716667,
      "lng": 101.3
    },
    {
      "cityName": "Ban Nam Go Lek",
      "lat": 16.783333,
      "lng": 101.2
    },
    {
      "cityName": "Ban Nam Go Yai",
      "lat": 16.8,
      "lng": 101.166667
    },
    {
      "cityName": "Ban Nam Hia",
      "lat": 16.833333,
      "lng": 101.216667
    },
    {
      "cityName": "Ban Nam Kham Nong O",
      "lat": 16.683333,
      "lng": 101.25
    },
    {
      "cityName": "Ban Nam Kham Pak Ok",
      "lat": 16.666667,
      "lng": 101.35
    },
    {
      "cityName": "Ban Nam Khop",
      "lat": 16.95,
      "lng": 101.2
    },
    {
      "cityName": "Ban Nam Khuk",
      "lat": 16.716667,
      "lng": 101.266667
    },
    {
      "cityName": "Ban Nam Ko Thai",
      "lat": 16.766667,
      "lng": 101.2
    },
    {
      "cityName": "Ban Nam Lao",
      "lat": 16.433333,
      "lng": 101.3
    },
    {
      "cityName": "Ban Nam Lat",
      "lat": 16.266667,
      "lng": 100.85
    },
    {
      "cityName": "Ban Nam Len",
      "lat": 16.616667,
      "lng": 101.266667
    },
    {
      "cityName": "Ban Nam Om",
      "lat": 16.35,
      "lng": 100.75
    },
    {
      "cityName": "Ban Nam Phang",
      "lat": 16.9,
      "lng": 101.583333
    },
    {
      "cityName": "Ban Nam Phu",
      "lat": 16.2,
      "lng": 100.983333
    },
    {
      "cityName": "Ban Nam Phung",
      "lat": 16.766667,
      "lng": 101.233333
    },
    {
      "cityName": "Ban Nam Raun",
      "lat": 15.690833,
      "lng": 101.274167
    },
    {
      "cityName": "Ban Na Nam Khrom",
      "lat": 15.494722,
      "lng": 101.148333
    },
    {
      "cityName": "Ban Na Ngua",
      "lat": 16.45,
      "lng": 101.05
    },
    {
      "cityName": "Ban Na Nong Haen",
      "lat": 16.283333,
      "lng": 100.733333
    },
    {
      "cityName": "Ban Na Pa",
      "lat": 16.383333,
      "lng": 101.233333
    },
    {
      "cityName": "Ban Na Phau",
      "lat": 15.716667,
      "lng": 101.283333
    },
    {
      "cityName": "Ban Na Pho Song",
      "lat": 16.766667,
      "lng": 101.683333
    },
    {
      "cityName": "Ban Na Saeng",
      "lat": 16.85,
      "lng": 101.233333
    },
    {
      "cityName": "Ban Na Sai",
      "lat": 16.9,
      "lng": 101.2
    },
    {
      "cityName": "Ban Na Sanun",
      "lat": 15.516667,
      "lng": 101.2
    },
    {
      "cityName": "Ban Na Ta Krud",
      "lat": 15.4025,
      "lng": 101.1225
    },
    {
      "cityName": "Ban Na Takrut",
      "lat": 15.429167,
      "lng": 101.1625
    },
    {
      "cityName": "Ban Na Tha Mak Than",
      "lat": 16.866667,
      "lng": 101.333333
    },
    {
      "cityName": "Ban Naung Daun",
      "lat": 16.833333,
      "lng": 101.233333
    },
    {
      "cityName": "Ban Na Yom",
      "lat": 16.166667,
      "lng": 101.05
    },
    {
      "cityName": "Ban Noen Khontha",
      "lat": 16.05,
      "lng": 101.116667
    },
    {
      "cityName": "Ban Noen Sabai",
      "lat": 16.183333,
      "lng": 101.1
    },
    {
      "cityName": "Ban Nong Bua Khao",
      "lat": 15.612222,
      "lng": 101.188056
    },
    {
      "cityName": "Ban Nong Chaeng",
      "lat": 15.849167,
      "lng": 101.014444
    },
    {
      "cityName": "Ban Nong Daeng",
      "lat": 15.835833,
      "lng": 101.131944
    },
    {
      "cityName": "Ban Nong Kham",
      "lat": 16.083333,
      "lng": 101.133333
    },
    {
      "cityName": "Ban Nong Khla",
      "lat": 16.216667,
      "lng": 101.116667
    },
    {
      "cityName": "Ban Nong Khwai",
      "lat": 16.75,
      "lng": 101.216667
    },
    {
      "cityName": "Ban Nong Lao Kai",
      "lat": 16.216667,
      "lng": 100.916667
    },
    {
      "cityName": "Ban Nong Le",
      "lat": 16.9,
      "lng": 101.15
    },
    {
      "cityName": "Ban Nong Pong",
      "lat": 15.595,
      "lng": 101.123611
    },
    {
      "cityName": "Ban Nong Pradu",
      "lat": 16.116667,
      "lng": 100.816667
    },
    {
      "cityName": "Ban Nong Rang Chang",
      "lat": 16.566667,
      "lng": 100.916667
    },
    {
      "cityName": "Ban Nong Re",
      "lat": 16.916667,
      "lng": 101.233333
    },
    {
      "cityName": "Ban Nong Sakae",
      "lat": 15.646111,
      "lng": 101.216389
    },
    {
      "cityName": "Ban Nong Sombun",
      "lat": 15.520833,
      "lng": 101.073611
    },
    {
      "cityName": "Ban Nong Teng",
      "lat": 15.518333,
      "lng": 101.069167
    },
    {
      "cityName": "Ban Nong Yao",
      "lat": 16.933333,
      "lng": 101.25
    },
    {
      "cityName": "Ban Non Na Yao",
      "lat": 16.716667,
      "lng": 101.016667
    },
    {
      "cityName": "Ban Non Takhop",
      "lat": 16.333333,
      "lng": 100.816667
    },
    {
      "cityName": "Ban Omkong",
      "lat": 16.583333,
      "lng": 101.183333
    },
    {
      "cityName": "Ban Pak Huai Dan",
      "lat": 16.6,
      "lng": 101.2
    },
    {
      "cityName": "Ban Pak Khlong Lia",
      "lat": 16.35,
      "lng": 100.933333
    },
    {
      "cityName": "Ban Pak Khon Kaen",
      "lat": 16.733333,
      "lng": 101.266667
    },
    {
      "cityName": "Ban Pa Kruat",
      "lat": 16.45,
      "lng": 101.133333
    },
    {
      "cityName": "Ban Pa Tan",
      "lat": 16.566667,
      "lng": 101.1
    },
    {
      "cityName": "Ban Pa Ya Kha",
      "lat": 16.766667,
      "lng": 101.016667
    },
    {
      "cityName": "Ban Phai Khwang",
      "lat": 16.133333,
      "lng": 101.05
    },
    {
      "cityName": "Ban Pha Thong",
      "lat": 16.25,
      "lng": 100.816667
    },
    {
      "cityName": "Ban Phet Lakhon",
      "lat": 15.8925,
      "lng": 101.0975
    },
    {
      "cityName": "Ban Phi Tong Luang",
      "lat": 16.916667,
      "lng": 101.466667
    },
    {
      "cityName": "Ban Phlam",
      "lat": 16.416667,
      "lng": 101.116667
    },
    {
      "cityName": "Ban Phon",
      "lat": 16.566667,
      "lng": 101.15
    },
    {
      "cityName": "Ban Pho Ngam",
      "lat": 16.583333,
      "lng": 101.133333
    },
    {
      "cityName": "Ban Pho Thong",
      "lat": 16.583333,
      "lng": 101.216667
    },
    {
      "cityName": "Ban Phrao",
      "lat": 16.866667,
      "lng": 101.183333
    },
    {
      "cityName": "Ban Phu Hi",
      "lat": 16.783333,
      "lng": 101.683333
    },
    {
      "cityName": "Ban Phu Kham",
      "lat": 15.548056,
      "lng": 101.050278
    },
    {
      "cityName": "Ban Phum Sakae",
      "lat": 15.638889,
      "lng": 100.995
    },
    {
      "cityName": "Ban Phu Pun",
      "lat": 16.883333,
      "lng": 101.166667
    },
    {
      "cityName": "Ban Plaek",
      "lat": 16.716667,
      "lng": 101.55
    },
    {
      "cityName": "Ban Pla Fa",
      "lat": 16.95,
      "lng": 101.233333
    },
    {
      "cityName": "Ban Pong Chet Hua",
      "lat": 16.3,
      "lng": 100.9
    },
    {
      "cityName": "Ban Pong Wa",
      "lat": 16.516667,
      "lng": 101.283333
    },
    {
      "cityName": "Ban Prasak Haeng",
      "lat": 16.366667,
      "lng": 101.166667
    },
    {
      "cityName": "Ban Rai Hu Chang",
      "lat": 15.9,
      "lng": 101.116667
    },
    {
      "cityName": "Ban Rai Lam Phat",
      "lat": 15.970833,
      "lng": 101.184722
    },
    {
      "cityName": "Ban Rai Ma Hiu",
      "lat": 15.836667,
      "lng": 101.129722
    },
    {
      "cityName": "Ban Rai Pae",
      "lat": 16.866667,
      "lng": 101.65
    },
    {
      "cityName": "Ban Rai Ruang Thong",
      "lat": 16.033333,
      "lng": 101.083333
    },
    {
      "cityName": "Ban Rai Tai",
      "lat": 16.866667,
      "lng": 101.683333
    },
    {
      "cityName": "Ban Rawing",
      "lat": 16.133333,
      "lng": 101.116667
    },
    {
      "cityName": "Ban Rong Bong Tai",
      "lat": 16.05,
      "lng": 100.683333
    },
    {
      "cityName": "Ban Sai Ngaup",
      "lat": 16.8,
      "lng": 101.25
    },
    {
      "cityName": "Ban Sai Yon",
      "lat": 16.716667,
      "lng": 101.233333
    },
    {
      "cityName": "Ban Sakae Ngam",
      "lat": 16.466667,
      "lng": 101.316667
    },
    {
      "cityName": "Ban Sak Long",
      "lat": 16.816667,
      "lng": 101.316667
    },
    {
      "cityName": "Ban Sak Nga",
      "lat": 16.983333,
      "lng": 101.333333
    },
    {
      "cityName": "Ban Sa Kruat",
      "lat": 15.435833,
      "lng": 101.058611
    },
    {
      "cityName": "Ban Sala Lai",
      "lat": 16.066667,
      "lng": 100.716667
    },
    {
      "cityName": "Ban Saliang Haeng",
      "lat": 16.466667,
      "lng": 100.966667
    },
    {
      "cityName": "Ban Samar",
      "lat": 16.716667,
      "lng": 101.033333
    },
    {
      "cityName": "Ban Sam Bon",
      "lat": 16.683333,
      "lng": 101.55
    },
    {
      "cityName": "Ban Samnak Man",
      "lat": 16.45,
      "lng": 101.15
    },
    {
      "cityName": "Ban Sa Mun Chiang",
      "lat": 16.066667,
      "lng": 101.166667
    },
    {
      "cityName": "Ban Sap Khlung",
      "lat": 16.066667,
      "lng": 100.833333
    },
    {
      "cityName": "Ban Sap Phutsa",
      "lat": 16.033333,
      "lng": 100.95
    },
    {
      "cityName": "Ban Sara Lai",
      "lat": 16.1,
      "lng": 100.8
    },
    {
      "cityName": "Ban Sauk",
      "lat": 16.783333,
      "lng": 101.266667
    },
    {
      "cityName": "Ban Si Dhebh",
      "lat": 15.473056,
      "lng": 101.167778
    },
    {
      "cityName": "Ban Sok Dua",
      "lat": 16.733333,
      "lng": 101.166667
    },
    {
      "cityName": "Ban Tabo",
      "lat": 16.333333,
      "lng": 101.25
    },
    {
      "cityName": "Ban Taeo",
      "lat": 15.822778,
      "lng": 101.037222
    },
    {
      "cityName": "Ban Ta Kam",
      "lat": 16.15,
      "lng": 100.8
    },
    {
      "cityName": "Ban Takhop",
      "lat": 15.508889,
      "lng": 101.186389
    },
    {
      "cityName": "Ban Takrut Chik",
      "lat": 16.083333,
      "lng": 101.066667
    },
    {
      "cityName": "Ban Tat Kha",
      "lat": 17.016667,
      "lng": 101.45
    },
    {
      "cityName": "Ban Tha Chang",
      "lat": 16.816667,
      "lng": 101.333333
    },
    {
      "cityName": "Ban Tha Changwang",
      "lat": 16.683333,
      "lng": 101.216667
    },
    {
      "cityName": "Ban Tha Daeng",
      "lat": 15.991944,
      "lng": 101.138889
    },
    {
      "cityName": "Ban Tha Duang",
      "lat": 15.969722,
      "lng": 101.306111
    },
    {
      "cityName": "Ban Tha Goi",
      "lat": 15.75,
      "lng": 101.033333
    },
    {
      "cityName": "Ban Tha Kham",
      "lat": 16.083333,
      "lng": 100.766667
    },
    {
      "cityName": "Ban Tha Kok Hai",
      "lat": 16.85,
      "lng": 101.116667
    },
    {
      "cityName": "Ban Tha Sam Raung",
      "lat": 15.65,
      "lng": 101.1
    },
    {
      "cityName": "Ban Tha Taphan",
      "lat": 15.719167,
      "lng": 101.228889
    },
    {
      "cityName": "Ban Tha Wang Di",
      "lat": 16,
      "lng": 101.166667
    },
    {
      "cityName": "Ban Thung Samo",
      "lat": 16.633333,
      "lng": 100.966667
    },
    {
      "cityName": "Ban Thung Yai",
      "lat": 15.623333,
      "lng": 101.14
    },
    {
      "cityName": "Ban Tin Tok",
      "lat": 16.933333,
      "lng": 101.433333
    },
    {
      "cityName": "Ban Tiu",
      "lat": 16.8,
      "lng": 101.316667
    },
    {
      "cityName": "Ban Tok",
      "lat": 16.35,
      "lng": 101.1
    },
    {
      "cityName": "Ban Umaung",
      "lat": 16.85,
      "lng": 101.2
    },
    {
      "cityName": "Ban Wai",
      "lat": 16.766667,
      "lng": 101.266667
    },
    {
      "cityName": "Ban Wang Chumnum",
      "lat": 16.266667,
      "lng": 100.783333
    },
    {
      "cityName": "Ban Wang Du",
      "lat": 16.166667,
      "lng": 100.916667
    },
    {
      "cityName": "Ban Wang Heo",
      "lat": 16.1,
      "lng": 100.933333
    },
    {
      "cityName": "Ban Wang Hin",
      "lat": 16.35,
      "lng": 100.766667
    },
    {
      "cityName": "Ban Wang Katha",
      "lat": 16.016667,
      "lng": 100.733333
    },
    {
      "cityName": "Ban Wang Khoi",
      "lat": 16.266667,
      "lng": 100.75
    },
    {
      "cityName": "Ban Wang Khon",
      "lat": 16.166667,
      "lng": 101.116667
    },
    {
      "cityName": "Ban Wang Kradat",
      "lat": 16.316667,
      "lng": 100.733333
    },
    {
      "cityName": "Ban Wang Kuang",
      "lat": 16.9,
      "lng": 101.65
    },
    {
      "cityName": "Ban Wang Mai Wong",
      "lat": 16.366667,
      "lng": 100.666667
    },
    {
      "cityName": "Ban Wang Nam So",
      "lat": 16.983333,
      "lng": 101.433333
    },
    {
      "cityName": "Ban Wang O",
      "lat": 16.05,
      "lng": 101
    },
    {
      "cityName": "Ban Wang Pak Tok",
      "lat": 16.083333,
      "lng": 100.966667
    },
    {
      "cityName": "Ban Wang Paung",
      "lat": 16.333333,
      "lng": 100.8
    },
    {
      "cityName": "Ban Wang Phai",
      "lat": 15.575833,
      "lng": 101.123056
    },
    {
      "cityName": "Ban Wang Pong",
      "lat": 16.266667,
      "lng": 100.766667
    },
    {
      "cityName": "Ban Wang Rong",
      "lat": 16.833333,
      "lng": 101.3
    },
    {
      "cityName": "Ban Wang Sai",
      "lat": 15.356111,
      "lng": 101.193611
    },
    {
      "cityName": "Ban Wang Song",
      "lat": 16.55,
      "lng": 101.216667
    },
    {
      "cityName": "Ban Wang Tha Di",
      "lat": 15.971111,
      "lng": 101.304167
    },
    {
      "cityName": "Ban Wang Warn",
      "lat": 16.883333,
      "lng": 101.216667
    },
    {
      "cityName": "Ban Wang Yang",
      "lat": 16.966667,
      "lng": 101.783333
    },
    {
      "cityName": "Ban Wang Yao",
      "lat": 16.75,
      "lng": 101.433333
    },
    {
      "cityName": "Ban Yai",
      "lat": 16.5,
      "lng": 100.983333
    },
    {
      "cityName": "Ban Yang Lat",
      "lat": 16.116667,
      "lng": 101.133333
    },
    {
      "cityName": "Ban Yang Rak",
      "lat": 15.483333,
      "lng": 100.8
    },
    {
      "cityName": "Ban Yang Sao",
      "lat": 15.743056,
      "lng": 101.216667
    },
    {
      "cityName": "Ban Yawi",
      "lat": 16.3,
      "lng": 101.066667
    },
    {
      "cityName": "Bung Sam Phan",
      "lat": 15.783333,
      "lng": 101.033333
    },
    {
      "cityName": "Nam Nao",
      "lat": 16.75,
      "lng": 101.75
    },
    {
      "cityName": "Pa Daeng",
      "lat": 16.45,
      "lng": 101.1
    },
    {
      "cityName": "Wang Ban",
      "lat": 16.916667,
      "lng": 101.2
    }
  ]
}