{
  "name": "Narathiwat",
  "cities": [
    {
      "cityName": "Amphoe Bacho",
      "lat": 6.616667,
      "lng": 101.65
    },
    {
      "cityName": "Amphoe Chanae",
      "lat": 6.110556,
      "lng": 101.689722
    },
    {
      "cityName": "Amphoe Kampong Chehe",
      "lat": 6.266667,
      "lng": 102.05
    },
    {
      "cityName": "Amphoe Rangae",
      "lat": 6.233333,
      "lng": 101.7
    },
    {
      "cityName": "Amphoe Ruso",
      "lat": 6.316667,
      "lng": 101.433333
    },
    {
      "cityName": "Amphoe Si Sakhon",
      "lat": 6.230556,
      "lng": 101.499722
    },
    {
      "cityName": "Amphoe Sungai Kolok",
      "lat": 5.95,
      "lng": 101.883333
    },
    {
      "cityName": "Amphoe Sungai Padi",
      "lat": 6.085833,
      "lng": 101.881389
    },
    {
      "cityName": "Amphoe To Mo",
      "lat": 5.933333,
      "lng": 101.916667
    },
    {
      "cityName": "Amphoe Waeng",
      "lat": 5.866667,
      "lng": 101.783333
    },
    {
      "cityName": "Amphoe Yingo",
      "lat": 6.316667,
      "lng": 101.616667
    },
    {
      "cityName": "Ba Lae",
      "lat": 6.6,
      "lng": 101.65
    },
    {
      "cityName": "Ban Ai Batia",
      "lat": 6.169444,
      "lng": 101.836111
    },
    {
      "cityName": "Ban Ai Bu Tae",
      "lat": 6.049722,
      "lng": 101.568611
    },
    {
      "cityName": "Ban Ai Ka Se",
      "lat": 6.091944,
      "lng": 101.541944
    },
    {
      "cityName": "Ban Ai Ku Bu",
      "lat": 6.175556,
      "lng": 101.878611
    },
    {
      "cityName": "Ban Ai Mu Se",
      "lat": 6.016944,
      "lng": 101.7
    },
    {
      "cityName": "Ban Ai Satia",
      "lat": 6.166667,
      "lng": 101.833333
    },
    {
      "cityName": "Ban Ai Su Rae",
      "lat": 6.033333,
      "lng": 101.614444
    },
    {
      "cityName": "Ban Ai Tui",
      "lat": 6.186389,
      "lng": 101.535278
    },
    {
      "cityName": "Ban Ai We",
      "lat": 6.171111,
      "lng": 101.768611
    },
    {
      "cityName": "Ban Al Cha Bae",
      "lat": 6.309167,
      "lng": 101.419167
    },
    {
      "cityName": "Ban Al Chu Cho",
      "lat": 6.137778,
      "lng": 101.481944
    },
    {
      "cityName": "Ban Al Chu Na",
      "lat": 6.284444,
      "lng": 101.493333
    },
    {
      "cityName": "Ban Al Tae Tae",
      "lat": 6.199722,
      "lng": 101.473056
    },
    {
      "cityName": "Ban Ao Manao",
      "lat": 6.433333,
      "lng": 101.845
    },
    {
      "cityName": "Ban Ba Ka",
      "lat": 6.479444,
      "lng": 101.7925
    },
    {
      "cityName": "Ban Baketa",
      "lat": 5.816667,
      "lng": 101.866667
    },
    {
      "cityName": "Ban Ba Kong",
      "lat": 6.3225,
      "lng": 101.509444
    },
    {
      "cityName": "Ban Bak Phraek",
      "lat": 6.25,
      "lng": 102.033333
    },
    {
      "cityName": "Ban Bala",
      "lat": 5.833333,
      "lng": 101.85
    },
    {
      "cityName": "Ban Balae Nua",
      "lat": 6.583333,
      "lng": 101.65
    },
    {
      "cityName": "Ban Ba Lu Ka",
      "lat": 6.038056,
      "lng": 101.875833
    },
    {
      "cityName": "Ban Ba Lu Ka Hi Le",
      "lat": 6.371389,
      "lng": 101.442778
    },
    {
      "cityName": "Ban Ba Lu Ka Hu Lu",
      "lat": 6.35,
      "lng": 101.466667
    },
    {
      "cityName": "Ban Baluru",
      "lat": 6.113333,
      "lng": 101.900833
    },
    {
      "cityName": "Ban Bang Lao",
      "lat": 6.383333,
      "lng": 101.766667
    },
    {
      "cityName": "Ban Bangnara",
      "lat": 6.424444,
      "lng": 101.823611
    },
    {
      "cityName": "Ban Ba Ngo Ai Sa",
      "lat": 6.16,
      "lng": 101.850833
    },
    {
      "cityName": "Ban Ba Ngo Bu Lo",
      "lat": 6.385556,
      "lng": 101.458889
    },
    {
      "cityName": "Ban Ba Ngo Bu Ma",
      "lat": 6.15,
      "lng": 101.666667
    },
    {
      "cityName": "Ban Ba Ngo Pa Tae",
      "lat": 6.299444,
      "lng": 101.465833
    },
    {
      "cityName": "Ban Bang Po",
      "lat": 6.3125,
      "lng": 101.830556
    },
    {
      "cityName": "Ban Baru",
      "lat": 5.783333,
      "lng": 101.7
    },
    {
      "cityName": "Ban Ba Tong",
      "lat": 6.311667,
      "lng": 101.484722
    },
    {
      "cityName": "Ban Bau Ngau",
      "lat": 6.166667,
      "lng": 101.716667
    },
    {
      "cityName": "Ban Bo Kho",
      "lat": 6.166667,
      "lng": 102.066667
    },
    {
      "cityName": "Ban Bo Ma",
      "lat": 6.166667,
      "lng": 101.8
    },
    {
      "cityName": "Ban Bra Ngae",
      "lat": 6.183333,
      "lng": 101.8
    },
    {
      "cityName": "Ban Bu Ka Su Do",
      "lat": 6.548611,
      "lng": 101.722778
    },
    {
      "cityName": "Ban Bu Ke Ba Kong",
      "lat": 6.46,
      "lng": 101.680833
    },
    {
      "cityName": "Ban Buke",
      "lat": 5.85,
      "lng": 101.866667
    },
    {
      "cityName": "Ban Bu Ke Ta Mong",
      "lat": 6.201111,
      "lng": 101.846389
    },
    {
      "cityName": "Ban Bu Kit",
      "lat": 6.197778,
      "lng": 101.821667
    },
    {
      "cityName": "Ban Bu Nae",
      "lat": 6.466667,
      "lng": 101.666667
    },
    {
      "cityName": "Ban Bu Ra Ngae",
      "lat": 6.184444,
      "lng": 101.83
    },
    {
      "cityName": "Ban Bu Re",
      "lat": 6.526667,
      "lng": 101.685278
    },
    {
      "cityName": "Ban Chanae",
      "lat": 6.134444,
      "lng": 101.7
    },
    {
      "cityName": "Ban Chang Tai",
      "lat": 6.55,
      "lng": 101.65
    },
    {
      "cityName": "Ban Cho Ai Rong",
      "lat": 6.216667,
      "lng": 101.8
    },
    {
      "cityName": "Ban Cho Al Rong",
      "lat": 6.227778,
      "lng": 101.763889
    },
    {
      "cityName": "Ban Cho Kot",
      "lat": 6.141944,
      "lng": 101.925556
    },
    {
      "cityName": "Ban Chuab",
      "lat": 6.266667,
      "lng": 101.833333
    },
    {
      "cityName": "Ban Chuap",
      "lat": 6.233333,
      "lng": 101.8
    },
    {
      "cityName": "Ban Chu Wo",
      "lat": 6.270556,
      "lng": 101.850833
    },
    {
      "cityName": "Ban Dam",
      "lat": 6.4275,
      "lng": 101.450833
    },
    {
      "cityName": "Ban Daun Sai",
      "lat": 6.283333,
      "lng": 102
    },
    {
      "cityName": "Ban Domo",
      "lat": 5.8,
      "lng": 101.716667
    },
    {
      "cityName": "Ban Du Song Yo",
      "lat": 6.169167,
      "lng": 101.711944
    },
    {
      "cityName": "Ban Hat Sai",
      "lat": 6.233611,
      "lng": 101.418056
    },
    {
      "cityName": "Ban Hita",
      "lat": 5.95,
      "lng": 101.933333
    },
    {
      "cityName": "Ban Hu Tae Thu Wo",
      "lat": 6.512222,
      "lng": 101.76
    },
    {
      "cityName": "Ban Hu Tae Yu Lo",
      "lat": 6.4825,
      "lng": 101.726389
    },
    {
      "cityName": "Ban I Ka Lu Pae",
      "lat": 6.283333,
      "lng": 101.483333
    },
    {
      "cityName": "Ban Ka Deng",
      "lat": 6.216111,
      "lng": 101.641389
    },
    {
      "cityName": "Ban Ka Li Cha",
      "lat": 6.229722,
      "lng": 101.683056
    },
    {
      "cityName": "Ban Ka Long",
      "lat": 6.220556,
      "lng": 101.441111
    },
    {
      "cityName": "Ban Kamae",
      "lat": 6.216667,
      "lng": 101.716667
    },
    {
      "cityName": "Ban Kam Pong Ba Ru",
      "lat": 6.446944,
      "lng": 101.825556
    },
    {
      "cityName": "Ban Kampong Pao",
      "lat": 6.470833,
      "lng": 101.551944
    },
    {
      "cityName": "Ban Ka Mukae",
      "lat": 6.35,
      "lng": 101.883333
    },
    {
      "cityName": "Ban Ka Nua",
      "lat": 6.247778,
      "lng": 101.66
    },
    {
      "cityName": "Ban Karo",
      "lat": 6.116667,
      "lng": 101.866667
    },
    {
      "cityName": "Ban Katase",
      "lat": 6.083333,
      "lng": 101.933333
    },
    {
      "cityName": "Ban Ka To",
      "lat": 6.1,
      "lng": 101.616667
    },
    {
      "cityName": "Ban Ka Yo Ma Ti",
      "lat": 6.216667,
      "lng": 101.5
    },
    {
      "cityName": "Ban Ka Yu",
      "lat": 5.95,
      "lng": 101.8
    },
    {
      "cityName": "Ban Kha Lae Huru",
      "lat": 6.233333,
      "lng": 101.85
    },
    {
      "cityName": "Ban Khilek",
      "lat": 6.243889,
      "lng": 101.973611
    },
    {
      "cityName": "Ban Khok Kaba",
      "lat": 6.133333,
      "lng": 101.9
    },
    {
      "cityName": "Ban Khok Khian",
      "lat": 6.4,
      "lng": 101.7
    },
    {
      "cityName": "Ban Khok Kraduk Mu",
      "lat": 6.348056,
      "lng": 101.945278
    },
    {
      "cityName": "Ban Khok Mai Phai",
      "lat": 6.4,
      "lng": 101.75
    },
    {
      "cityName": "Ban Khok Phai",
      "lat": 6.133333,
      "lng": 101.916667
    },
    {
      "cityName": "Ban Khok Sai",
      "lat": 6.183333,
      "lng": 102.033333
    },
    {
      "cityName": "Ban Khok Sato",
      "lat": 6.241111,
      "lng": 101.888889
    },
    {
      "cityName": "Ban Khok Slia",
      "lat": 6.318056,
      "lng": 101.907778
    },
    {
      "cityName": "Ban Khok Yang",
      "lat": 6.2,
      "lng": 102.033333
    },
    {
      "cityName": "Ban Ko",
      "lat": 5.983333,
      "lng": 101.833333
    },
    {
      "cityName": "Ban Kok Kian",
      "lat": 6.465556,
      "lng": 101.793889
    },
    {
      "cityName": "Ban Kok Swas",
      "lat": 6.3075,
      "lng": 101.9675
    },
    {
      "cityName": "Ban Ko Sawat",
      "lat": 6.233333,
      "lng": 101.883333
    },
    {
      "cityName": "Ban Ko Ta Ba Ru",
      "lat": 6.468056,
      "lng": 101.3175
    },
    {
      "cityName": "Ban Ku Bae Ba Do",
      "lat": 6.416667,
      "lng": 101.666667
    },
    {
      "cityName": "Ban Ku Bae Sa Lo",
      "lat": 6.343056,
      "lng": 101.889722
    },
    {
      "cityName": "Ban Ku Bu",
      "lat": 6.322222,
      "lng": 101.976111
    },
    {
      "cityName": "Ban Ku Ching Ru Pa",
      "lat": 6.299722,
      "lng": 101.636667
    },
    {
      "cityName": "Ban Ku Mung",
      "lat": 5.95,
      "lng": 101.616667
    },
    {
      "cityName": "Ban Ku Tong",
      "lat": 6.199167,
      "lng": 101.762222
    },
    {
      "cityName": "Ban Ku Wa",
      "lat": 6.605833,
      "lng": 101.619444
    },
    {
      "cityName": "Ban Ku Wae",
      "lat": 6.455833,
      "lng": 101.6625
    },
    {
      "cityName": "Ban Kuyu",
      "lat": 6.2,
      "lng": 102.05
    },
    {
      "cityName": "Ban Lahan",
      "lat": 6.067778,
      "lng": 101.888889
    },
    {
      "cityName": "Ban La Lae",
      "lat": 6.066667,
      "lng": 102.016667
    },
    {
      "cityName": "Ban La Lo",
      "lat": 6.016667,
      "lng": 101.816667
    },
    {
      "cityName": "Ban La Mai",
      "lat": 6.214444,
      "lng": 101.715
    },
    {
      "cityName": "Ban Lamphu",
      "lat": 6.378333,
      "lng": 101.804722
    },
    {
      "cityName": "Ban La O",
      "lat": 6.158889,
      "lng": 101.551389
    },
    {
      "cityName": "Ban La Weng",
      "lat": 6.285833,
      "lng": 101.547222
    },
    {
      "cityName": "Ban Lu Bo Ba Kong",
      "lat": 6.564722,
      "lng": 101.724444
    },
    {
      "cityName": "Ban Lu Bo",
      "lat": 6.396944,
      "lng": 101.591944
    },
    {
      "cityName": "Ban Lu Bo Ba Ya",
      "lat": 6.406389,
      "lng": 101.670833
    },
    {
      "cityName": "Ban Lu Bo Ka Yo",
      "lat": 6.315278,
      "lng": 101.671667
    },
    {
      "cityName": "Ban Lu Bo La So",
      "lat": 6.079167,
      "lng": 101.760556
    },
    {
      "cityName": "Ban Lu Bo Lu Song",
      "lat": 6.352222,
      "lng": 101.669444
    },
    {
      "cityName": "Ban Lukae",
      "lat": 5.866667,
      "lng": 101.883333
    },
    {
      "cityName": "Ban Mai Kwat",
      "lat": 6.433333,
      "lng": 101.783333
    },
    {
      "cityName": "Ban Manang Ka Yi",
      "lat": 6.348889,
      "lng": 101.805
    },
    {
      "cityName": "Ban Ma Ru Bo",
      "lat": 6.35,
      "lng": 101.616667
    },
    {
      "cityName": "Ban Maru Bo Ok",
      "lat": 6.240278,
      "lng": 101.847778
    },
    {
      "cityName": "Ban Nali",
      "lat": 5.966667,
      "lng": 101.833333
    },
    {
      "cityName": "Ban Nikhom Pi Lang",
      "lat": 6.262778,
      "lng": 101.919722
    },
    {
      "cityName": "Ban Pacho",
      "lat": 5.783333,
      "lng": 101.716667
    },
    {
      "cityName": "Ban Pa Lu Kha",
      "lat": 6.45,
      "lng": 101.683333
    },
    {
      "cityName": "Ban Palumo",
      "lat": 6.1,
      "lng": 101.85
    },
    {
      "cityName": "Ban Pa Phai",
      "lat": 6.245833,
      "lng": 101.439444
    },
    {
      "cityName": "Ban Pa Ri",
      "lat": 6.085833,
      "lng": 101.697222
    },
    {
      "cityName": "Ban Pa Se",
      "lat": 6.196667,
      "lng": 101.688611
    },
    {
      "cityName": "Ban Pa Wai",
      "lat": 6.199167,
      "lng": 101.895
    },
    {
      "cityName": "Ban Pa Ye",
      "lat": 6.115,
      "lng": 101.941389
    },
    {
      "cityName": "Ban Phrai Wan",
      "lat": 6.3,
      "lng": 101.966667
    },
    {
      "cityName": "Ban Phraun",
      "lat": 6.25,
      "lng": 102.016667
    },
    {
      "cityName": "Ban Plak Pla",
      "lat": 6.133333,
      "lng": 102.033333
    },
    {
      "cityName": "Ban Po No",
      "lat": 6.452222,
      "lng": 101.576389
    },
    {
      "cityName": "Ban Pu La Sai",
      "lat": 6.339722,
      "lng": 101.725278
    },
    {
      "cityName": "Ban Pu Lu Ru",
      "lat": 6.116667,
      "lng": 101.9
    },
    {
      "cityName": "Ban Pu Ta",
      "lat": 6.398333,
      "lng": 101.797778
    },
    {
      "cityName": "Ban Ruasau",
      "lat": 6.393611,
      "lng": 101.519722
    },
    {
      "cityName": "Ban Ru Po",
      "lat": 6.156667,
      "lng": 101.669722
    },
    {
      "cityName": "Ban Sai Khau",
      "lat": 6.274167,
      "lng": 101.982222
    },
    {
      "cityName": "Ban Sakhu",
      "lat": 5.983333,
      "lng": 101.866667
    },
    {
      "cityName": "Ban Sala Mai",
      "lat": 6.233333,
      "lng": 101.916667
    },
    {
      "cityName": "Ban Samo",
      "lat": 6.166667,
      "lng": 101.9
    },
    {
      "cityName": "Ban Sapom",
      "lat": 6.5,
      "lng": 101.766667
    },
    {
      "cityName": "Ban Sawo",
      "lat": 6.430556,
      "lng": 101.513333
    },
    {
      "cityName": "Ban Sida",
      "lat": 6.516667,
      "lng": 101.566667
    },
    {
      "cityName": "Ban Song Khirl",
      "lat": 6.006667,
      "lng": 101.78
    },
    {
      "cityName": "Ban Suan Phlu",
      "lat": 6.262778,
      "lng": 101.485833
    },
    {
      "cityName": "Ban Suhong Padi",
      "lat": 6.15,
      "lng": 101.9
    },
    {
      "cityName": "Ban Sungai Batu",
      "lat": 6.479167,
      "lng": 101.6575
    },
    {
      "cityName": "Ban Sut Tambon",
      "lat": 6.583333,
      "lng": 101.7
    },
    {
      "cityName": "Ban Taba",
      "lat": 6.233333,
      "lng": 102.083333
    },
    {
      "cityName": "Ban Tak Bang",
      "lat": 6.266667,
      "lng": 102.016667
    },
    {
      "cityName": "Ban Taliang",
      "lat": 6.216667,
      "lng": 102.05
    },
    {
      "cityName": "Ban Talo Kuwing",
      "lat": 6.4275,
      "lng": 101.711111
    },
    {
      "cityName": "Ban Talubi",
      "lat": 6.566667,
      "lng": 101.666667
    },
    {
      "cityName": "Ban Ta Ngo",
      "lat": 6.219444,
      "lng": 101.885
    },
    {
      "cityName": "Ban Tan Yong",
      "lat": 6.338056,
      "lng": 101.466111
    },
    {
      "cityName": "Ban Tanyong Mat",
      "lat": 6.290833,
      "lng": 101.711944
    },
    {
      "cityName": "Ban Tham Nop",
      "lat": 6.268056,
      "lng": 101.499444
    },
    {
      "cityName": "Ban Tha Rua",
      "lat": 6.35,
      "lng": 101.533333
    },
    {
      "cityName": "Ban Thaup",
      "lat": 6.533333,
      "lng": 101.75
    },
    {
      "cityName": "Ban Thung Wo",
      "lat": 6.55,
      "lng": 101.683333
    },
    {
      "cityName": "Ban Ti Phae",
      "lat": 6.216667,
      "lng": 101.85
    },
    {
      "cityName": "Ban To Daeng",
      "lat": 6.081667,
      "lng": 101.966111
    },
    {
      "cityName": "Ban To Deng",
      "lat": 6.115,
      "lng": 101.86
    },
    {
      "cityName": "Ban To Lang",
      "lat": 5.95,
      "lng": 101.9
    },
    {
      "cityName": "Ban To Mo",
      "lat": 5.816667,
      "lng": 101.716667
    },
    {
      "cityName": "Ban Ton Sai",
      "lat": 6.616667,
      "lng": 101.616667
    },
    {
      "cityName": "Ban Ton Yang",
      "lat": 6.15,
      "lng": 101.916667
    },
    {
      "cityName": "Ban Tu Lae",
      "lat": 5.983333,
      "lng": 101.933333
    },
    {
      "cityName": "Ban Wat Mai",
      "lat": 6.233333,
      "lng": 102.033333
    },
    {
      "cityName": "Ban Ya Lu Tong",
      "lat": 6.558611,
      "lng": 101.641667
    },
    {
      "cityName": "Ban Yigo",
      "lat": 6.400278,
      "lng": 101.708611
    },
    {
      "cityName": "Changwat Narathiwat",
      "lat": 6.4,
      "lng": 101.8
    },
    {
      "cityName": "Gampong Lubau Sawau",
      "lat": 6.483333,
      "lng": 101.683333
    },
    {
      "cityName": "Gampong Padang Sa",
      "lat": 5.866667,
      "lng": 101.933333
    },
    {
      "cityName": "Huai To Mo",
      "lat": 5.866667,
      "lng": 101.733333
    },
    {
      "cityName": "Kampong Aiketu",
      "lat": 6.1,
      "lng": 101.883333
    },
    {
      "cityName": "Kampong Aila",
      "lat": 6.333333,
      "lng": 101.6
    },
    {
      "cityName": "Kampong Anyong Bale",
      "lat": 6,
      "lng": 101.966667
    },
    {
      "cityName": "Kampong Baelae",
      "lat": 6.233333,
      "lng": 101.766667
    },
    {
      "cityName": "Kampong Baka",
      "lat": 6.033333,
      "lng": 101.983333
    },
    {
      "cityName": "Kampong Bakong",
      "lat": 6.316667,
      "lng": 101.516667
    },
    {
      "cityName": "Kampong Bamang",
      "lat": 6.366667,
      "lng": 101.666667
    },
    {
      "cityName": "Kampong Bane Batu",
      "lat": 6.35,
      "lng": 101.5
    },
    {
      "cityName": "Kampong Bangae",
      "lat": 6.116667,
      "lng": 101.883333
    },
    {
      "cityName": "Kampong Bangau",
      "lat": 6.316667,
      "lng": 101.8
    },
    {
      "cityName": "Kampong Ba Ngoai Sato",
      "lat": 6.283333,
      "lng": 101.766667
    },
    {
      "cityName": "Kampong Bango Do",
      "lat": 6.25,
      "lng": 101.683333
    },
    {
      "cityName": "Kampong Bango Raja",
      "lat": 6.25,
      "lng": 101.666667
    },
    {
      "cityName": "Kampong Bang Pau",
      "lat": 6.316667,
      "lng": 101.833333
    },
    {
      "cityName": "Kampong Bau Tong",
      "lat": 6.433333,
      "lng": 101.833333
    },
    {
      "cityName": "Kampong Binongkalanyi",
      "lat": 6.35,
      "lng": 101.783333
    },
    {
      "cityName": "Kampong Boma",
      "lat": 6.2,
      "lng": 101.833333
    },
    {
      "cityName": "Kampong Bo Yu",
      "lat": 6.1,
      "lng": 102.016667
    },
    {
      "cityName": "Kampong Bukekaya",
      "lat": 6.2,
      "lng": 101.816667
    },
    {
      "cityName": "Kampong Buket",
      "lat": 6.216667,
      "lng": 101.816667
    },
    {
      "cityName": "Kampong Bukit Tanjong",
      "lat": 6.416667,
      "lng": 101.85
    },
    {
      "cityName": "Kampong Chaluka",
      "lat": 6.333333,
      "lng": 101.583333
    },
    {
      "cityName": "Kampong Chayhay",
      "lat": 6.283333,
      "lng": 102.033333
    },
    {
      "cityName": "Kampong Chayo",
      "lat": 5.85,
      "lng": 101.85
    },
    {
      "cityName": "Kampong Chipaengae",
      "lat": 6.2,
      "lng": 102.083333
    },
    {
      "cityName": "Kampong Da Ho La Ku Wing",
      "lat": 6.45,
      "lng": 101.7
    },
    {
      "cityName": "Kampong Dam Ngapo",
      "lat": 6.4,
      "lng": 101.666667
    },
    {
      "cityName": "Kampong Dato Muno",
      "lat": 6.066667,
      "lng": 102.033333
    },
    {
      "cityName": "Kampong Jaho",
      "lat": 6.2,
      "lng": 101.75
    },
    {
      "cityName": "Kampong Jaya",
      "lat": 6.15,
      "lng": 101.7
    },
    {
      "cityName": "Kampong Ka Kheng",
      "lat": 6.016667,
      "lng": 101.933333
    },
    {
      "cityName": "Kampong Kalehuru",
      "lat": 6.25,
      "lng": 101.85
    },
    {
      "cityName": "Kampong Kalisa",
      "lat": 6.233333,
      "lng": 101.666667
    },
    {
      "cityName": "Kampong Kalubi",
      "lat": 6.2,
      "lng": 101.516667
    },
    {
      "cityName": "Kampong Ka Lu Wauba",
      "lat": 6.333333,
      "lng": 101.866667
    },
    {
      "cityName": "Kampong Kamae",
      "lat": 6.2,
      "lng": 101.7
    },
    {
      "cityName": "Kampong Kamung",
      "lat": 6.033333,
      "lng": 101.65
    },
    {
      "cityName": "Kampong Khuan Thap",
      "lat": 6.466667,
      "lng": 101.783333
    },
    {
      "cityName": "Kampong Kota",
      "lat": 6.083333,
      "lng": 101.9
    },
    {
      "cityName": "Kampong Kubang Badak",
      "lat": 6.433333,
      "lng": 101.683333
    },
    {
      "cityName": "Kampong Kuwe",
      "lat": 6.183333,
      "lng": 101.833333
    },
    {
      "cityName": "Kampong Lablile",
      "lat": 6.416667,
      "lng": 101.533333
    },
    {
      "cityName": "Kampong Lada",
      "lat": 6.166667,
      "lng": 102.083333
    },
    {
      "cityName": "Kampong Laek Ba",
      "lat": 6.45,
      "lng": 101.833333
    },
    {
      "cityName": "Kampong Lakse",
      "lat": 6.183333,
      "lng": 101.733333
    },
    {
      "cityName": "Kampong Lalo Thawo",
      "lat": 6.35,
      "lng": 101.583333
    },
    {
      "cityName": "Kampong Lawen",
      "lat": 6.283333,
      "lng": 101.566667
    },
    {
      "cityName": "Kampong Lubobatu",
      "lat": 6.283333,
      "lng": 101.533333
    },
    {
      "cityName": "Kampong Lu Bo Boe Sa",
      "lat": 6.416667,
      "lng": 101.716667
    },
    {
      "cityName": "Kampong Lukae",
      "lat": 5.85,
      "lng": 101.883333
    },
    {
      "cityName": "Kampong Manang Tayau",
      "lat": 6.366667,
      "lng": 101.783333
    },
    {
      "cityName": "Kampong Ngoh Kapajeng",
      "lat": 6.216667,
      "lng": 102.083333
    },
    {
      "cityName": "Kampong Ngu Kanah",
      "lat": 6.333333,
      "lng": 101.666667
    },
    {
      "cityName": "Kampong Ni Baun",
      "lat": 6.366667,
      "lng": 101.45
    },
    {
      "cityName": "Kampong Pau Ma Loet",
      "lat": 6.316667,
      "lng": 101.483333
    },
    {
      "cityName": "Kampong Pau Yau Du Lae",
      "lat": 6.366667,
      "lng": 101.483333
    },
    {
      "cityName": "Kampong Pau Yau",
      "lat": 6.466667,
      "lng": 101.683333
    },
    {
      "cityName": "Kampong Pa Yao Mati",
      "lat": 6.233333,
      "lng": 101.516667
    },
    {
      "cityName": "Kampong Penang Kayang",
      "lat": 6.116667,
      "lng": 101.683333
    },
    {
      "cityName": "Kampong Prau",
      "lat": 6.4,
      "lng": 101.833333
    },
    {
      "cityName": "Kampong Sako",
      "lat": 6,
      "lng": 101.866667
    },
    {
      "cityName": "Kampong Saring",
      "lat": 6.183333,
      "lng": 102.083333
    },
    {
      "cityName": "Kampong Sa Te",
      "lat": 6.5,
      "lng": 101.666667
    },
    {
      "cityName": "Kampong Sawa",
      "lat": 6.416667,
      "lng": 101.516667
    },
    {
      "cityName": "Kampong Sungae",
      "lat": 6.166667,
      "lng": 101.7
    },
    {
      "cityName": "Kampong Tache",
      "lat": 6.133333,
      "lng": 102.083333
    },
    {
      "cityName": "Kampong Talobuke",
      "lat": 6.033333,
      "lng": 101.866667
    },
    {
      "cityName": "Kampong Tanjong",
      "lat": 6.283333,
      "lng": 101.666667
    },
    {
      "cityName": "Kampong Tan Jong",
      "lat": 6.533333,
      "lng": 101.683333
    },
    {
      "cityName": "Kampong Tanjong Yo",
      "lat": 6.4,
      "lng": 101.85
    },
    {
      "cityName": "Kampong Tanyong Kamae",
      "lat": 6.016667,
      "lng": 101.883333
    },
    {
      "cityName": "Kampong Tau Lae",
      "lat": 5.966667,
      "lng": 101.9
    },
    {
      "cityName": "Kampong Tayong",
      "lat": 6.383333,
      "lng": 101.666667
    },
    {
      "cityName": "Kampong To Lang",
      "lat": 5.933333,
      "lng": 101.9
    },
    {
      "cityName": "Kapho",
      "lat": 6.571667,
      "lng": 101.608611
    },
    {
      "cityName": "Kolok",
      "lat": 6.026667,
      "lng": 101.967778
    },
    {
      "cityName": "Lahan",
      "lat": 6.4,
      "lng": 101.733333
    },
    {
      "cityName": "Si Sakhon",
      "lat": 6.15,
      "lng": 101.55
    },
    {
      "cityName": "Sukhirin",
      "lat": 5.933333,
      "lng": 101.783333
    }
  ]
}