{
  "name": "Kalasin",
  "cities": [
    {
      "cityName": "Amphoe Ban Bang Talat",
      "lat": 16.4,
      "lng": 103.383333
    },
    {
      "cityName": "Amphoe Hlup",
      "lat": 16.433333,
      "lng": 103.5
    },
    {
      "cityName": "Amphoe Kamalasai",
      "lat": 16.266667,
      "lng": 103.5
    },
    {
      "cityName": "Amphoe Khao Wong",
      "lat": 16.633333,
      "lng": 104.05
    },
    {
      "cityName": "Amphoe Kuchinarai",
      "lat": 16.533333,
      "lng": 104.066667
    },
    {
      "cityName": "Amphoe Sahaskhan",
      "lat": 16.866667,
      "lng": 103.6
    },
    {
      "cityName": "Amphoe Sahatsakhan",
      "lat": 16.75,
      "lng": 103.5
    },
    {
      "cityName": "Amphoe Somdet",
      "lat": 16.633333,
      "lng": 103.683333
    },
    {
      "cityName": "Ban Amphoe Kamalasai",
      "lat": 16.333333,
      "lng": 103.583333
    },
    {
      "cityName": "Ban Bao",
      "lat": 16.883333,
      "lng": 103.683333
    },
    {
      "cityName": "Ban Bon",
      "lat": 16.516667,
      "lng": 103.966667
    },
    {
      "cityName": "Ban Bua",
      "lat": 16.85,
      "lng": 103.7
    },
    {
      "cityName": "Ban Bung Wichai",
      "lat": 16.516667,
      "lng": 103.45
    },
    {
      "cityName": "Ban Chaenlaen",
      "lat": 16.55,
      "lng": 104
    },
    {
      "cityName": "Ban Chai Wan",
      "lat": 16.633333,
      "lng": 103.3
    },
    {
      "cityName": "Ban Champa",
      "lat": 16.333333,
      "lng": 103.75
    },
    {
      "cityName": "Ban Chan",
      "lat": 16.733333,
      "lng": 104.016667
    },
    {
      "cityName": "Ban Chang",
      "lat": 16.833333,
      "lng": 103.466667
    },
    {
      "cityName": "Ban Chat",
      "lat": 16.266667,
      "lng": 103.466667
    },
    {
      "cityName": "Ban Chiang Khrua",
      "lat": 16.433333,
      "lng": 103.633333
    },
    {
      "cityName": "Ban Chom Si",
      "lat": 16.783333,
      "lng": 104.083333
    },
    {
      "cityName": "Ban Chot",
      "lat": 16.233333,
      "lng": 103.6
    },
    {
      "cityName": "Ban Chum Chang",
      "lat": 16.45,
      "lng": 104.1
    },
    {
      "cityName": "Ban Dan Nua",
      "lat": 16.333333,
      "lng": 103.683333
    },
    {
      "cityName": "Ban Dan Tae",
      "lat": 16.416667,
      "lng": 103.716667
    },
    {
      "cityName": "Ban Din Chi",
      "lat": 16.9,
      "lng": 103.683333
    },
    {
      "cityName": "Ban Don",
      "lat": 14.933333,
      "lng": 102
    },
    {
      "cityName": "Ban Dong Bang",
      "lat": 16.383333,
      "lng": 103.25
    },
    {
      "cityName": "Ban Dong Muang",
      "lat": 16.45,
      "lng": 103.466667
    },
    {
      "cityName": "Ban Dong Nua",
      "lat": 16.55,
      "lng": 104.016667
    },
    {
      "cityName": "Ban Dong Phayung",
      "lat": 16.516667,
      "lng": 103.683333
    },
    {
      "cityName": "Ban Don Khi",
      "lat": 16.433333,
      "lng": 103.216667
    },
    {
      "cityName": "Ban Don Muang",
      "lat": 16.383333,
      "lng": 103.533333
    },
    {
      "cityName": "Ban Don Um Lua",
      "lat": 16.516667,
      "lng": 104.083333
    },
    {
      "cityName": "Ban Don Yang",
      "lat": 16.333333,
      "lng": 103.533333
    },
    {
      "cityName": "Ban Don Yung",
      "lat": 16.316667,
      "lng": 103.55
    },
    {
      "cityName": "Ban Ham Hae",
      "lat": 16.45,
      "lng": 103.566667
    },
    {
      "cityName": "Ban Han Klang",
      "lat": 16.216667,
      "lng": 103.616667
    },
    {
      "cityName": "Ban Hat Sai Mun",
      "lat": 16.683333,
      "lng": 103.233333
    },
    {
      "cityName": "Ban Hin Lat",
      "lat": 16.8,
      "lng": 104.016667
    },
    {
      "cityName": "Ban Hong Hi",
      "lat": 16.383333,
      "lng": 103.316667
    },
    {
      "cityName": "Ban Huai Daeng",
      "lat": 16.55,
      "lng": 104.216667
    },
    {
      "cityName": "Ban Huai Matho",
      "lat": 16.566667,
      "lng": 103.316667
    },
    {
      "cityName": "Ban Huai Mek",
      "lat": 16.533333,
      "lng": 103.216667
    },
    {
      "cityName": "Ban Huai Phung",
      "lat": 16.633333,
      "lng": 103.916667
    },
    {
      "cityName": "Ban Huai Toei",
      "lat": 16.55,
      "lng": 103.4
    },
    {
      "cityName": "Ban Huai Tum",
      "lat": 16.566667,
      "lng": 103.7
    },
    {
      "cityName": "Ban Huai Yang Dong",
      "lat": 16.716667,
      "lng": 103.216667
    },
    {
      "cityName": "Ban Hua Khwa",
      "lat": 16.35,
      "lng": 103.6
    },
    {
      "cityName": "Ban Hua Nong",
      "lat": 16.233333,
      "lng": 103.5
    },
    {
      "cityName": "Ban Hua Saphan",
      "lat": 15.683333,
      "lng": 102.7
    },
    {
      "cityName": "Ban Hua Wua",
      "lat": 16.633333,
      "lng": 103.8
    },
    {
      "cityName": "Ban Kaeng",
      "lat": 16.75,
      "lng": 103.683333
    },
    {
      "cityName": "Ban Kaeng Dua",
      "lat": 16.45,
      "lng": 104.016667
    },
    {
      "cityName": "Ban Kaeng Nang",
      "lat": 16.633333,
      "lng": 104.15
    },
    {
      "cityName": "Ban Kae Pe",
      "lat": 16.383333,
      "lng": 103.633333
    },
    {
      "cityName": "Ban Ka Min",
      "lat": 16.55,
      "lng": 103.566667
    },
    {
      "cityName": "Ban Khai Nun",
      "lat": 16.616667,
      "lng": 103.95
    },
    {
      "cityName": "Ban Kham",
      "lat": 16.433333,
      "lng": 103.35
    },
    {
      "cityName": "Ban Kham Bong",
      "lat": 16.65,
      "lng": 103.85
    },
    {
      "cityName": "Ban Kham Chiang Wan",
      "lat": 16.733333,
      "lng": 103.633333
    },
    {
      "cityName": "Ban Kham Hai",
      "lat": 16.3,
      "lng": 103.383333
    },
    {
      "cityName": "Ban Khamin",
      "lat": 16.533333,
      "lng": 103.5
    },
    {
      "cityName": "Ban Kham Kang",
      "lat": 16.583333,
      "lng": 103.983333
    },
    {
      "cityName": "Ban Kham Kha",
      "lat": 16.766667,
      "lng": 103.633333
    },
    {
      "cityName": "Ban Kham Khaen",
      "lat": 16.716667,
      "lng": 103.483333
    },
    {
      "cityName": "Ban Kham Kham",
      "lat": 16.733333,
      "lng": 103.316667
    },
    {
      "cityName": "Ban Kham Maet",
      "lat": 16.466667,
      "lng": 103.4
    },
    {
      "cityName": "Ban Kham Mek",
      "lat": 16.5,
      "lng": 103.583333
    },
    {
      "cityName": "Ban Kham Muang",
      "lat": 16.733333,
      "lng": 103.866667
    },
    {
      "cityName": "Ban Kham Phai",
      "lat": 16.666667,
      "lng": 103.7
    },
    {
      "cityName": "Ban Kham Phimun",
      "lat": 16.916667,
      "lng": 103.6
    },
    {
      "cityName": "Ban Kham Phon",
      "lat": 16.566667,
      "lng": 103.666667
    },
    {
      "cityName": "Ban Kham Yai",
      "lat": 16.65,
      "lng": 103.2
    },
    {
      "cityName": "Ban Khlong Khleng",
      "lat": 16.216667,
      "lng": 103.45
    },
    {
      "cityName": "Ban Khlong Mun",
      "lat": 16.5,
      "lng": 103.65
    },
    {
      "cityName": "Ban Khok",
      "lat": 16.8,
      "lng": 103.683333
    },
    {
      "cityName": "Ban Khok Kho",
      "lat": 16.983333,
      "lng": 103.666667
    },
    {
      "cityName": "Ban Khok Khrua",
      "lat": 16.683333,
      "lng": 103.266667
    },
    {
      "cityName": "Ban Khok Klang",
      "lat": 16.716667,
      "lng": 103.766667
    },
    {
      "cityName": "Ban Khok Si",
      "lat": 16.4,
      "lng": 103.466667
    },
    {
      "cityName": "Ban Khum Khi Yang",
      "lat": 16.5,
      "lng": 104.216667
    },
    {
      "cityName": "Ban Klang",
      "lat": 16.416667,
      "lng": 104.133333
    },
    {
      "cityName": "Ban Klang Mun",
      "lat": 16.45,
      "lng": 103.583333
    },
    {
      "cityName": "Ban Kok Tan",
      "lat": 16.483333,
      "lng": 104.033333
    },
    {
      "cityName": "Ban Kut Bot",
      "lat": 16.55,
      "lng": 104.133333
    },
    {
      "cityName": "Ban Kut Don",
      "lat": 16.566667,
      "lng": 103.266667
    },
    {
      "cityName": "Ban Kut Lai",
      "lat": 16.466667,
      "lng": 103.533333
    },
    {
      "cityName": "Ban Kut Ling",
      "lat": 16.266667,
      "lng": 103.75
    },
    {
      "cityName": "Ban Kut O",
      "lat": 16.483333,
      "lng": 103.466667
    },
    {
      "cityName": "Ban Kut Tha Lu",
      "lat": 16.6,
      "lng": 103.266667
    },
    {
      "cityName": "Ban Kut Wa",
      "lat": 16.516667,
      "lng": 104.133333
    },
    {
      "cityName": "Ban Lak Liam",
      "lat": 16.566667,
      "lng": 103.833333
    },
    {
      "cityName": "Ban Lao Kho",
      "lat": 16.416667,
      "lng": 103.616667
    },
    {
      "cityName": "Ban Lao Tamyae",
      "lat": 16.833333,
      "lng": 103.75
    },
    {
      "cityName": "Ban Lek",
      "lat": 16.416667,
      "lng": 103.55
    },
    {
      "cityName": "Ban Lup",
      "lat": 16.4,
      "lng": 103.533333
    },
    {
      "cityName": "Ban Lup Lao",
      "lat": 16.816667,
      "lng": 103.966667
    },
    {
      "cityName": "Ban Lu Yaek Nong Kong",
      "lat": 16.7,
      "lng": 103.75
    },
    {
      "cityName": "Ban Maha Chai",
      "lat": 16.8,
      "lng": 103.75
    },
    {
      "cityName": "Ban Moei",
      "lat": 16.25,
      "lng": 103.65
    },
    {
      "cityName": "Ban Muang",
      "lat": 16.466667,
      "lng": 103.65
    },
    {
      "cityName": "Ban Muang Kun",
      "lat": 16.766667,
      "lng": 103.983333
    },
    {
      "cityName": "Ban Muang Kunchon",
      "lat": 16.783333,
      "lng": 103.616667
    },
    {
      "cityName": "Ban Muang Na Di",
      "lat": 16.75,
      "lng": 103.983333
    },
    {
      "cityName": "Ban Na Bon",
      "lat": 16.816667,
      "lng": 103.683333
    },
    {
      "cityName": "Ban Na Bong",
      "lat": 16.766667,
      "lng": 103.4
    },
    {
      "cityName": "Ban Na Champa",
      "lat": 16.466667,
      "lng": 103.716667
    },
    {
      "cityName": "Ban Na Khu",
      "lat": 16.716667,
      "lng": 103.966667
    },
    {
      "cityName": "Ban Na Ko",
      "lat": 16.55,
      "lng": 104.05
    },
    {
      "cityName": "Ban Nakok",
      "lat": 16.583333,
      "lng": 104.066667
    },
    {
      "cityName": "Ban Na Makhua",
      "lat": 16.683333,
      "lng": 103.683333
    },
    {
      "cityName": "Ban Na Mon",
      "lat": 16.366667,
      "lng": 103.666667
    },
    {
      "cityName": "Ban Nam Pun",
      "lat": 16.683333,
      "lng": 103.983333
    },
    {
      "cityName": "Ban Na Mun",
      "lat": 16.566667,
      "lng": 103.8
    },
    {
      "cityName": "Ban Na Riang",
      "lat": 16.3,
      "lng": 103.716667
    },
    {
      "cityName": "Ban Nikhom",
      "lat": 16.65,
      "lng": 103.933333
    },
    {
      "cityName": "Ban Non Chai",
      "lat": 16.616667,
      "lng": 103.6
    },
    {
      "cityName": "Ban Nong Bua",
      "lat": 16.683333,
      "lng": 103.4
    },
    {
      "cityName": "Ban Nong Bua Nai",
      "lat": 16.55,
      "lng": 103.866667
    },
    {
      "cityName": "Ban Nong Chang",
      "lat": 16.816667,
      "lng": 103.483333
    },
    {
      "cityName": "Ban Nong Fa Luan",
      "lat": 16.55,
      "lng": 103.983333
    },
    {
      "cityName": "Ban Nong Hang",
      "lat": 16.55,
      "lng": 104.116667
    },
    {
      "cityName": "Ban Nong I But",
      "lat": 16.616667,
      "lng": 103.833333
    },
    {
      "cityName": "Ban Nong I Thao",
      "lat": 16.35,
      "lng": 103.383333
    },
    {
      "cityName": "Ban Nong Khaen",
      "lat": 16.45,
      "lng": 103.716667
    },
    {
      "cityName": "Ban Nong Kham",
      "lat": 16.433333,
      "lng": 103.383333
    },
    {
      "cityName": "Ban Nong Kung",
      "lat": 16.516667,
      "lng": 103.383333
    },
    {
      "cityName": "Ban Nong Kung Nua",
      "lat": 16.516667,
      "lng": 103.533333
    },
    {
      "cityName": "Ban Nong Kung Thai",
      "lat": 16.516667,
      "lng": 103.333333
    },
    {
      "cityName": "Ban Nong Mek",
      "lat": 16.3,
      "lng": 103.433333
    },
    {
      "cityName": "Ban Nong No",
      "lat": 16.7,
      "lng": 103.333333
    },
    {
      "cityName": "Ban Nong Paen",
      "lat": 16.3,
      "lng": 103.483333
    },
    {
      "cityName": "Ban Nong Pa Oi",
      "lat": 16.716667,
      "lng": 103.8
    },
    {
      "cityName": "Ban Nong Phai",
      "lat": 16.466667,
      "lng": 103.216667
    },
    {
      "cityName": "Ban Nong Pha Om",
      "lat": 16.616667,
      "lng": 103.7
    },
    {
      "cityName": "Ban Nong Phon",
      "lat": 16.483333,
      "lng": 103.683333
    },
    {
      "cityName": "Ban Nong Phu",
      "lat": 16.733333,
      "lng": 104.083333
    },
    {
      "cityName": "Ban Nong Riu Nang",
      "lat": 16.666667,
      "lng": 103.316667
    },
    {
      "cityName": "Ban Nong Saeng",
      "lat": 16.65,
      "lng": 104.133333
    },
    {
      "cityName": "Ban Nong So",
      "lat": 16.566667,
      "lng": 103.516667
    },
    {
      "cityName": "Ban Nong Song Maeo",
      "lat": 16.833333,
      "lng": 103.783333
    },
    {
      "cityName": "Ban Nong Suang",
      "lat": 16.75,
      "lng": 103.433333
    },
    {
      "cityName": "Ban Nong Takhu",
      "lat": 16.35,
      "lng": 103.716667
    },
    {
      "cityName": "Ban Nong Waeng Muang",
      "lat": 16.516667,
      "lng": 103.25
    },
    {
      "cityName": "Ban Nong Waeng Nua",
      "lat": 16.566667,
      "lng": 103.616667
    },
    {
      "cityName": "Ban Nong Wai",
      "lat": 16.2,
      "lng": 103.5
    },
    {
      "cityName": "Ban Nong Yang",
      "lat": 16.766667,
      "lng": 103.65
    },
    {
      "cityName": "Ban Nong Ya Plong",
      "lat": 16.666667,
      "lng": 103.766667
    },
    {
      "cityName": "Ban Non Khi Khuang",
      "lat": 16.55,
      "lng": 103.333333
    },
    {
      "cityName": "Ban Non Nam Kliang",
      "lat": 16.633333,
      "lng": 103.483333
    },
    {
      "cityName": "Ban Non Phosi",
      "lat": 16.283333,
      "lng": 103.516667
    },
    {
      "cityName": "Ban Non Sung Nua",
      "lat": 16.466667,
      "lng": 103.233333
    },
    {
      "cityName": "Ban Non Thiang",
      "lat": 16.566667,
      "lng": 103.766667
    },
    {
      "cityName": "Ban Pham",
      "lat": 16.433333,
      "lng": 103.183333
    },
    {
      "cityName": "Ban Phon",
      "lat": 16.816667,
      "lng": 103.583333
    },
    {
      "cityName": "Ban Phon Ngam",
      "lat": 16.316667,
      "lng": 103.683333
    },
    {
      "cityName": "Ban Phon Phaeng",
      "lat": 16.966667,
      "lng": 103.7
    },
    {
      "cityName": "Ban Phon Sawang",
      "lat": 16.65,
      "lng": 103.683333
    },
    {
      "cityName": "Ban Pho Si",
      "lat": 16.533333,
      "lng": 103.45
    },
    {
      "cityName": "Ban Phrom Mali",
      "lat": 16.716667,
      "lng": 103.3
    },
    {
      "cityName": "Ban Phung",
      "lat": 16.583333,
      "lng": 103.95
    },
    {
      "cityName": "Ban Po Daeng",
      "lat": 16.366667,
      "lng": 103.483333
    },
    {
      "cityName": "Ban Pong Chuak",
      "lat": 16.7,
      "lng": 103.666667
    },
    {
      "cityName": "Ban Roeng Thom",
      "lat": 16.566667,
      "lng": 103.433333
    },
    {
      "cityName": "Ban Sa-at",
      "lat": 16.6,
      "lng": 103.416667
    },
    {
      "cityName": "Ban Sa-at Somsi",
      "lat": 16.25,
      "lng": 103.55
    },
    {
      "cityName": "Ban Sa",
      "lat": 16.433333,
      "lng": 103.3
    },
    {
      "cityName": "Ban Sam Kha",
      "lat": 16.483333,
      "lng": 103.983333
    },
    {
      "cityName": "Ban Sang Kho",
      "lat": 16.816667,
      "lng": 103.866667
    },
    {
      "cityName": "Ban Sangkhom Phatthana",
      "lat": 16.533333,
      "lng": 103.833333
    },
    {
      "cityName": "Ban Sao Lao",
      "lat": 16.633333,
      "lng": 103.366667
    },
    {
      "cityName": "Ban Sieo",
      "lat": 16.333333,
      "lng": 103.433333
    },
    {
      "cityName": "Ban Si Suk",
      "lat": 16.316667,
      "lng": 103.45
    },
    {
      "cityName": "Ban Si Than",
      "lat": 16.25,
      "lng": 103.683333
    },
    {
      "cityName": "Ban Song Noen",
      "lat": 16.783333,
      "lng": 103.666667
    },
    {
      "cityName": "Ban Sung Noen",
      "lat": 16.716667,
      "lng": 103.583333
    },
    {
      "cityName": "Ban Tha Hae",
      "lat": 16.233333,
      "lng": 103.433333
    },
    {
      "cityName": "Ban Tham Pla",
      "lat": 16.716667,
      "lng": 103.6
    },
    {
      "cityName": "Ban Tha Ngam",
      "lat": 16.966667,
      "lng": 103.5
    },
    {
      "cityName": "Ban Thon Buri",
      "lat": 16.316667,
      "lng": 103.6
    },
    {
      "cityName": "Ban Thung Mon",
      "lat": 16.833333,
      "lng": 103.683333
    },
    {
      "cityName": "Ban Tin Chi",
      "lat": 16.916667,
      "lng": 103.733333
    },
    {
      "cityName": "Ban Tum",
      "lat": 16.483333,
      "lng": 103.45
    },
    {
      "cityName": "Ban U",
      "lat": 16.8,
      "lng": 103.733333
    },
    {
      "cityName": "Ban Wang Mon",
      "lat": 16.533333,
      "lng": 104.15
    },
    {
      "cityName": "Ban Wang Yang",
      "lat": 16.216667,
      "lng": 103.483333
    },
    {
      "cityName": "Ban Yang Niam",
      "lat": 16.616667,
      "lng": 103.316667
    },
    {
      "cityName": "Ban Yang Um",
      "lat": 16.916667,
      "lng": 103.3
    },
    {
      "cityName": "Ban Yot Kaeng",
      "lat": 16.6,
      "lng": 103.733333
    },
    {
      "cityName": "Changwat Kalasin",
      "lat": 16.366667,
      "lng": 103.5
    },
    {
      "cityName": "Huai Mek",
      "lat": 16.6,
      "lng": 103.216667
    },
    {
      "cityName": "Huai Phung",
      "lat": 16.65,
      "lng": 103.9
    },
    {
      "cityName": "Kham Muang",
      "lat": 16.916667,
      "lng": 103.633333
    },
    {
      "cityName": "Khao Wong",
      "lat": 16.7,
      "lng": 104.1
    },
    {
      "cityName": "Meyawadi",
      "lat": 16.4,
      "lng": 104.133333
    },
    {
      "cityName": "Nong Kung Si",
      "lat": 16.65,
      "lng": 103.3
    },
    {
      "cityName": "Pho Chai",
      "lat": 16.316667,
      "lng": 103.783333
    },
    {
      "cityName": "Rong Kham",
      "lat": 16.266667,
      "lng": 103.683333
    },
    {
      "cityName": "Sahatkhan",
      "lat": 16.783333,
      "lng": 103.583333
    },
    {
      "cityName": "Somdet",
      "lat": 16.7,
      "lng": 103.766667
    },
    {
      "cityName": "Tha Khantho",
      "lat": 16.95,
      "lng": 103.233333
    }
  ]
}