{
  "name": "Ostgronland",
  "cities": [
    {
      "cityName": "Akínaitsât",
      "lat": 65.5333333,
      "lng": -37.2
    },
    {
      "cityName": "Ammassalik",
      "lat": 65.6,
      "lng": -37.6333333
    },
    {
      "cityName": "Angmagssivik",
      "lat": 65.9666667,
      "lng": -37.1166667
    },
    {
      "cityName": "Aputiteeq",
      "lat": 67.7833333,
      "lng": -32.2833333
    },
    {
      "cityName": "Finnsbu",
      "lat": 63.3833333,
      "lng": -41.3
    },
    {
      "cityName": "Igdlorqortôrmiut",
      "lat": 70.4833333,
      "lng": -21.9666667
    },
    {
      "cityName": "Igdlumiut",
      "lat": 65.5833333,
      "lng": -37.5833333
    },
    {
      "cityName": "Igssalik",
      "lat": 65.5166667,
      "lng": -39.0166667
    },
    {
      "cityName": "Igterajivit",
      "lat": 70.45,
      "lng": -22.3833333
    },
    {
      "cityName": "Íkáteq",
      "lat": 65.6333333,
      "lng": -37.9333333
    },
    {
      "cityName": "Ikerasagssuaq",
      "lat": 65.5666667,
      "lng": -37.1166667
    },
    {
      "cityName": "Isertoq",
      "lat": 65.5333333,
      "lng": -38.9833333
    },
    {
      "cityName": "Ittorisseq",
      "lat": 70.45,
      "lng": -22.45
    },
    {
      "cityName": "Kap Tobin",
      "lat": 70.4,
      "lng": -21.9666667
    },
    {
      "cityName": "Kulusuk",
      "lat": 65.5666667,
      "lng": -37.1833333
    },
    {
      "cityName": "Kûngmiut",
      "lat": 65.8666667,
      "lng": -37.0166667
    },
    {
      "cityName": "Myggbukta",
      "lat": 73.5,
      "lng": -21.5666667
    },
    {
      "cityName": "Narsak",
      "lat": 60.5,
      "lng": -43.4166667
    },
    {
      "cityName": "Paarnakajiit",
      "lat": 66.0833333,
      "lng": -37.6333333
    },
    {
      "cityName": "Qeertartivatsiaq",
      "lat": 65.8333333,
      "lng": -38.0166667
    },
    {
      "cityName": "Qernertuarssivit",
      "lat": 65.7166667,
      "lng": -37.3
    },
    {
      "cityName": "Saqqisikuik",
      "lat": 63.2166667,
      "lng": -41.3166667
    },
    {
      "cityName": "Sermiligaaq",
      "lat": 65.9,
      "lng": -36.3666667
    },
    {
      "cityName": "Simiutaq",
      "lat": 65.8666667,
      "lng": -37.0333333
    },
    {
      "cityName": "Sivsingassoq",
      "lat": 65.55,
      "lng": -37.2166667
    },
    {
      "cityName": "Timmiarmiut",
      "lat": 62.5333333,
      "lng": -42.2166667
    },
    {
      "cityName": "Tiniteqilaaq",
      "lat": 65.8833333,
      "lng": -37.7833333
    },
    {
      "cityName": "Tiniteqilaarmiit",
      "lat": 63.3833333,
      "lng": -41.1166667
    },
    {
      "cityName": "Ukîverajik",
      "lat": 65.75,
      "lng": -37.9166667
    },
    {
      "cityName": "Umiagtuartivit",
      "lat": 65.9,
      "lng": -37.9833333
    },
    {
      "cityName": "Ûnarteq",
      "lat": 70.4166667,
      "lng": -21.9833333
    },
    {
      "cityName": "Vandreblokken",
      "lat": 70.65,
      "lng": -24
    }
  ]
}