{
  "name": "Harbour Island",
  "cities": [
    {
      "cityName": "Bar Bay Settlement",
      "lat": 25.3833333,
      "lng": -76.8
    },
    {
      "cityName": "Bluff",
      "lat": 25.5,
      "lng": -76.7333333
    },
    {
      "cityName": "Bogue",
      "lat": 25.45,
      "lng": -76.6666667
    },
    {
      "cityName": "Current",
      "lat": 25.4333333,
      "lng": -76.7833333
    },
    {
      "cityName": "Dunmore Town",
      "lat": 25.5,
      "lng": -76.65
    },
    {
      "cityName": "Little Bay Settlement",
      "lat": 25.3333333,
      "lng": -76.8333333
    },
    {
      "cityName": "Lower Bogue",
      "lat": 25.4666667,
      "lng": -76.7166667
    },
    {
      "cityName": "Spanish Wells Settlement",
      "lat": 25.55,
      "lng": -76.75
    }
  ]
}