{
  "name": "Green Turtle Cay",
  "cities": [
    {
      "cityName": "Blackwood Village",
      "lat": 26.8,
      "lng": -77.4333333
    },
    {
      "cityName": "Cedar Harbor",
      "lat": 26.9166667,
      "lng": -77.6333333
    },
    {
      "cityName": "Cooper's Town",
      "lat": 26.8666667,
      "lng": -77.5166667
    },
    {
      "cityName": "Cornishtown",
      "lat": 26.75,
      "lng": -77.4666667
    },
    {
      "cityName": "Crown Haven",
      "lat": 26.9,
      "lng": -77.8166667
    },
    {
      "cityName": "Fire Road Village",
      "lat": 26.85,
      "lng": -77.5
    },
    {
      "cityName": "Fox Town",
      "lat": 26.9166667,
      "lng": -77.8
    },
    {
      "cityName": "Green Turtle Cay",
      "lat": 26.8333333,
      "lng": -77.3833333
    },
    {
      "cityName": "Green Turtle Village",
      "lat": 26.8166667,
      "lng": -77.45
    },
    {
      "cityName": "McLeans Town",
      "lat": 26.6,
      "lng": -77.95
    },
    {
      "cityName": "Mount Hope",
      "lat": 26.9,
      "lng": -77.7666667
    },
    {
      "cityName": "Norman Castle",
      "lat": 26.7,
      "lng": -77.4333333
    },
    {
      "cityName": "Sweeting Cay",
      "lat": 26.6,
      "lng": -77.8833333
    },
    {
      "cityName": "Wood Cay Settlement",
      "lat": 26.9,
      "lng": -77.7333333
    }
  ]
}