{
  "name": "Zaire",
  "cities": [
    {
      "cityName": "Ambrisette",
      "lat": -7.2333333,
      "lng": 12.8666667
    },
    {
      "cityName": "Ave Maria",
      "lat": -6.7166667,
      "lng": 14.1
    },
    {
      "cityName": "Baca",
      "lat": -6.0333333,
      "lng": 12.8
    },
    {
      "cityName": "Bamba",
      "lat": -6.0333333,
      "lng": 14.6833333
    },
    {
      "cityName": "Bando",
      "lat": -7.1833333,
      "lng": 13.5666667
    },
    {
      "cityName": "Bango",
      "lat": -5.9,
      "lng": 14.1166667
    },
    {
      "cityName": "Banza",
      "lat": -6.2666667,
      "lng": 14.2833333
    },
    {
      "cityName": "Banza Cai",
      "lat": -6.05,
      "lng": 14.6666667
    },
    {
      "cityName": "Banza Coma",
      "lat": -6.5166667,
      "lng": 14.7333333
    },
    {
      "cityName": "Banza Cuimba",
      "lat": -6.1333333,
      "lng": 14.6333333
    },
    {
      "cityName": "Banza Pango",
      "lat": -6.0833333,
      "lng": 14.1833333
    },
    {
      "cityName": "Banza Panza",
      "lat": -6.1,
      "lng": 14.3166667
    },
    {
      "cityName": "Banza Puto Antiga",
      "lat": -6.25,
      "lng": 14.3
    },
    {
      "cityName": "Banza Quiende",
      "lat": -6.4166667,
      "lng": 14.05
    },
    {
      "cityName": "Banza Quiôa",
      "lat": -6.3,
      "lng": 14.8833333
    },
    {
      "cityName": "Banza Tadi",
      "lat": -6.5666667,
      "lng": 14.65
    },
    {
      "cityName": "Banza Tamba",
      "lat": -6.1666667,
      "lng": 14.4
    },
    {
      "cityName": "Banza Véléle",
      "lat": -6.3833333,
      "lng": 14.3
    },
    {
      "cityName": "Banzazoa",
      "lat": -6.2833333,
      "lng": 14.8333333
    },
    {
      "cityName": "Beca Monteira",
      "lat": -7.15,
      "lng": 13.65
    },
    {
      "cityName": "Bela Vista",
      "lat": -6.2333333,
      "lng": 14.2333333
    },
    {
      "cityName": "Belém",
      "lat": -6.4333333,
      "lng": 14.3166667
    },
    {
      "cityName": "Belenge",
      "lat": -6.7,
      "lng": 14.0833333
    },
    {
      "cityName": "Belo Horizonte",
      "lat": -6.05,
      "lng": 14.55
    },
    {
      "cityName": "Bembe",
      "lat": -6.8,
      "lng": 13.3
    },
    {
      "cityName": "Bende",
      "lat": -6.6333333,
      "lng": 14.5
    },
    {
      "cityName": "Bene",
      "lat": -6.2333333,
      "lng": 13.3
    },
    {
      "cityName": "Benza",
      "lat": -6.2666667,
      "lng": 12.95
    },
    {
      "cityName": "Boanza",
      "lat": -5.9333333,
      "lng": 14.2333333
    },
    {
      "cityName": "Boela",
      "lat": -5.9166667,
      "lng": 14.55
    },
    {
      "cityName": "Bonde",
      "lat": -5.9833333,
      "lng": 14.7833333
    },
    {
      "cityName": "Bua",
      "lat": -7.15,
      "lng": 13.2
    },
    {
      "cityName": "Bumbuge",
      "lat": -6.1666667,
      "lng": 14.3833333
    },
    {
      "cityName": "Bunda",
      "lat": -6.4166667,
      "lng": 12.6333333
    },
    {
      "cityName": "Buzoalongua",
      "lat": -6.2833333,
      "lng": 14.8
    },
    {
      "cityName": "Cabeça da Cobra",
      "lat": -6.55,
      "lng": 12.5333333
    },
    {
      "cityName": "Cacilha",
      "lat": -6.45,
      "lng": 14.3166667
    },
    {
      "cityName": "Cacilhas",
      "lat": -6.1333333,
      "lng": 14.6
    },
    {
      "cityName": "Caconga",
      "lat": -6.75,
      "lng": 12.65
    },
    {
      "cityName": "Cai",
      "lat": -5.9833333,
      "lng": 14.25
    },
    {
      "cityName": "Cainza",
      "lat": -6.1166667,
      "lng": 13.8
    },
    {
      "cityName": "Calambala",
      "lat": -6.2,
      "lng": 14.35
    },
    {
      "cityName": "Caluca",
      "lat": -6.7666667,
      "lng": 14.1833333
    },
    {
      "cityName": "Cama",
      "lat": -5.9,
      "lng": 14.1
    },
    {
      "cityName": "Camba",
      "lat": -6.4833333,
      "lng": 14.35
    },
    {
      "cityName": "Cambi",
      "lat": -6.0666667,
      "lng": 14.3833333
    },
    {
      "cityName": "Cambo",
      "lat": -6.8333333,
      "lng": 14.1
    },
    {
      "cityName": "Cana",
      "lat": -6.7833333,
      "lng": 13.4166667
    },
    {
      "cityName": "Canca",
      "lat": -6.35,
      "lng": 14.7166667
    },
    {
      "cityName": "Canda",
      "lat": -6.3666667,
      "lng": 14.7833333
    },
    {
      "cityName": "Cando",
      "lat": -6.0166667,
      "lng": 14.7
    },
    {
      "cityName": "Canga",
      "lat": -5.95,
      "lng": 14.2333333
    },
    {
      "cityName": "Canzi",
      "lat": -6.05,
      "lng": 14.4666667
    },
    {
      "cityName": "Caque",
      "lat": -6.6666667,
      "lng": 13.8166667
    },
    {
      "cityName": "Caquila",
      "lat": -6.5166667,
      "lng": 12.9
    },
    {
      "cityName": "Casso",
      "lat": -6.3666667,
      "lng": 14.65
    },
    {
      "cityName": "Cavuge",
      "lat": -6.3333333,
      "lng": 12.4166667
    },
    {
      "cityName": "Ceque",
      "lat": -6.2333333,
      "lng": 14.3333333
    },
    {
      "cityName": "Chafua",
      "lat": -6.4,
      "lng": 13.3333333
    },
    {
      "cityName": "Chamindele",
      "lat": -6.2166667,
      "lng": 14.2333333
    },
    {
      "cityName": "Cheche",
      "lat": -6.1666667,
      "lng": 14.2166667
    },
    {
      "cityName": "Chiantete",
      "lat": -5.9833333,
      "lng": 13.8666667
    },
    {
      "cityName": "Chiede",
      "lat": -6.35,
      "lng": 12.7833333
    },
    {
      "cityName": "Chuquichilo",
      "lat": -6.6333333,
      "lng": 14.1833333
    },
    {
      "cityName": "Côco",
      "lat": -5.8333333,
      "lng": 13.9666667
    },
    {
      "cityName": "Coinzo",
      "lat": -6.1666667,
      "lng": 13.6666667
    },
    {
      "cityName": "Cola",
      "lat": -5.9833333,
      "lng": 14.75
    },
    {
      "cityName": "Colo",
      "lat": -6.7666667,
      "lng": 14.0333333
    },
    {
      "cityName": "Comba",
      "lat": -5.9833333,
      "lng": 14.7333333
    },
    {
      "cityName": "Conco",
      "lat": -6.5666667,
      "lng": 14.3166667
    },
    {
      "cityName": "Conde",
      "lat": -6.1833333,
      "lng": 12.3833333
    },
    {
      "cityName": "Condo",
      "lat": -6.2,
      "lng": 14.2166667
    },
    {
      "cityName": "Conga",
      "lat": -6.2333333,
      "lng": 14.7
    },
    {
      "cityName": "Congo-dia-Cati",
      "lat": -6.05,
      "lng": 14.4833333
    },
    {
      "cityName": "Conquelo",
      "lat": -6.2833333,
      "lng": 14.7333333
    },
    {
      "cityName": "Couquelo",
      "lat": -6.5333333,
      "lng": 14.6
    },
    {
      "cityName": "Cuanabel",
      "lat": -7.4333333,
      "lng": 13.1833333
    },
    {
      "cityName": "Cuancua",
      "lat": -6.1333333,
      "lng": 12.9833333
    },
    {
      "cityName": "Cuanza",
      "lat": -6.05,
      "lng": 14.1
    },
    {
      "cityName": "Cuemba",
      "lat": -6,
      "lng": 13.6
    },
    {
      "cityName": "Cuimba",
      "lat": -6.1166667,
      "lng": 14.6333333
    },
    {
      "cityName": "Cula",
      "lat": -6.2166667,
      "lng": 14.3166667
    },
    {
      "cityName": "Culo",
      "lat": -6.6833333,
      "lng": 13.6666667
    },
    {
      "cityName": "Cumbia",
      "lat": -6.9,
      "lng": 13.5
    },
    {
      "cityName": "Cumbi",
      "lat": -5.8666667,
      "lng": 14.1666667
    },
    {
      "cityName": "Cumbiriaba",
      "lat": -6.1333333,
      "lng": 12.9
    },
    {
      "cityName": "Cumbo",
      "lat": -7.25,
      "lng": 13.65
    },
    {
      "cityName": "Cunco",
      "lat": -7.4333333,
      "lng": 13.3
    },
    {
      "cityName": "Cunga",
      "lat": -6.2333333,
      "lng": 14.7833333
    },
    {
      "cityName": "Cungo",
      "lat": -6.3333333,
      "lng": 14.6333333
    },
    {
      "cityName": "Cutuzo",
      "lat": -6.75,
      "lng": 14.1
    },
    {
      "cityName": "Damba",
      "lat": -6.7,
      "lng": 14.1666667
    },
    {
      "cityName": "Dembo",
      "lat": -6.0166667,
      "lng": 14.0833333
    },
    {
      "cityName": "Diádia",
      "lat": -6.05,
      "lng": 14.6833333
    },
    {
      "cityName": "Diamba",
      "lat": -6.8,
      "lng": 13.0166667
    },
    {
      "cityName": "Diango Chengo",
      "lat": -7.6833333,
      "lng": 13.0833333
    },
    {
      "cityName": "Dinga",
      "lat": -6.5,
      "lng": 13.85
    },
    {
      "cityName": "Diuquica",
      "lat": -6.25,
      "lng": 14.8833333
    },
    {
      "cityName": "Divangamene",
      "lat": -6.3166667,
      "lng": 14.1833333
    },
    {
      "cityName": "Divangameno",
      "lat": -6.55,
      "lng": 14.6166667
    },
    {
      "cityName": "Dongo",
      "lat": -6.4833333,
      "lng": 14.55
    },
    {
      "cityName": "Duio",
      "lat": -6.5166667,
      "lng": 14.3666667
    },
    {
      "cityName": "Emílio de Carvalho",
      "lat": -5.9166667,
      "lng": 12.9666667
    },
    {
      "cityName": "Engle",
      "lat": -6.5333333,
      "lng": 13.0333333
    },
    {
      "cityName": "Evua",
      "lat": -6.65,
      "lng": 13.95
    },
    {
      "cityName": "Fango",
      "lat": -6.8666667,
      "lng": 13.5
    },
    {
      "cityName": "Fazenda Doutor Coelho",
      "lat": -6.1666667,
      "lng": 14.4166667
    },
    {
      "cityName": "Fazenda Lodge",
      "lat": -7.8,
      "lng": 13.15
    },
    {
      "cityName": "Fiauquire",
      "lat": -5.9666667,
      "lng": 14.3166667
    },
    {
      "cityName": "Finda",
      "lat": -6.75,
      "lng": 13.5333333
    },
    {
      "cityName": "Fuma",
      "lat": -6.6666667,
      "lng": 14.0833333
    },
    {
      "cityName": "Futo",
      "lat": -6.8166667,
      "lng": 14.05
    },
    {
      "cityName": "Gala",
      "lat": -5.9833333,
      "lng": 14.5333333
    },
    {
      "cityName": "Ganda",
      "lat": -5.95,
      "lng": 13.7166667
    },
    {
      "cityName": "Gando",
      "lat": -6.0166667,
      "lng": 14.4833333
    },
    {
      "cityName": "Goazela",
      "lat": -6.0333333,
      "lng": 14.5333333
    },
    {
      "cityName": "Gombe",
      "lat": -6.05,
      "lng": 13.35
    },
    {
      "cityName": "Gongue",
      "lat": -6.2666667,
      "lng": 13.15
    },
    {
      "cityName": "Guemba",
      "lat": -6.2,
      "lng": 12.9666667
    },
    {
      "cityName": "Guembe",
      "lat": -6.4,
      "lng": 14.3
    },
    {
      "cityName": "Gumba",
      "lat": -6.35,
      "lng": 13.5333333
    },
    {
      "cityName": "Gunda",
      "lat": -5.9333333,
      "lng": 14.5333333
    },
    {
      "cityName": "Gundo",
      "lat": -5.95,
      "lng": 14.7166667
    },
    {
      "cityName": "Gunga",
      "lat": -6.2833333,
      "lng": 14.2166667
    },
    {
      "cityName": "Iale",
      "lat": -6.2833333,
      "lng": 14.7833333
    },
    {
      "cityName": "Ianama",
      "lat": -6.4333333,
      "lng": 14.6333333
    },
    {
      "cityName": "Ianga",
      "lat": -6.1666667,
      "lng": 14.7666667
    },
    {
      "cityName": "Ide",
      "lat": -6.3333333,
      "lng": 14.7666667
    },
    {
      "cityName": "Ieca",
      "lat": -6.0333333,
      "lng": 14.4833333
    },
    {
      "cityName": "Iena",
      "lat": -6.1833333,
      "lng": 13.4333333
    },
    {
      "cityName": "Ima",
      "lat": -6.8833333,
      "lng": 14.3
    },
    {
      "cityName": "Impanga",
      "lat": -6.3833333,
      "lng": 12.45
    },
    {
      "cityName": "Ingo",
      "lat": -6.4,
      "lng": 14.2833333
    },
    {
      "cityName": "Iongo",
      "lat": -5.9666667,
      "lng": 13.3166667
    },
    {
      "cityName": "Kalunda",
      "lat": -6.3666667,
      "lng": 13.5
    },
    {
      "cityName": "Kambi",
      "lat": -6.2833333,
      "lng": 13.6
    },
    {
      "cityName": "Kelo",
      "lat": -6.45,
      "lng": 12.7333333
    },
    {
      "cityName": "Kibala",
      "lat": -7.3833333,
      "lng": 13.7666667
    },
    {
      "cityName": "Kifinda",
      "lat": -6.6666667,
      "lng": 12.8333333
    },
    {
      "cityName": "Kifuma",
      "lat": -6.3666667,
      "lng": 12.4333333
    },
    {
      "cityName": "Kimabakala",
      "lat": -6.1333333,
      "lng": 12.55
    },
    {
      "cityName": "Kinsao",
      "lat": -6.8666667,
      "lng": 12.7666667
    },
    {
      "cityName": "Kisanga",
      "lat": -6.05,
      "lng": 12.6
    },
    {
      "cityName": "Kisembo",
      "lat": -7.7333333,
      "lng": 13.05
    },
    {
      "cityName": "Kongo",
      "lat": -6.6,
      "lng": 12.5666667
    },
    {
      "cityName": "Lamba",
      "lat": -6.0833333,
      "lng": 14.45
    },
    {
      "cityName": "Lambo",
      "lat": -6.2333333,
      "lng": 14.2666667
    },
    {
      "cityName": "Landa",
      "lat": -6.3333333,
      "lng": 14.7
    },
    {
      "cityName": "Lau",
      "lat": -6.1,
      "lng": 14.2
    },
    {
      "cityName": "Lefunde",
      "lat": -6.2,
      "lng": 13.7166667
    },
    {
      "cityName": "Lemba",
      "lat": -6.1333333,
      "lng": 14.3
    },
    {
      "cityName": "Lemo",
      "lat": -6.3,
      "lng": 14.4333333
    },
    {
      "cityName": "Lende",
      "lat": -6.0666667,
      "lng": 14.6666667
    },
    {
      "cityName": "Lengue",
      "lat": -5.9833333,
      "lng": 13.45
    },
    {
      "cityName": "Loango",
      "lat": -6.85,
      "lng": 13.1
    },
    {
      "cityName": "Lolo",
      "lat": -6.0666667,
      "lng": 14.1833333
    },
    {
      "cityName": "Lombe",
      "lat": -7.4333333,
      "lng": 12.9333333
    },
    {
      "cityName": "Lona",
      "lat": -7.35,
      "lng": 12.9166667
    },
    {
      "cityName": "Longueige",
      "lat": -6.2,
      "lng": 14.65
    },
    {
      "cityName": "Luaia",
      "lat": -6.6833333,
      "lng": 14.6666667
    },
    {
      "cityName": "Luanica",
      "lat": -6.0166667,
      "lng": 14.6833333
    },
    {
      "cityName": "Luata",
      "lat": -6.2333333,
      "lng": 14.8833333
    },
    {
      "cityName": "Lubamba",
      "lat": -6.3333333,
      "lng": 14.1333333
    },
    {
      "cityName": "Luconge",
      "lat": -6.9833333,
      "lng": 13.1166667
    },
    {
      "cityName": "Lucossa",
      "lat": -5.9833333,
      "lng": 14.0666667
    },
    {
      "cityName": "Lucuchi",
      "lat": -6.1833333,
      "lng": 14.3833333
    },
    {
      "cityName": "Luege",
      "lat": -6.3,
      "lng": 14.3
    },
    {
      "cityName": "Luena",
      "lat": -6.7166667,
      "lng": 14.1333333
    },
    {
      "cityName": "Luide",
      "lat": -6.5666667,
      "lng": 14.6833333
    },
    {
      "cityName": "Luinga",
      "lat": -7.7,
      "lng": 13.3666667
    },
    {
      "cityName": "Lula",
      "lat": -5.9166667,
      "lng": 14.1
    },
    {
      "cityName": "Lulendo",
      "lat": -6,
      "lng": 13.1
    },
    {
      "cityName": "Lumata",
      "lat": -6.4166667,
      "lng": 14.3
    },
    {
      "cityName": "Lumbe",
      "lat": -5.9,
      "lng": 14.3333333
    },
    {
      "cityName": "Lumueno",
      "lat": -6.0333333,
      "lng": 14.15
    },
    {
      "cityName": "Lunda",
      "lat": -6.3166667,
      "lng": 13.9833333
    },
    {
      "cityName": "Lundeji",
      "lat": -6.15,
      "lng": 14.2666667
    },
    {
      "cityName": "Lunguege",
      "lat": -6.1833333,
      "lng": 14.2166667
    },
    {
      "cityName": "Lunuanga",
      "lat": -6.45,
      "lng": 12.55
    },
    {
      "cityName": "Lusolo",
      "lat": -6.4833333,
      "lng": 14.6166667
    },
    {
      "cityName": "Lutendele",
      "lat": -6.3166667,
      "lng": 14.7166667
    },
    {
      "cityName": "Luvaca",
      "lat": -5.9833333,
      "lng": 14.7666667
    },
    {
      "cityName": "Luvemba",
      "lat": -5.9833333,
      "lng": 14.0333333
    },
    {
      "cityName": "Luvenga",
      "lat": -6.7333333,
      "lng": 14.4333333
    },
    {
      "cityName": "Luvo",
      "lat": -5.85,
      "lng": 14.0833333
    },
    {
      "cityName": "Luvovambo",
      "lat": -6.1666667,
      "lng": 14.4833333
    },
    {
      "cityName": "Luvumba",
      "lat": -6.7833333,
      "lng": 12.6833333
    },
    {
      "cityName": "Luzo",
      "lat": -6.25,
      "lng": 13.8666667
    },
    {
      "cityName": "Mabemba",
      "lat": -6.6,
      "lng": 14.4
    },
    {
      "cityName": "Macandi",
      "lat": -6.0666667,
      "lng": 14.45
    },
    {
      "cityName": "Macanga",
      "lat": -6.8666667,
      "lng": 14.0333333
    },
    {
      "cityName": "Macôco",
      "lat": -6.3,
      "lng": 14.7
    },
    {
      "cityName": "Madimba",
      "lat": -6.5166667,
      "lng": 14.35
    },
    {
      "cityName": "Mafinda",
      "lat": -6.75,
      "lng": 12.9333333
    },
    {
      "cityName": "Mafuca",
      "lat": -7.5333333,
      "lng": 12.9833333
    },
    {
      "cityName": "Magina",
      "lat": -5.9666667,
      "lng": 14.2666667
    },
    {
      "cityName": "Magiva",
      "lat": -6.8166667,
      "lng": 14.0666667
    },
    {
      "cityName": "Maladi",
      "lat": -7.7333333,
      "lng": 13.1166667
    },
    {
      "cityName": "Mambo-Mampa",
      "lat": -6.4833333,
      "lng": 14.3333333
    },
    {
      "cityName": "Manga Grande",
      "lat": -6.7166667,
      "lng": 12.6166667
    },
    {
      "cityName": "Maria",
      "lat": -6.5333333,
      "lng": 14.3666667
    },
    {
      "cityName": "Massanga",
      "lat": -6.7833333,
      "lng": 12.7333333
    },
    {
      "cityName": "Massangana",
      "lat": -6.2,
      "lng": 12.6666667
    },
    {
      "cityName": "Matadi",
      "lat": -5.8833333,
      "lng": 14.25
    },
    {
      "cityName": "Matampi",
      "lat": -6.0833333,
      "lng": 14.6333333
    },
    {
      "cityName": "Matata",
      "lat": -7.0666667,
      "lng": 13.45
    },
    {
      "cityName": "Matombe",
      "lat": -5.9666667,
      "lng": 14.0333333
    },
    {
      "cityName": "Mauele",
      "lat": -6.0833333,
      "lng": 14.65
    },
    {
      "cityName": "Maunze",
      "lat": -6.25,
      "lng": 14.3333333
    },
    {
      "cityName": "Mazina",
      "lat": -6.4,
      "lng": 14.0833333
    },
    {
      "cityName": "Mazomandomba",
      "lat": -6.6833333,
      "lng": 12.6
    },
    {
      "cityName": "Mazonzi",
      "lat": -6.95,
      "lng": 14.0333333
    },
    {
      "cityName": "Mbamba",
      "lat": -5.95,
      "lng": 13.8666667
    },
    {
      "cityName": "M'banza Congo",
      "lat": -6.2666667,
      "lng": 14.25
    },
    {
      "cityName": "Mepala",
      "lat": -6.1333333,
      "lng": 13.7333333
    },
    {
      "cityName": "Mingombo",
      "lat": -7.7666667,
      "lng": 13.15
    },
    {
      "cityName": "Mitengo",
      "lat": -7.2,
      "lng": 13.8166667
    },
    {
      "cityName": "Mocula",
      "lat": -6.9666667,
      "lng": 12.8333333
    },
    {
      "cityName": "Monga Conga",
      "lat": -6.2,
      "lng": 14.85
    },
    {
      "cityName": "Mongoazulo",
      "lat": -6.5833333,
      "lng": 14.3833333
    },
    {
      "cityName": "Mongo",
      "lat": -6.55,
      "lng": 14.55
    },
    {
      "cityName": "Mora",
      "lat": -6.9666667,
      "lng": 13.0166667
    },
    {
      "cityName": "Mpacaia",
      "lat": -6.0166667,
      "lng": 13.2
    },
    {
      "cityName": "Mpemba",
      "lat": -6.6,
      "lng": 13.9
    },
    {
      "cityName": "Muanga",
      "lat": -6.6,
      "lng": 12.9
    },
    {
      "cityName": "Muanza",
      "lat": -6.0833333,
      "lng": 14.5833333
    },
    {
      "cityName": "Mucanda",
      "lat": -7.0333333,
      "lng": 13.5333333
    },
    {
      "cityName": "Muingo",
      "lat": -6.0833333,
      "lng": 14.3333333
    },
    {
      "cityName": "Muinguilo",
      "lat": -6.3666667,
      "lng": 14.8333333
    },
    {
      "cityName": "Ncanda",
      "lat": -6.0166667,
      "lng": 14.3166667
    },
    {
      "cityName": "Ndinga",
      "lat": -6.7833333,
      "lng": 14.0333333
    },
    {
      "cityName": "Nequenge",
      "lat": -6.4,
      "lng": 12.65
    },
    {
      "cityName": "N'Hiemo",
      "lat": -6.1166667,
      "lng": 14.2
    },
    {
      "cityName": "Noki",
      "lat": -5.85,
      "lng": 13.4333333
    },
    {
      "cityName": "Nolo",
      "lat": -6.3333333,
      "lng": 14.2833333
    },
    {
      "cityName": "Npango",
      "lat": -6.6666667,
      "lng": 14.4166667
    },
    {
      "cityName": "Nquenje",
      "lat": -6.5,
      "lng": 13.9333333
    },
    {
      "cityName": "Ntala",
      "lat": -5.8833333,
      "lng": 13.8166667
    },
    {
      "cityName": "Ntempe",
      "lat": -6.4666667,
      "lng": 13.3333333
    },
    {
      "cityName": "Onde",
      "lat": -7.1166667,
      "lng": 13.1
    },
    {
      "cityName": "Palhotas",
      "lat": -6.5333333,
      "lng": 14.6666667
    },
    {
      "cityName": "Pangala",
      "lat": -6.0666667,
      "lng": 14.4333333
    },
    {
      "cityName": "Paso",
      "lat": -6.3666667,
      "lng": 12.8666667
    },
    {
      "cityName": "Paza",
      "lat": -6.1333333,
      "lng": 14.45
    },
    {
      "cityName": "Peco",
      "lat": -6.1333333,
      "lng": 12.75
    },
    {
      "cityName": "Pengala",
      "lat": -6.2166667,
      "lng": 12.3833333
    },
    {
      "cityName": "Pete",
      "lat": -6.45,
      "lng": 14.0166667
    },
    {
      "cityName": "Peveleca",
      "lat": -6.25,
      "lng": 14.8
    },
    {
      "cityName": "Pinda",
      "lat": -6.2,
      "lng": 12.4
    },
    {
      "cityName": "Pingo",
      "lat": -6.55,
      "lng": 14.6666667
    },
    {
      "cityName": "Ponta do Padrão",
      "lat": -6.05,
      "lng": 12.3
    },
    {
      "cityName": "Porto Rico",
      "lat": -6.1333333,
      "lng": 12.5166667
    },
    {
      "cityName": "Poso",
      "lat": -6.5333333,
      "lng": 12.8333333
    },
    {
      "cityName": "Puite",
      "lat": -6.8,
      "lng": 14.2
    },
    {
      "cityName": "Q. João",
      "lat": -7.4666667,
      "lng": 13.65
    },
    {
      "cityName": "Quengue",
      "lat": -6.6333333,
      "lng": 14.0333333
    },
    {
      "cityName": "Quiaca",
      "lat": -6.1333333,
      "lng": 12.7
    },
    {
      "cityName": "Quiaia",
      "lat": -6.1833333,
      "lng": 14.35
    },
    {
      "cityName": "Quianvo",
      "lat": -6,
      "lng": 12.9666667
    },
    {
      "cityName": "Quianza",
      "lat": -6.15,
      "lng": 14.45
    },
    {
      "cityName": "Quiavanga",
      "lat": -7.1666667,
      "lng": 13.7166667
    },
    {
      "cityName": "Quibenga",
      "lat": -6.05,
      "lng": 14.1666667
    },
    {
      "cityName": "Quibiri",
      "lat": -7.7166667,
      "lng": 13.5
    },
    {
      "cityName": "Quibonde",
      "lat": -7.4833333,
      "lng": 13.0166667
    },
    {
      "cityName": "Quicanda",
      "lat": -6.0166667,
      "lng": 13.4
    },
    {
      "cityName": "Quicando",
      "lat": -7.2333333,
      "lng": 12.8833333
    },
    {
      "cityName": "Quicanga",
      "lat": -6.7833333,
      "lng": 13.5166667
    },
    {
      "cityName": "Quicango",
      "lat": -7.2833333,
      "lng": 13.1666667
    },
    {
      "cityName": "Quicombo",
      "lat": -6.2333333,
      "lng": 14.3166667
    },
    {
      "cityName": "Quicua",
      "lat": -7.2166667,
      "lng": 12.8833333
    },
    {
      "cityName": "Quicumbi",
      "lat": -6.6166667,
      "lng": 13.0333333
    },
    {
      "cityName": "Quidiambo",
      "lat": -5.9666667,
      "lng": 14.5333333
    },
    {
      "cityName": "Quidio",
      "lat": -7.3,
      "lng": 13.6
    },
    {
      "cityName": "Quido",
      "lat": -7.4,
      "lng": 13.5
    },
    {
      "cityName": "Quiela",
      "lat": -5.9833333,
      "lng": 12.9166667
    },
    {
      "cityName": "Quielelo",
      "lat": -5.9833333,
      "lng": 14.3333333
    },
    {
      "cityName": "Quienga",
      "lat": -5.95,
      "lng": 14.0833333
    },
    {
      "cityName": "Quilembo",
      "lat": -7.05,
      "lng": 13.4
    },
    {
      "cityName": "Quilenga",
      "lat": -6.55,
      "lng": 14.7
    },
    {
      "cityName": "Quilonga",
      "lat": -6.25,
      "lng": 14.9
    },
    {
      "cityName": "Quilongo",
      "lat": -6.35,
      "lng": 14.65
    },
    {
      "cityName": "Quilumbo",
      "lat": -6.55,
      "lng": 14.3666667
    },
    {
      "cityName": "Quimaenga",
      "lat": -7.2,
      "lng": 13.65
    },
    {
      "cityName": "Quimalo",
      "lat": -6.3166667,
      "lng": 14.2833333
    },
    {
      "cityName": "Quimal",
      "lat": -7.2833333,
      "lng": 13.3666667
    },
    {
      "cityName": "Quimazaguie",
      "lat": -6.5,
      "lng": 14.6833333
    },
    {
      "cityName": "Quimbache",
      "lat": -5.9333333,
      "lng": 14.2666667
    },
    {
      "cityName": "Quimbamba",
      "lat": -6.5666667,
      "lng": 14.3666667
    },
    {
      "cityName": "Quimbanda",
      "lat": -6.1666667,
      "lng": 14.55
    },
    {
      "cityName": "Quimbanga",
      "lat": -6.1333333,
      "lng": 13.1833333
    },
    {
      "cityName": "Quimbel",
      "lat": -7.1666667,
      "lng": 12.9333333
    },
    {
      "cityName": "Quimbila",
      "lat": -6.4333333,
      "lng": 14.3333333
    },
    {
      "cityName": "Quimboche",
      "lat": -7.15,
      "lng": 13.4
    },
    {
      "cityName": "Quimencunco",
      "lat": -7.2,
      "lng": 13.1
    },
    {
      "cityName": "Quimiala",
      "lat": -6.3333333,
      "lng": 14.8
    },
    {
      "cityName": "Quimi",
      "lat": -7.0666667,
      "lng": 13.85
    },
    {
      "cityName": "Quimpeche",
      "lat": -6.3666667,
      "lng": 14.7166667
    },
    {
      "cityName": "Quimpungo",
      "lat": -5.9666667,
      "lng": 13.25
    },
    {
      "cityName": "Quinambo",
      "lat": -7.6666667,
      "lng": 13.0833333
    },
    {
      "cityName": "Quina",
      "lat": -6.2833333,
      "lng": 14.95
    },
    {
      "cityName": "Quincunga",
      "lat": -6.5833333,
      "lng": 14.3666667
    },
    {
      "cityName": "Quincuuila",
      "lat": -5.9833333,
      "lng": 14.7166667
    },
    {
      "cityName": "Quindequi",
      "lat": -6.1333333,
      "lng": 14.3666667
    },
    {
      "cityName": "Quindeso",
      "lat": -6.3166667,
      "lng": 14.1666667
    },
    {
      "cityName": "Quindiozi",
      "lat": -6.3666667,
      "lng": 14.3
    },
    {
      "cityName": "Quinga do Lengue",
      "lat": -5.9666667,
      "lng": 13.4833333
    },
    {
      "cityName": "Quingenge",
      "lat": -6.4333333,
      "lng": 12.75
    },
    {
      "cityName": "Quingoma",
      "lat": -6.7333333,
      "lng": 12.8833333
    },
    {
      "cityName": "Quingombe",
      "lat": -6.55,
      "lng": 12.9666667
    },
    {
      "cityName": "Quinhié",
      "lat": -7.5166667,
      "lng": 13.4333333
    },
    {
      "cityName": "Quinicugula",
      "lat": -7.1166667,
      "lng": 12.8833333
    },
    {
      "cityName": "Quinsage",
      "lat": -5.9666667,
      "lng": 14.8
    },
    {
      "cityName": "Quinssende",
      "lat": -5.9833333,
      "lng": 14.2166667
    },
    {
      "cityName": "Quinsuca",
      "lat": -6.5833333,
      "lng": 14.6333333
    },
    {
      "cityName": "Quintxiamputo",
      "lat": -6.6,
      "lng": 14.3666667
    },
    {
      "cityName": "Quiolo",
      "lat": -7.4,
      "lng": 13.15
    },
    {
      "cityName": "Quipae",
      "lat": -6.65,
      "lng": 12.5666667
    },
    {
      "cityName": "Quipando",
      "lat": -6.3,
      "lng": 14.9333333
    },
    {
      "cityName": "Quipango",
      "lat": -6.45,
      "lng": 14.8
    },
    {
      "cityName": "Quiquianguele",
      "lat": -6.3333333,
      "lng": 14.3166667
    },
    {
      "cityName": "Quiquinga",
      "lat": -6.25,
      "lng": 14.7
    },
    {
      "cityName": "Quiquingle",
      "lat": -6.7833333,
      "lng": 12.85
    },
    {
      "cityName": "Quiseba",
      "lat": -5.9166667,
      "lng": 13.4833333
    },
    {
      "cityName": "Quissacala",
      "lat": -6.0666667,
      "lng": 12.8333333
    },
    {
      "cityName": "Quissala",
      "lat": -6.3833333,
      "lng": 14.75
    },
    {
      "cityName": "Quissenguel",
      "lat": -6.5333333,
      "lng": 14.7
    },
    {
      "cityName": "Quissucana",
      "lat": -6.1333333,
      "lng": 13.3
    },
    {
      "cityName": "Quitinda",
      "lat": -6.2333333,
      "lng": 14.65
    },
    {
      "cityName": "Quitombe",
      "lat": -6.2333333,
      "lng": 14.7666667
    },
    {
      "cityName": "Quitona",
      "lat": -6.7666667,
      "lng": 13.9833333
    },
    {
      "cityName": "Quitoto",
      "lat": -6.1333333,
      "lng": 14.85
    },
    {
      "cityName": "Quiuonza",
      "lat": -6.1833333,
      "lng": 14.4833333
    },
    {
      "cityName": "Quiximba",
      "lat": -6.75,
      "lng": 13.6
    },
    {
      "cityName": "Quizama",
      "lat": -7.55,
      "lng": 13.6
    },
    {
      "cityName": "Quiza",
      "lat": -6.7666667,
      "lng": 13.35
    },
    {
      "cityName": "Quizulo",
      "lat": -6.2333333,
      "lng": 14.6666667
    },
    {
      "cityName": "Sacala",
      "lat": -7.6333333,
      "lng": 13.5666667
    },
    {
      "cityName": "Saint Antonio do Zaire",
      "lat": -6.1333333,
      "lng": 12.3666667
    },
    {
      "cityName": "Salvé",
      "lat": -6.6166667,
      "lng": 14.4333333
    },
    {
      "cityName": "Samba",
      "lat": -6.4666667,
      "lng": 14.55
    },
    {
      "cityName": "Sambo",
      "lat": -5.95,
      "lng": 14.5333333
    },
    {
      "cityName": "Sanda",
      "lat": -5.9333333,
      "lng": 14.55
    },
    {
      "cityName": "Sango",
      "lat": -6.2833333,
      "lng": 14.6166667
    },
    {
      "cityName": "Sangui",
      "lat": -6.3166667,
      "lng": 14.3
    },
    {
      "cityName": "Sanzama",
      "lat": -6.6,
      "lng": 14.4166667
    },
    {
      "cityName": "Sanza",
      "lat": -6.3333333,
      "lng": 14.8666667
    },
    {
      "cityName": "Sende",
      "lat": -6.5,
      "lng": 12.7333333
    },
    {
      "cityName": "Senga",
      "lat": -6.1,
      "lng": 14.6
    },
    {
      "cityName": "Sole",
      "lat": -6.3166667,
      "lng": 14.1166667
    },
    {
      "cityName": "Sumba",
      "lat": -6.1333333,
      "lng": 12.6166667
    },
    {
      "cityName": "Tala",
      "lat": -6.0333333,
      "lng": 13.5333333
    },
    {
      "cityName": "Tandi",
      "lat": -6.3166667,
      "lng": 14.75
    },
    {
      "cityName": "Tanga",
      "lat": -6.2333333,
      "lng": 14.35
    },
    {
      "cityName": "Tanue",
      "lat": -6.2,
      "lng": 13.6333333
    },
    {
      "cityName": "Tanvo",
      "lat": -6.4,
      "lng": 14.7666667
    },
    {
      "cityName": "Tauquire",
      "lat": -6.4666667,
      "lng": 14.6333333
    },
    {
      "cityName": "Tenda",
      "lat": -7.0666667,
      "lng": 13.1833333
    },
    {
      "cityName": "Tenga",
      "lat": -6.4,
      "lng": 14.6166667
    },
    {
      "cityName": "Tenvo",
      "lat": -7.0666667,
      "lng": 13.55
    },
    {
      "cityName": "Tiva",
      "lat": -6.05,
      "lng": 14.1166667
    },
    {
      "cityName": "Tombe",
      "lat": -6.4166667,
      "lng": 12.4666667
    },
    {
      "cityName": "Tomboco",
      "lat": -6.1333333,
      "lng": 14.6166667
    },
    {
      "cityName": "Toni",
      "lat": -6.4166667,
      "lng": 14.0666667
    },
    {
      "cityName": "Toto",
      "lat": -6.3333333,
      "lng": 14.7833333
    },
    {
      "cityName": "Tumbi",
      "lat": -6.1333333,
      "lng": 14.2
    },
    {
      "cityName": "Tungo",
      "lat": -5.9666667,
      "lng": 14.8166667
    },
    {
      "cityName": "Uauani",
      "lat": -6.5,
      "lng": 14.35
    },
    {
      "cityName": "Uene",
      "lat": -5.8833333,
      "lng": 14.1
    },
    {
      "cityName": "Uondo",
      "lat": -6.7,
      "lng": 12.7666667
    },
    {
      "cityName": "Vacala",
      "lat": -6.4,
      "lng": 14.5333333
    },
    {
      "cityName": "Vambe",
      "lat": -7.2333333,
      "lng": 13.5833333
    },
    {
      "cityName": "Vandembo",
      "lat": -6.05,
      "lng": 12.9666667
    },
    {
      "cityName": "Veve",
      "lat": -5.9333333,
      "lng": 14.1166667
    },
    {
      "cityName": "Vimpe",
      "lat": -6.55,
      "lng": 14.5333333
    },
    {
      "cityName": "Vina",
      "lat": -6.5833333,
      "lng": 13.6666667
    },
    {
      "cityName": "Vumputo",
      "lat": -6.0333333,
      "lng": 13.3333333
    },
    {
      "cityName": "Vunciri",
      "lat": -7.0333333,
      "lng": 13.7833333
    },
    {
      "cityName": "Vunda",
      "lat": -5.9166667,
      "lng": 14.3666667
    },
    {
      "cityName": "Zemba",
      "lat": -6.4833333,
      "lng": 14.6833333
    },
    {
      "cityName": "Zenze",
      "lat": -6.6166667,
      "lng": 14.25
    },
    {
      "cityName": "Zua",
      "lat": -6.8,
      "lng": 14.0666667
    },
    {
      "cityName": "Zuele-o-Novo",
      "lat": -6.3,
      "lng": 13.35
    },
    {
      "cityName": "Zulo",
      "lat": -6.5166667,
      "lng": 14.55
    }
  ]
}